~Version Information Block
VERS .                 2.00:  CWLS LOG ASCII STANDARD - VERSION 2.00
WRAP .                   NO:  One line per depth step
~Well Information Block
#MNEM.UNIT        Data Type   Information
#---------- ----------------  -----------
STRT .FT            1860.00:  START DEPTH
STOP .FT            4918.00:  STOP DEPTH
STEP .FT               0.50:  STEP
NULL .              -999.25:  NULL VALUE
COMP .                     :  COMPANY
WELL .                 UK-1:  WELL
FLD  .                     :  FIELD
LOC  .                     :  LOCATION
CTRY .                     :  COUNTRY
STAT .                     :  STATE
CNTY .                     :  COUNTY
SRVC .                     :  SERVICE COMPANY
DATE .                     :  DATE
API  .                     :  API NUMBER
UWI  .                     :  UNIQUE WELL ID
~Curve Information Block
#MNEM.UNIT         API CODE   Curve Description
#---------- ----------------  -----------------
DEPTH.FT                   :  DEPTH CURVE
CALI .IN                   :  
DT   .US/F                 :  
GR   .GAPI                 :  
ILD  .OHMM                 :  
MSFL .OHMM                 :  
NPHI_LS.V/V                  :  
RHOB .G/C3                 :  
~Parameter Information Block
#MNEM.UNIT            Value   Description
#---------- ----------------  -----------
PROJECT.     petro@kponwjlx001:  
SET  .                 WIRE:  
~Other Information Block
# 
~A       DEPTH           CALI             DT             GR            ILD           MSFL        NPHI_LS           RHOB 
# ...
       3669.00         9.1560       118.8750        76.6880         1.0360         1.1700       0.422850         2.2340
       3669.50         9.0390       117.1250        79.0620         1.0330         1.1940       0.434080         2.2300
       3670.00         9.0700       117.1250        72.7500         1.0390         1.1770       0.416990         2.2500
       3670.50         9.1330       116.2500        72.5000         1.0480         1.2980       0.387210         2.2560
       3671.00         9.1560       118.2500        75.3750         1.0610         1.3060       0.359380         2.2520
       3671.50         9.1090       118.2500        80.6880         1.0710         0.9530       0.364260         2.2360
       3672.00         9.0700       119.6250        85.6880         1.0780         1.1390       0.398440         2.2250
       3672.50         9.0780       119.8750        81.4380         1.0750         1.0990       0.404790         2.2230
       3673.00         9.1560       120.0000        80.0000         1.0710         1.0140       0.374020         2.2250
       3673.50         9.1800       120.0000        75.0620         1.0690         1.2610       0.381840         2.2170
       3674.00         9.2420       121.0000        77.2500         1.0650         1.0090       0.402830         2.2150
       3674.50         9.2580       120.7500        81.4380         1.0610         1.0750       0.421880         2.2110
       3675.00         9.3750       120.3750        85.6880         1.0620         0.9200       0.412600         2.2270
       3675.50         9.2660       120.2500        83.4380         1.0670         0.8500       0.395020         2.2340
       3676.00         9.3750       120.1250        80.5620         1.0810         0.7850       0.396480         2.2460
       3676.50         9.0230       121.0000        81.3750         1.0800         0.8280       0.365230         2.2290
       3677.00         8.9450       121.0000        83.8750         1.0640         0.9910       0.372560         2.2110
       3677.50         8.9140       120.0000        83.5620         1.0420         0.9510       0.355470         2.2010
       3678.00         9.0620       120.6250        79.6250         0.9890         0.9440       0.360350         2.1800
       3678.50         8.9220       124.6250        76.1880         0.9180         1.0120       0.389650         2.1390
       3679.00         9.4060       130.6250        75.8750         0.8780         0.9350       0.435060         2.0610
       3679.50         9.5230       131.6250        77.3120         0.8480         0.8820       0.449710         2.0490
       3680.00         9.2420       134.1250        79.0000         0.7980         0.7230       0.453610         2.0530
       3680.50         9.1880       130.8750        76.7500         0.7610         0.5350       0.461910         2.0840
       3681.00         9.2890       128.7500        78.1880         0.7160         0.7840       0.448730         2.1110
       3681.50         9.3670       130.0000        77.5620         0.6780         0.8200       0.402830         2.1450
       3682.00         9.4840       131.2500        78.4380         0.6600         0.5170       0.383790         2.0620
       3682.50         9.9060       133.2500        79.2500         0.6560         0.6630       0.413090         1.9490
       3683.00        10.4220       134.6250        81.8750         0.6640         0.5810       0.426760         1.8750
       3683.50        10.1480       133.5000        80.7500         0.6690         0.6950       0.425290         1.9180
       3684.00         9.8200       131.5000        77.1250         0.6750         0.4600       0.442380         1.9820
       3684.50         9.7970       128.2500        76.0620         0.6700         0.4640       0.459470         2.0350
       3685.00        10.0080       127.7500        76.7500         0.6680         0.7600       0.447270         2.0660
       3685.50         9.0940       128.0000        78.3750         0.6710         0.7080       0.423830         2.1050
       3686.00         9.1880       129.2500        79.1250         0.6840         0.8210       0.416990         2.1290
       3686.50         9.1410       129.7500        84.1250         0.7110         0.8430       0.415530         2.1310
       3687.00         8.8980       128.1250        84.5620         0.7500         0.6660       0.413570         2.1520
       3687.50         8.7500       122.2500        83.0000         0.7860         0.6920       0.395510         2.1800
       3688.00         8.6720       120.0000        76.8120         0.8040         0.6070       0.374020         2.2210
       3688.50         8.5860       119.6250        73.9380         0.8220         0.9840       0.379390         2.2130
       3689.00         8.7190       124.1250        76.1880         0.8410         1.7130       0.378420         2.1930
       3689.50         8.7580       127.0000        79.3120         0.8510         1.0620       0.393550         2.1700
       3690.00         8.8280       126.3750        81.5000         0.8670         0.9880       0.391600         2.1860
       3690.50         8.8750       127.0000        78.5620         0.8440         1.1290       0.385250         2.1890
       3691.00         8.6480       127.0000        79.3750         0.7950         1.0090       0.387700         2.1990
       3691.50         8.7970       127.7500        80.4380         0.7780         0.9840       0.381350         2.1840
       3692.00         8.4140       130.5000        85.1880         0.7560         0.9230       0.370610         2.1860
       3692.50         8.4380       130.5000        82.4380         0.7480         0.8400       0.419920         2.1580
       3693.00         8.6720       130.8750        84.6250         0.7450         0.9490       0.438960         2.1430
       3693.50         8.4140       130.3750        82.3750         0.7450         0.9010       0.463870         2.1480
       3694.00         8.3910       128.3750        85.1250         0.7440         1.0200       0.417970         2.1500
       3694.50         8.5080       127.5000        79.2500         0.7430         1.1010       0.423830         2.1520
       3695.00         8.6330       127.2500        78.1880         0.7500         1.0960       0.422360         2.1230
       3695.50         8.4060       124.5000        80.3120         0.7610         1.0860       0.424800         2.1460
       3696.00         8.3750       123.2500        86.9380         0.7670         1.0500       0.400390         2.1430
       3696.50         8.4060       125.0000        92.5620         0.7660         1.0670       0.393550         2.1860
       3697.00         8.4300       127.2500        88.6880         0.7670         1.1710       0.396000         2.1860
       3697.50         8.4610       127.0000        88.6250         0.7520         1.0280       0.420900         2.1890
       3698.00         8.3910       130.1250        86.0620         0.7500         1.0890       0.425290         2.1780
       3698.50         8.3910       131.2500        86.1250         0.7540         0.9970       0.418460         2.1680
       3699.00         8.3910       131.0000        83.1250         0.7620         1.0760       0.419430         2.1660
       3699.50         8.5080       132.3750        81.5000         0.7810         1.1390       0.425290         2.1910
       3700.00         8.6560       129.1250        80.5620         0.8120         1.1870       0.446290         2.1950
       3700.50         8.7190       126.0000        79.3120         0.8450         1.0600       0.440430         2.2070
       3701.00         8.3440       129.1250        78.2500         0.8730         1.0630       0.419430         2.2170
       3701.50         8.4610       126.0000        78.8750         0.8900         1.2130       0.413090         2.2250
       3702.00         8.2970       120.1250        79.0000         0.9040         1.3890       0.393070         2.2400
