~Version Information Block
VERS .                 2.00:  CWLS LOG ASCII STANDARD - VERSION 2.00
WRAP .                   NO:  One line per depth step
~Well Information Block
#MNEM.UNIT        Data Type   Information
#---------- ----------------  -----------
STRT .FT            1860.00:  START DEPTH
STOP .FT            4918.00:  STOP DEPTH
STEP .FT               0.50:  STEP
NULL .              -999.25:  NULL VALUE
COMP .                     :  COMPANY
WELL .                 UK-1:  WELL
FLD  .                     :  FIELD
LOC  .                     :  LOCATION
CTRY .                     :  COUNTRY
STAT .                     :  STATE
CNTY .                     :  COUNTY
SRVC .                     :  SERVICE COMPANY
DATE .                     :  DATE
API  .                     :  API NUMBER
UWI  .                     :  UNIQUE WELL ID
~Curve Information Block
#MNEM.UNIT         API CODE   Curve Description
#---------- ----------------  -----------------
DEPTH.FT                   :  DEPTH CURVE
CALI .IN                   :  
DT   .US/F                 :  
GR   .GAPI                 :  
ILD  .OHMM                 :  
MSFL .OHMM                 :  
NPHI_LS.V/V                  :  
RHOB .G/C3                 :  
~Parameter Information Block
#MNEM.UNIT            Value   Description
#---------- ----------------  -----------
PROJECT.     petro@kponwjlx001:  
SET  .                 WIRE:  
~Other Information Block
# 
~A       DEPTH           CALI             DT             GR            ILD           MSFL        NPHI_LS           RHOB 
# ...
       2999.00         9.9300       144.0000        82.7500         0.7250         0.9520       0.432130         2.1880
       2999.50         9.9300       145.6250        82.2500         0.7270         1.0380       0.456540         2.1950
       3000.00         9.9770       147.2500        82.5620         0.7260         0.9950       0.432130         2.1880
       3000.50         9.9840       148.6250        81.3120         0.7250         1.0210       0.454590         2.1760
       3001.00         9.9840       148.5000        80.8750         0.7220         0.9910       0.437010         2.1700
       3001.50         9.9380       148.6250        80.8750         0.7180         1.0260       0.477050         2.1760
       3002.00         9.9140       146.1250        80.6250         0.7140         0.9900       0.459470         2.1660
       3002.50         9.8590       145.3750        82.6250         0.7150         0.9530       0.477540         2.1580
       3003.00         9.9140       145.1250        81.9380         0.7090         0.9000       0.455080         2.1560
       3003.50         9.9140       145.6250        83.0000         0.7000         0.9140       0.442870         2.1780
       3004.00         9.8910       146.0000        82.0620         0.6880         0.9720       0.437010         2.1800
       3004.50         9.8910       147.5000        83.1880         0.6780         0.9760       0.435060         2.1640
       3005.00         9.8590       148.0000        84.0620         0.6700         0.9200       0.448730         2.1660
       3005.50         9.9530       147.0000        84.6880         0.6660         0.9510       0.446290         2.1720
       3006.00         9.9380       145.7500        85.3750         0.6680         0.9460       0.446290         2.1860
       3006.50         9.9840       144.1250        86.9380         0.6760         0.9700       0.473630         2.1800
       3007.00         9.9380       142.5000        86.7500         0.6870         0.9920       0.488280         2.1780
       3007.50         9.9530       142.7500        86.3120         0.7020         0.9480       0.485350         2.1680
       3008.00         9.9610       142.5000        80.6880         0.7080         0.9580       0.467770         2.1760
       3008.50         9.9530       145.0000        82.6250         0.7090         0.9950       0.458980         2.1760
       3009.00         9.9380       145.1250        78.9380         0.7160         1.1860       0.457520         2.1740
       3009.50         9.9300       146.3750        79.5000         0.7440         1.1210       0.456050         2.1660
       3010.00         9.8520       145.0000        78.3750         0.7730         0.8450       0.469730         2.1700
       3010.50         9.8520       141.8750        77.3750         0.8070         0.9150       0.456540         2.1760
       3011.00         9.8360       138.8750        76.2500         0.8180         0.9270       0.437500         2.1950
       3011.50         9.8200       138.2500        70.1250         0.8150         1.2300       0.406740         2.2070
       3012.00         9.7660       138.5000        71.3750         0.8130         1.2260       0.410640         2.2050
       3012.50         9.7340       139.2500        74.3750         0.8270         1.1890       0.435060         2.1890
       3013.00         9.7420       145.2500        80.1250         0.8370         1.1380       0.442870         2.1820
       3013.50         9.6720       146.2500        84.2500         0.8490         1.0570       0.466800         2.1760
       3014.00         9.5310       148.0000        86.4380         0.8460         1.0370       0.455570         2.1780
       3014.50         9.4220       150.8750        87.4380         0.8280         0.9850       0.464360         2.1500
       3015.00         9.3360       150.2500        88.0000         0.8180         0.8830       0.477540         2.1310
       3015.50         9.3360       150.2500        87.3750         0.8190         0.8640       0.472660         2.1230
       3016.00         9.6880       146.2500        86.9380         0.8250         0.8520       0.462400         2.1620
       3016.50         9.8910       142.0000        86.5000         0.8340         0.9730       0.403810         2.2050
       3017.00         9.9530       137.8750        86.2500         0.8480         1.1110       0.381840         2.2250
       3017.50         9.9920       134.3750        85.0000         0.8680         1.1670       0.384770         2.2230
       3018.00        10.0780       133.5000        82.6250         0.8830         1.1660       0.376950         2.2130
       3018.50        10.0780       134.6250        79.7500         0.8900         1.1120       0.396000         2.2130
       3019.00        10.0550       135.2500        77.3120         0.8910         1.1240       0.400880         2.2070
       3019.50        10.0550       136.1250        77.7500         0.8810         1.1210       0.434080         2.2170
       3020.00        10.0390       136.8750        78.7500         0.8680         1.1040       0.441410         2.2050
       3020.50        10.0550       138.5000        81.5000         0.8540         1.0480       0.445310         2.1970
       3021.00        10.0550       138.3750        86.6250         0.8440         1.0910       0.444340         2.1950
       3021.50        10.0940       138.2500        86.8120         0.8370         1.1300       0.438960         2.2070
       3022.00        10.0780       136.6250        85.9380         0.8320         1.1490       0.423340         2.2230
       3022.50        10.1170       135.1250        81.8120         0.8290         1.2250       0.418950         2.2210
       3023.00        10.0550       135.5000        82.7500         0.8340         1.2390       0.418950         2.2190
       3023.50        10.0160       136.0000        81.3750         0.8290         1.2480       0.400880         2.2130
       3024.00         9.9770       136.8750        81.7500         0.8330         1.2430       0.406250         2.2050
       3024.50         9.9840       136.1250        82.7500         0.8390         1.1850       0.403810         2.1990
       3025.00         9.9920       135.8750        84.5000         0.8430         1.1610       0.431150         2.2030
       3025.50        10.0080       136.1250        82.1880         0.8460         1.1660       0.447750         2.2110
       3026.00         9.9770       136.7500        77.3750         0.8480         1.1750       0.445310         2.2070
       3026.50         9.9380       137.7500        78.8750         0.8490         1.1600       0.443360         2.2090
       3027.00         9.9770       136.0000        79.5620         0.8510         1.2190       0.428220         2.2070
       3027.50         9.9610       136.5000        82.6250         0.8520         1.1570       0.440430         2.2110
       3028.00         9.8520       135.8750        82.0000         0.8520         1.1180       0.432130         2.1970
       3028.50         9.8360       134.7500        81.3750         0.8400         1.0650       0.428220         2.1740
       3029.00         9.8590       135.5000        81.5620         0.8270         0.9880       0.432130         2.1840
       3029.50         9.9060       137.3750        82.1250         0.8120         1.0260       0.409180         2.1910
       3030.00         9.9060       139.3750        80.6880         0.8020         1.0510       0.437990         2.2130
       3030.50         9.9610       141.7500        81.7500         0.7900         1.1300       0.433110         2.2010
       3031.00         9.9530       142.1250        82.5000         0.7790         1.1110       0.433590         2.1950
       3031.50         9.9610       141.7500        85.5620         0.7660         1.1440       0.397950         2.1840
       3032.00         9.9140       141.8750        86.6880         0.7540         1.1330       0.402830         2.1860
