~Version Information Block
VERS .                 2.00:  CWLS LOG ASCII STANDARD - VERSION 2.00
WRAP .                   NO:  One line per depth step
~Well Information Block
#MNEM.UNIT        Data Type   Information
#---------- ----------------  -----------
STRT .FT            1860.00:  START DEPTH
STOP .FT            4918.00:  STOP DEPTH
STEP .FT               0.50:  STEP
NULL .              -999.25:  NULL VALUE
COMP .                     :  COMPANY
WELL .                 UK-1:  WELL
FLD  .                     :  FIELD
LOC  .                     :  LOCATION
CTRY .                     :  COUNTRY
STAT .                     :  STATE
CNTY .                     :  COUNTY
SRVC .                     :  SERVICE COMPANY
DATE .                     :  DATE
API  .                     :  API NUMBER
UWI  .                     :  UNIQUE WELL ID
~Curve Information Block
#MNEM.UNIT         API CODE   Curve Description
#---------- ----------------  -----------------
DEPTH.FT                   :  DEPTH CURVE
CALI .IN                   :  
DT   .US/F                 :  
GR   .GAPI                 :  
ILD  .OHMM                 :  
MSFL .OHMM                 :  
NPHI_LS.V/V                  :  
RHOB .G/C3                 :  
~Parameter Information Block
#MNEM.UNIT            Value   Description
#---------- ----------------  -----------
PROJECT.     petro@kponwjlx001:  
SET  .                 WIRE:  
~Other Information Block
# 
~A       DEPTH           CALI             DT             GR            ILD           MSFL        NPHI_LS           RHOB 
# ...
       4741.00         8.3670       100.6880        69.8120         1.4840         2.0280       0.298340         2.3480
       4741.50         8.3440       103.6880        70.8120         1.4580         1.9420       0.312010         2.3570
       4742.00         8.3670       104.4380        71.1880         1.4230         1.4990       0.317870         2.3500
       4742.50         8.4060       105.8120        76.2500         1.3810         1.5290       0.315920         2.3540
       4743.00         8.3750       107.3120        80.1250         1.3380         1.4800       0.318360         2.3690
       4743.50         8.3910       106.2500        84.3750         1.2980         1.6450       0.320310         2.3770
       4744.00         8.3750       106.0620        81.9380         1.2520         1.7990       0.341800         2.3770
       4744.50         8.3910       104.4380        79.8120         1.2220         1.6890       0.346680         2.3790
       4745.00         8.3440       103.5620        75.8120         1.1760         1.5380       0.366210         2.3910
       4745.50         8.3910       105.1880        77.5000         1.1080         1.6600       0.342290         2.3960
       4746.00         8.3120       104.6880        78.5000         1.0790         1.7270       0.345700         2.3890
       4746.50         8.3670       106.8750        78.5000         1.0390         1.3960       0.336910         2.3790
       4747.00         8.3520       108.3120        81.0620         1.0040         1.3080       0.354490         2.3730
       4747.50         8.3200       108.1250        82.7500         0.9760         1.1860       0.351070         2.3650
       4748.00         8.3120       108.3750        83.8750         0.9500         1.2830       0.346190         2.3630
       4748.50         8.3200       108.6880        84.0000         0.9270         1.2170       0.357420         2.3570
       4749.00         8.3910       108.0000        85.8120         0.9230         1.2850       0.352540         2.3610
       4749.50         8.4140       108.3120        86.4380         0.9200         1.4160       0.349120         2.3650
       4750.00         8.4380       108.1250        89.1880         0.9210         1.4490       0.322750         2.3730
       4750.50         8.4300       108.3750        89.7500         0.9260         1.4780       0.329100         2.3850
       4751.00         8.4300       108.8750        90.6250         0.9320         1.4010       0.351560         2.3810
       4751.50         8.4530       108.9380        85.0000         0.9380         1.3630       0.374020         2.3910
       4752.00         8.4140       109.5000        81.6880         0.9490         1.3660       0.370610         2.3870
       4752.50         8.4530       109.0000        82.0620         0.9760         1.4520       0.345700         2.3890
       4753.00         8.4060       108.5620        84.0000         0.9970         1.4000       0.343750         2.3930
       4753.50         8.4140       107.3120        83.2500         1.0330         1.3780       0.352050         2.3850
       4754.00         8.3910       104.6250        83.0000         1.0750         1.5080       0.359380         2.3950
       4754.50         8.3440       103.0620        80.0620         1.1100         1.6130       0.330570         2.3870
       4755.00         8.3910       101.1880        80.0000         1.1950         1.8200       0.313960         2.3930
       4755.50         8.3120       100.6250        79.5000         1.2670         1.7310       0.312990         2.3960
       4756.00         8.3120       100.1250        79.2500         1.4070         1.7090       0.318360         2.3960
       4756.50         8.3200        98.0620        76.1880         1.5470         1.8850       0.318360         2.4000
       4757.00         8.3120        94.6880        73.0000         1.8010         2.0470       0.298340         2.4000
       4757.50         8.3120        91.8750        67.1250         1.9600         2.2270       0.292970         2.4140
       4758.00         8.3200        89.3120        62.8120         2.1270         2.7630       0.266110         2.4280
       4758.50         8.3280        82.2500        56.9690         2.1720         4.1300       0.243650         2.4430
       4759.00         8.3200        79.9380        56.1250         2.1020         4.8370       0.214840         2.4470
       4759.50         8.2890        84.5000        52.0620         1.9930         6.3740       0.205570         2.4340
       4760.00         8.2890        92.1250        52.1880         1.8600         7.0990       0.230960         2.3810
       4760.50         8.2420        97.1250        50.5000         1.7310         3.2840       0.262700         2.3090
       4761.00         8.2500       103.6880        53.8750         1.5610         1.1810       0.309080         2.2500
       4761.50         8.2660       103.2500        54.2810         1.4410         1.2300       0.315430         2.2360
       4762.00         8.2420       102.6880        55.3750         1.2920         1.8900       0.320800         2.2400
       4762.50         8.2500       104.0620        55.8120         1.2100         1.2070       0.311520         2.2250
       4763.00         8.2500       104.6880        54.1560         1.1690         1.2240       0.329100         2.2010
       4763.50         8.2420       104.5620        55.7190         1.1370         1.1630       0.343260         2.1910
       4764.00         8.2500       105.3750        56.8440         1.1170         1.1770       0.345700         2.1970
       4764.50         8.2500       105.3120        58.6880         1.1080         1.3440       0.340820         2.2030
       4765.00         8.2500       106.1880        60.7190         1.1050         1.2330       0.337400         2.1910
       4765.50         8.2270       105.6880        59.7190         1.0950         1.1700       0.339840         2.1840
       4766.00         8.2500       105.2500        59.6880         1.1030         1.1230       0.340330         2.1780
       4766.50         8.2500       105.0620        57.6560         1.0960         1.1250       0.342290         2.1840
       4767.00         8.2420       104.6880        58.2810         1.1030         1.1880       0.355960         2.1880
       4767.50         8.2660       104.7500        57.9060         1.0950         1.1910       0.360350         2.1860
       4768.00         8.2730       105.0620        55.3440         1.1060         1.1370       0.362790         2.1860
       4768.50         8.2730       105.1250        53.2190         1.1040         1.2140       0.335940         2.1950
       4769.00         8.2660       105.8120        51.7500         1.0920         1.2800       0.338870         2.1970
       4769.50         8.2660       106.1250        53.4060         1.0940         1.2820       0.335940         2.1880
       4770.00         8.2660       107.0620        53.5000         1.1000         1.2560       0.360840         2.1880
       4770.50         8.2890       107.0620        57.5000         1.1070         1.2020       0.342770         2.2130
       4771.00         8.2420       106.7500        64.8750         1.1100         1.4020       0.338870         2.2520
       4771.50         8.2420       107.0620        68.0000         1.1070         1.4190       0.326660         2.2750
       4772.00         8.2270       106.8120        68.5000         1.1210         1.3910       0.334960         2.2700
       4772.50         8.2500       106.2500        60.8440         1.1020         1.3980       0.335940         2.2460
       4773.00         8.2500       105.8750        59.3440         1.1060         1.2850       0.317870         2.2230
       4773.50         8.2500       105.6250        55.7810         1.0900         1.3120       0.312500         2.2090
       4774.00         8.2500       104.8750        53.4380         1.0970         1.3360       0.309570         2.1880
