~Version Information Block
VERS .                 2.00:  CWLS LOG ASCII STANDARD - VERSION 2.00
WRAP .                   NO:  One line per depth step
~Well Information Block
#MNEM.UNIT        Data Type   Information
#---------- ----------------  -----------
STRT .FT            1860.00:  START DEPTH
STOP .FT            4918.00:  STOP DEPTH
STEP .FT               0.50:  STEP
NULL .              -999.25:  NULL VALUE
COMP .                     :  COMPANY
WELL .                 UK-1:  WELL
FLD  .                     :  FIELD
LOC  .                     :  LOCATION
CTRY .                     :  COUNTRY
STAT .                     :  STATE
CNTY .                     :  COUNTY
SRVC .                     :  SERVICE COMPANY
DATE .                     :  DATE
API  .                     :  API NUMBER
UWI  .                     :  UNIQUE WELL ID
~Curve Information Block
#MNEM.UNIT         API CODE   Curve Description
#---------- ----------------  -----------------
DEPTH.FT                   :  DEPTH CURVE
CALI .IN                   :  
DT   .US/F                 :  
GR   .GAPI                 :  
ILD  .OHMM                 :  
MSFL .OHMM                 :  
NPHI_LS.V/V                  :  
RHOB .G/C3                 :  
~Parameter Information Block
#MNEM.UNIT            Value   Description
#---------- ----------------  -----------
PROJECT.     petro@kponwjlx001:  
SET  .                 WIRE:  
~Other Information Block
# 
~A       DEPTH           CALI             DT             GR            ILD           MSFL        NPHI_LS           RHOB 
# ...
       3535.00         8.5700       116.3120        79.0620         1.3460         1.7340       0.378910         2.2460
       3535.50         8.5940       117.5620        81.3750         1.3400         1.9060       0.378910         2.2680
       3536.00         8.6090       117.3750        81.9380         1.3180         1.7080       0.387210         2.2600
       3536.50         8.6170       117.5000        85.3750         1.2980         1.6630       0.375490         2.2600
       3537.00         8.6560       117.8120        83.2500         1.2770         1.7490       0.384770         2.2580
       3537.50         8.5700       120.3120        86.1250         1.2670         1.8820       0.388670         2.2560
       3538.00         8.5620       119.5620        82.2500         1.2510         1.7420       0.380370         2.2640
       3538.50         8.7190       119.5000        81.6880         1.2460         1.5190       0.389650         2.2540
       3539.00         8.7970       117.3120        77.1880         1.2440         1.5590       0.388180         2.2640
       3539.50         9.0000       116.0620        79.6250         1.2460         1.6620       0.403810         2.2620
       3540.00         8.7340       118.0620        79.8120         1.2490         1.5770       0.370120         2.2700
       3540.50         8.7730       116.5620        79.2500         1.2650         1.8360       0.370120         2.2700
       3541.00         8.9140       118.6250        76.9380         1.2720         1.9260       0.358890         2.2700
       3541.50         8.7270       116.5620        76.8750         1.2740         1.8240       0.334960         2.2700
       3542.00         8.6800       113.7500        82.1880         1.2840         2.0410       0.363280         2.2660
       3542.50         8.7190       115.6250        85.4380         1.3030         1.9960       0.371090         2.2750
       3543.00         8.8980       116.2500        85.8750         1.3430         1.6940       0.374510         2.2680
       3543.50         8.9450       113.1880        79.6880         1.4590         1.5850       0.372070         2.2710
       3544.00         8.7730       107.1880        69.3120         1.6330         1.5020       0.380860         2.2640
       3544.50         8.5390        92.1880        61.0620         1.8890         1.5580       0.379880         2.2710
       3545.00         8.3120        82.0620        56.0620         2.2320         1.8090       0.347170         2.2810
       3545.50         8.3910        73.5000        49.2500         2.4800         3.4700       0.287110         2.3380
       3546.00         8.2890        68.0000        44.6560         2.5900        10.7590       0.232420         2.4020
       3546.50         8.2190        65.1880        40.1880         2.5660        16.2240       0.199710         2.4770
       3547.00         8.2420        75.9380        40.2500         2.3500        14.5600       0.205080         2.4650
       3547.50         8.1480        95.0620        36.5940         2.1000         8.1290       0.245120         2.4200
       3548.00         8.0310       109.4380        37.9690         1.8450         4.1320       0.328610         2.3200
       3548.50         8.0230       118.7500        40.2190         1.6090         1.0770       0.399410         2.2150
       3549.00         7.9570       121.9380        43.9380         1.3960         0.9840       0.431150         2.1370
       3549.50         8.1330       118.7500        48.1250         1.2490         1.0240       0.409180         2.1040
       3550.00         8.1640       113.3750        52.3440         1.1210         1.1590       0.356450         2.1840
       3550.50         8.2110       113.8750        58.0940         1.0620         1.1960       0.341800         2.1970
       3551.00         8.3910       116.9380        64.2500         1.0600         1.2630       0.352050         2.2190
       3551.50         8.4300       117.6250        72.5000         1.0930         1.3930       0.344730         2.2500
       3552.00         8.5620       123.5000        79.0620         1.1130         1.5220       0.366210         2.2270
       3552.50         8.6170       125.7500        80.3120         1.1610         1.4670       0.371580         2.1840
       3553.00         9.1330       123.2500        80.1880         1.1680         1.4870       0.393070         2.1290
       3553.50         9.3830       121.3750        77.5620         1.1700         1.0620       0.368650         2.1230
       3554.00         9.2810       118.9380        77.5000         1.1550         1.0800       0.353520         2.1480
       3554.50         8.8750       117.3750        74.2500         1.1590         1.4230       0.381350         2.1560
       3555.00         8.8910       116.3750        76.9380         1.1240         1.2540       0.389650         2.2210
       3555.50         8.6330       119.5620        78.8750         1.1140         1.1700       0.395510         2.2090
       3556.00         8.7030       119.5620        82.6880         1.1050         1.2510       0.388180         2.2480
       3556.50         8.7500       121.0620        82.7500         1.0800         1.4400       0.397950         2.2290
       3557.00         8.7730       121.8750        81.0620         1.0600         1.3690       0.399900         2.2360
       3557.50         8.8360       121.0000        82.0000         1.0420         1.3560       0.402830         2.2130
       3558.00         8.7580       123.3750        83.2500         1.0220         1.3380       0.417480         2.1890
       3558.50         9.1640       125.0620        81.9380         0.9890         1.1800       0.433590         2.1410
       3559.00         8.7030       125.6880        82.1880         0.9760         1.2140       0.427250         2.1020
       3559.50         8.6330       126.1880        79.8120         0.9650         1.1500       0.410640         2.1070
       3560.00         8.6170       124.7500        82.6880         0.9550         1.1050       0.405270         2.1330
       3560.50         8.6480       125.2500        80.1880         0.9400         1.1500       0.404790         2.1460
       3561.00         8.7270       125.5000        82.2500         0.9390         1.2110       0.418950         2.1620
       3561.50         8.8520       125.2500        80.1880         0.9390         1.2390       0.420900         2.1660
       3562.00         9.0230       123.5000        81.5000         0.9380         1.2030       0.430180         2.1840
       3562.50         8.7730       122.3750        78.2500         0.9390         1.1530       0.418950         2.1990
       3563.00         8.9690       124.5000        81.8750         0.9420         1.2460       0.412110         2.2190
       3563.50         8.7500       124.2500        80.2500         0.9310         1.4220       0.382320         2.2230
       3564.00         8.7580       124.6250        81.3750         0.9290         1.2890       0.396480         2.2110
       3564.50         8.9380       125.3750        80.5620         0.9240         1.2360       0.382320         2.1970
       3565.00         8.9140       124.7500        80.1250         0.9080         1.1920       0.399410         2.1910
       3565.50         8.6950       125.1250        80.6250         0.8900         1.3200       0.427730         2.1680
       3566.00         8.6090       127.0000        77.9380         0.8770         1.2490       0.429200         2.1700
       3566.50         8.6170       125.5000        79.8120         0.8570         1.3410       0.423830         2.1780
       3567.00         8.7500       126.2500        81.0000         0.8420         1.0420       0.423340         2.1840
       3567.50         8.6170       125.8750        80.5620         0.8310         1.1760       0.424800         2.1860
       3568.00         8.6170       128.3750        81.6880         0.8170         1.2940       0.428710         2.1800
