~Version Information Block
VERS .                 2.00:  CWLS LOG ASCII STANDARD - VERSION 2.00
WRAP .                   NO:  One line per depth step
~Well Information Block
#MNEM.UNIT        Data Type   Information
#---------- ----------------  -----------
STRT .FT            1860.00:  START DEPTH
STOP .FT            4918.00:  STOP DEPTH
STEP .FT               0.50:  STEP
NULL .              -999.25:  NULL VALUE
COMP .                     :  COMPANY
WELL .                 UK-1:  WELL
FLD  .                     :  FIELD
LOC  .                     :  LOCATION
CTRY .                     :  COUNTRY
STAT .                     :  STATE
CNTY .                     :  COUNTY
SRVC .                     :  SERVICE COMPANY
DATE .                     :  DATE
API  .                     :  API NUMBER
UWI  .                     :  UNIQUE WELL ID
~Curve Information Block
#MNEM.UNIT         API CODE   Curve Description
#---------- ----------------  -----------------
DEPTH.FT                   :  DEPTH CURVE
CALI .IN                   :  
DT   .US/F                 :  
GR   .GAPI                 :  
ILD  .OHMM                 :  
MSFL .OHMM                 :  
NPHI_LS.V/V                  :  
RHOB .G/C3                 :  
~Parameter Information Block
#MNEM.UNIT            Value   Description
#---------- ----------------  -----------
PROJECT.     petro@kponwjlx001:  
SET  .                 WIRE:  
~Other Information Block
# 
~A       DEPTH           CALI             DT             GR            ILD           MSFL        NPHI_LS           RHOB 
# ...
       3401.00         8.3910       108.0000        59.0940         1.2270         1.3460       0.350100         2.1840
       3401.50         8.4140       108.2500        62.5620         1.2280         1.3580       0.383300         2.1880
       3402.00         8.4140       107.9380        61.0620         1.2220         1.3850       0.412110         2.1970
       3402.50         8.4140       107.7500        59.0940         1.2270         1.4240       0.435060         2.1990
       3403.00         8.4140       108.4380        54.7810         1.2110         1.4170       0.399900         2.2050
       3403.50         8.4300       107.6880        56.2190         1.2240         1.3980       0.381840         2.1910
       3404.00         8.4530       107.0620        57.5000         1.2150         1.3810       0.375490         2.1910
       3404.50         8.4690       107.0000        56.5620         1.2220         1.4260       0.368650         2.1780
       3405.00         8.4840       106.1250        56.3120         1.2260         1.3780       0.351560         2.1740
       3405.50         8.4920       106.2500        55.8440         1.2240         1.3230       0.342290         2.1720
       3406.00         8.4840       106.5000        55.9380         1.2190         1.3540       0.338870         2.1740
       3406.50         8.4920       106.6880        51.4380         1.2130         1.4860       0.329590         2.1820
       3407.00         8.4920       107.4380        48.9060         1.2160         1.4630       0.330080         2.1780
       3407.50         8.4920       106.8750        49.7500         1.1970         1.3940       0.336910         2.1860
       3408.00         8.4920       106.6880        54.5000         1.2060         1.3810       0.382810         2.1800
       3408.50         8.5080       106.4380        54.1880         1.1920         1.3430       0.378420         2.1780
       3409.00         8.5080       106.1880        53.6560         1.2040         1.3490       0.382810         2.1760
       3409.50         8.5160       105.9380        51.4380         1.2030         1.3180       0.364260         2.1800
       3410.00         8.5310       105.6880        52.4060         1.2230         1.2880       0.384280         2.1890
       3410.50         8.5390       106.3750        57.0940         1.2210         1.3500       0.375000         2.1820
       3411.00         8.5940       107.1250        61.8440         1.2260         1.3450       0.367680         2.1890
       3411.50         8.7030       107.6880        69.5620         1.2180         1.4990       0.344240         2.1970
       3412.00         8.7580       110.7500        71.9380         1.1890         1.5370       0.360350         2.2190
       3412.50         8.7580       115.9380        76.3750         1.1670         1.5490       0.377440         2.2420
       3413.00         8.9140       121.5620        75.9380         1.1210         1.6630       0.415530         2.2560
       3413.50         8.9770       126.0620        80.4380         1.0960         1.6210       0.420410         2.2680
       3414.00         8.9920       127.1250        85.0620         1.0530         1.6070       0.459960         2.2730
       3414.50         9.0390       127.8750        88.5000         1.0040         1.5640       0.440430         2.2790
       3415.00         9.0620       127.3120        90.9380         0.9480         1.5480       0.408200         2.2890
       3415.50         9.0620       128.1250        91.6880         0.9260         1.6190       0.387700         2.2910
       3416.00         9.0780       129.2500        92.3120         0.9260         1.6290       0.387700         2.2890
       3416.50         9.0780       130.2500        95.2500         0.9530         1.5860       0.452150         2.2790
       3417.00         9.0160       126.6250        89.5620         1.0210         1.4710       0.457520         2.2790
       3417.50         8.9690       115.5620        79.8120         1.0880         1.3450       0.419430         2.2870
       3418.00         8.7270       101.3750        64.9380         1.1040         1.2630       0.346680         2.3360
       3418.50         8.3670        97.6250        55.7810         1.0990         1.3690       0.313480         2.3320
       3419.00         8.3440        97.8750        59.6250         1.0860         1.4310       0.341310         2.2870
       3419.50         8.3520       113.6880        67.4380         1.0620         1.4280       0.378910         2.2320
       3420.00         8.3520       127.3120        77.3750         1.0440         1.4210       0.433110         2.2250
       3420.50         8.4380       133.7500        84.5000         1.0070         1.2830       0.445800         2.2440
       3421.00         8.4610       138.8750        94.1880         0.9240         1.1890       0.469730         2.2420
       3421.50         8.4300       138.3750        98.3120         0.8720         1.1130       0.436520         2.2320
       3422.00         8.4380       138.5000       101.1880         0.7820         1.1320       0.454100         2.2300
       3422.50         8.4840       135.1250        92.9380         0.7590         1.0930       0.439940         2.2320
       3423.00         8.4920       133.8750        97.4380         0.7410         1.1070       0.443850         2.2420
       3423.50         8.4610       133.2500        96.8120         0.7390         1.1640       0.416990         2.2560
       3424.00         8.4610       132.5000        98.0000         0.7380         1.1230       0.433590         2.2620
       3424.50         8.4690       133.0000        92.6250         0.7420         1.1140       0.438480         2.2660
       3425.00         8.5080       133.7500        88.8750         0.7470         1.1770       0.453120         2.2500
       3425.50         8.4140       133.5000        92.0000         0.7500         1.2350       0.422850         2.2520
       3426.00         8.4840       133.6250        89.8750         0.7500         1.1850       0.407710         2.2440
       3426.50         8.4920       133.3750        90.3120         0.7500         1.1940       0.405760         2.2580
       3427.00         8.4920       133.0000        87.0620         0.7570         1.1460       0.395510         2.2540
       3427.50         8.4380       132.3750        89.0620         0.7720         1.1870       0.386230         2.2620
       3428.00         8.4530       133.0000        91.5000         0.8000         1.1940       0.398930         2.2600
       3428.50         8.4300       134.6250        91.5620         0.8620         1.1370       0.401860         2.2540
       3429.00         8.4380       130.3750        88.6250         0.9210         1.1370       0.427730         2.2460
       3429.50         8.4140       123.5000        79.3750         0.9920         1.1160       0.418460         2.2230
       3430.00         8.3910       117.5620        68.1880         1.0530         1.2170       0.413090         2.2010
       3430.50         8.3910       111.3750        63.2500         1.1020         1.6810       0.400880         2.1840
       3431.00         8.3910       113.6250        66.6250         1.1470         1.7310       0.376460         2.1930
       3431.50         8.4530       117.3750        75.2500         1.2220         1.9090       0.397950         2.2170
       3432.00         8.5160       121.1250        81.1250         1.2650         1.9410       0.412110         2.2420
       3432.50         8.4530       124.5000        83.0620         1.2830         1.5520       0.431150         2.2580
       3433.00         8.4140       120.0000        83.2500         1.2620         1.4530       0.419920         2.2680
       3433.50         8.4140       119.6250        83.7500         1.1690         1.3920       0.374020         2.2770
       3434.00         8.4060       122.1250        87.3120         1.1050         1.5480       0.398930         2.2850
