~Version Information Block
VERS .                 2.00:  CWLS LOG ASCII STANDARD - VERSION 2.00
WRAP .                   NO:  One line per depth step
~Well Information Block
#MNEM.UNIT        Data Type   Information
#---------- ----------------  -----------
STRT .FT            1860.00:  START DEPTH
STOP .FT            4918.00:  STOP DEPTH
STEP .FT               0.50:  STEP
NULL .              -999.25:  NULL VALUE
COMP .                     :  COMPANY
WELL .                 UK-1:  WELL
FLD  .                     :  FIELD
LOC  .                     :  LOCATION
CTRY .                     :  COUNTRY
STAT .                     :  STATE
CNTY .                     :  COUNTY
SRVC .                     :  SERVICE COMPANY
DATE .                     :  DATE
API  .                     :  API NUMBER
UWI  .                     :  UNIQUE WELL ID
~Curve Information Block
#MNEM.UNIT         API CODE   Curve Description
#---------- ----------------  -----------------
DEPTH.FT                   :  DEPTH CURVE
CALI .IN                   :  
DT   .US/F                 :  
GR   .GAPI                 :  
ILD  .OHMM                 :  
MSFL .OHMM                 :  
NPHI_LS.V/V                  :  
RHOB .G/C3                 :  
~Parameter Information Block
#MNEM.UNIT            Value   Description
#---------- ----------------  -----------
PROJECT.     petro@kponwjlx001:  
SET  .                 WIRE:  
~Other Information Block
# 
~A       DEPTH           CALI             DT             GR            ILD           MSFL        NPHI_LS           RHOB 
# ...
       4607.00         8.3750       106.4380        83.6880         1.0390         1.7600       0.335940         2.3810
       4607.50         8.4060       106.9380        83.6250         1.0240         1.5510       0.335450         2.3730
       4608.00         8.4140       108.0620        78.6250         1.0020         1.5880       0.349120         2.3670
       4608.50         8.4380       109.0620        81.5000         0.9790         1.5060       0.353030         2.3690
       4609.00         8.4300       109.9380        82.3120         0.9490         1.3770       0.356450         2.3610
       4609.50         8.4300       110.0000        83.1250         0.9450         1.3390       0.352050         2.3570
       4610.00         8.4690       110.5620        80.5000         0.9350         1.3910       0.367680         2.3590
       4610.50         8.4530       109.6250        84.3120         0.9270         1.4580       0.352050         2.3810
       4611.00         8.4610       108.6250        84.5620         0.9270         1.4940       0.347660         2.3960
       4611.50         8.4690       108.5000        80.0000         0.9240         1.4630       0.334960         2.3960
       4612.00         8.5160       107.6250        74.3120         0.9210         1.5270       0.338870         2.3810
       4612.50         8.4300       108.0620        74.4380         0.9180         1.4250       0.336430         2.3810
       4613.00         8.4530       108.7500        80.7500         0.9220         1.3830       0.336910         2.3830
       4613.50         8.4840       109.3750        80.5000         0.9290         1.3170       0.330570         2.3930
       4614.00         8.5310       110.8750        83.7500         0.9500         1.2790       0.342290         2.3790
       4614.50         8.5160       110.1250        82.5000         1.0010         1.3520       0.338870         2.3730
       4615.00         8.4530       110.1250        84.3120         1.0780         1.3920       0.372560         2.3650
       4615.50         8.4300       107.6250        77.8750         1.2090         1.4760       0.361820         2.3690
       4616.00         8.3910       104.8750        73.8120         1.3810         1.8040       0.352050         2.3710
       4616.50         8.3910        98.0000        65.2500         1.6260         2.3290       0.312500         2.3980
       4617.00         8.3750        86.3120        58.0940         1.8410         3.4040       0.260740         2.4490
       4617.50         8.4060        76.0000        45.6250         2.0490        24.3570       0.193850         2.5180
       4618.00         8.3750        69.1250        42.1560         2.2340        40.4580       0.153810         2.5310
       4618.50         8.3280        73.8120        44.0620         2.3460        12.6940       0.176760         2.4840
       4619.00         8.3200        84.5620        54.1880         2.3240         2.9990       0.241210         2.4080
       4619.50         8.3440        92.2500        59.4060         2.1720         2.0170       0.288570         2.3590
       4620.00         8.3750       101.3120        63.7500         1.8970         2.0480       0.317380         2.3260
       4620.50         8.3670       102.3120        64.1250         1.7020         2.1040       0.314940         2.3220
       4621.00         8.3670       101.8120        64.5000         1.5430         2.1480       0.315430         2.3260
       4621.50         8.3670       101.5000        63.6880         1.4910         2.3280       0.328610         2.3320
       4622.00         8.3750        99.6250        60.5620         1.4690         2.2070       0.329100         2.3340
       4622.50         8.3910       100.1880        62.1250         1.4990         2.3200       0.331540         2.3460
       4623.00         8.3910        99.6880        61.8440         1.5980         2.0530       0.321290         2.3540
       4623.50         8.4060        99.7500        60.1250         1.7920         2.1200       0.340820         2.3550
       4624.00         8.3670        97.5000        54.7810         2.0250         2.1350       0.317380         2.3730
       4624.50         8.3120        92.2500        50.1560         2.2580         2.4520       0.275390         2.4000
       4625.00         8.4140        84.4380        48.6880         2.5310         5.2180       0.219730         2.4650
       4625.50         8.4300        76.3120        46.9690         2.6460        10.6220       0.180660         2.5000
       4626.00         8.3750        71.0620        46.5000         2.6000        12.5100       0.166020         2.5250
       4626.50         8.3750        76.1250        47.3750         2.4820        17.9010       0.165040         2.5040
       4627.00         8.3670        82.6880        47.9690         2.2500        11.2470       0.206540         2.4380
       4627.50         8.2420        93.1250        47.5620         2.0290         3.9280       0.251950         2.3500
       4628.00         8.2500       100.1250        45.6560         1.7550         1.2950       0.293950         2.2700
       4628.50         8.2500       103.6880        46.5000         1.5600         1.2240       0.316410         2.2270
       4629.00         8.2420       103.6250        46.1250         1.3590         1.2430       0.323240         2.2170
       4629.50         8.2270       103.0620        49.8750         1.2360         1.2340       0.327150         2.2290
       4630.00         8.2190       103.3750        49.1560         1.1760         1.2790       0.325200         2.2320
       4630.50         8.2190       103.0620        48.0000         1.1590         1.2810       0.312010         2.2340
       4631.00         8.1880       103.5620        47.5000         1.1460         1.2960       0.299800         2.2270
       4631.50         8.1950       103.5620        48.1880         1.1630         1.3170       0.294920         2.2230
       4632.00         8.1950       103.7500        50.4380         1.1520         1.2550       0.303710         2.2230
       4632.50         8.1950       104.3750        48.3120         1.1600         1.2370       0.295410         2.2230
       4633.00         8.1950       103.8120        45.8120         1.1560         1.2360       0.297360         2.2290
       4633.50         8.1950       104.0000        47.1880         1.1620         1.2590       0.299320         2.2290
       4634.00         8.1880       104.1250        47.9060         1.1550         1.2530       0.312500         2.2320
       4634.50         8.1880       103.8120        50.0620         1.1680         1.3020       0.316890         2.2320
       4635.00         8.1950       103.6250        48.6560         1.1630         1.2940       0.302730         2.2270
       4635.50         8.1950       103.5620        49.0310         1.1810         1.2590       0.296390         2.2210
       4636.00         8.1950       103.4380        49.0000         1.1780         1.2660       0.288570         2.2150
       4636.50         8.1880       103.4380        47.9690         1.1900         1.2250       0.305660         2.2130
       4637.00         8.1880       103.5620        47.9380         1.1880         1.2410       0.325200         2.2170
       4637.50         8.1720       103.3750        48.2500         1.1940         1.2180       0.333500         2.2230
       4638.00         8.1640       103.4380        50.0620         1.1810         1.2150       0.336910         2.2150
       4638.50         8.1480       104.8120        55.1250         1.1830         1.2010       0.308590         2.2070
       4639.00         8.1330       104.2500        53.9380         1.1620         1.1870       0.312500         2.2070
       4639.50         8.1250       104.9380        54.9380         1.1700         1.2010       0.302730         2.2090
       4640.00         8.1090       104.9380        50.1250         1.1600         1.1910       0.309570         2.2050
