~Version Information Block
VERS .                 2.00:  CWLS LOG ASCII STANDARD - VERSION 2.00
WRAP .                   NO:  One line per depth step
~Well Information Block
#MNEM.UNIT        Data Type   Information
#---------- ----------------  -----------
STRT .FT            1860.00:  START DEPTH
STOP .FT            4918.00:  STOP DEPTH
STEP .FT               0.50:  STEP
NULL .              -999.25:  NULL VALUE
COMP .                     :  COMPANY
WELL .                 UK-1:  WELL
FLD  .                     :  FIELD
LOC  .                     :  LOCATION
CTRY .                     :  COUNTRY
STAT .                     :  STATE
CNTY .                     :  COUNTY
SRVC .                     :  SERVICE COMPANY
DATE .                     :  DATE
API  .                     :  API NUMBER
UWI  .                     :  UNIQUE WELL ID
~Curve Information Block
#MNEM.UNIT         API CODE   Curve Description
#---------- ----------------  -----------------
DEPTH.FT                   :  DEPTH CURVE
CALI .IN                   :  
DT   .US/F                 :  
GR   .GAPI                 :  
ILD  .OHMM                 :  
MSFL .OHMM                 :  
NPHI_LS.V/V                  :  
RHOB .G/C3                 :  
~Parameter Information Block
#MNEM.UNIT            Value   Description
#---------- ----------------  -----------
PROJECT.     petro@kponwjlx001:  
SET  .                 WIRE:  
~Other Information Block
# 
~A       DEPTH           CALI             DT             GR            ILD           MSFL        NPHI_LS           RHOB 
# ...
       3803.00         8.1880       107.0000        69.0000         1.4320         1.5160       0.359380         2.2460
       3803.50         8.1250       106.8750        66.4380         1.4460         1.4950       0.345210         2.2360
       3804.00         8.1330       107.6250        64.6250         1.4530         1.5060       0.331540         2.2400
       3804.50         8.1330       107.5620        65.8750         1.4520         1.4140       0.324710         2.2340
       3805.00         8.1250       107.3750        66.8120         1.4490         1.4610       0.328120         2.2400
       3805.50         8.0860       107.5000        65.8750         1.4370         1.5320       0.328120         2.2360
       3806.00         8.0860       107.5620        65.1880         1.4240         1.4350       0.327640         2.2440
       3806.50         8.0860       106.8750        65.4380         1.4100         1.4620       0.328610         2.2480
       3807.00         8.1090       106.6250        68.5000         1.3960         1.3930       0.335450         2.2520
       3807.50         8.1090       106.0000        69.2500         1.3730         1.4420       0.339360         2.2460
       3808.00         8.1090       105.6250        67.9380         1.3560         1.3980       0.321780         2.2440
       3808.50         8.1250       106.6880        64.5620         1.3520         1.5390       0.329590         2.2380
       3809.00         8.1330       107.5000        65.6880         1.3480         1.5200       0.333980         2.2320
       3809.50         8.1640       107.9380        67.6250         1.3500         1.4790       0.350590         2.2300
       3810.00         8.1640       107.6250        65.9380         1.3620         1.4920       0.342290         2.2320
       3810.50         8.1640       108.2500        62.7190         1.3850         1.4630       0.339360         2.2380
       3811.00         8.1640       109.1250        61.5620         1.4210         1.3500       0.338870         2.2380
       3811.50         8.1950       108.5000        67.1880         1.4840         1.3600       0.335940         2.2320
       3812.00         8.1880       109.6250        68.5000         1.5430         1.4910       0.344730         2.2290
       3812.50         8.1950       109.0620        66.6880         1.5860         1.5230       0.349610         2.2290
       3813.00         8.1950       108.9380        67.6880         1.6210         1.4560       0.354980         2.2270
       3813.50         8.1950       108.7500        69.3120         1.6390         1.3950       0.343750         2.2340
       3814.00         8.1950       107.5000        72.0000         1.6500         1.4950       0.339840         2.2300
       3814.50         8.1880       107.2500        72.8750         1.6610         1.4770       0.334470         2.2320
       3815.00         8.1640       106.7500        72.4380         1.6450         1.4690       0.329100         2.2250
       3815.50         8.1480       106.2500        74.0620         1.6140         1.4960       0.345700         2.2300
       3816.00         8.1640       107.5000        74.1250         1.5650         1.5530       0.350100         2.2340
       3816.50         8.0550       107.5000        75.9380         1.5070         1.5860       0.353520         2.2460
       3817.00         8.0550       108.0000        70.1250         1.4600         1.5700       0.339840         2.2480
       3817.50         8.1640       107.6250        65.4380         1.4330         1.6200       0.339360         2.2380
       3818.00         8.1640       106.7500        62.0940         1.4190         1.6170       0.328120         2.2270
       3818.50         8.1720       106.9380        65.4380         1.4120         1.5510       0.317870         2.2190
       3819.00         8.2110       106.7500        67.8750         1.4090         1.4800       0.308590         2.2270
       3819.50         8.2270       105.5000        68.2500         1.3990         1.5880       0.322750         2.2380
       3820.00         8.2110       104.9380        65.7500         1.3860         1.6530       0.325680         2.2520
       3820.50         8.1880       104.7500        66.1880         1.3620         1.6710       0.330080         2.2620
       3821.00         8.1880       105.0000        66.3750         1.3440         1.7140       0.325680         2.2560
       3821.50         8.1720       105.8750        68.5620         1.3280         1.6900       0.337890         2.2480
       3822.00         8.1720       106.0620        66.9380         1.3070         1.6320       0.348140         2.2400
       3822.50         8.1640       105.6250        63.4060         1.2840         1.6160       0.352050         2.2320
       3823.00         8.1640       106.5000        57.4690         1.2710         1.5540       0.332030         2.2210
       3823.50         8.1720       105.6250        55.7500         1.2530         1.4690       0.321290         2.2190
       3824.00         8.1640       105.7500        57.9380         1.2300         1.3910       0.317380         2.2210
       3824.50         8.1720       106.4380        61.1560         1.2230         1.4970       0.337890         2.2210
       3825.00         8.1950       106.5620        63.1250         1.2180         1.4200       0.335450         2.2190
       3825.50         8.1880       106.3750        62.5000         1.2130         1.3610       0.330570         2.2290
       3826.00         8.1330       106.0000        64.0000         1.2170         1.3710       0.324710         2.2460
       3826.50         8.0550       107.2500        65.3120         1.2240         1.5850       0.333980         2.2460
       3827.00         8.0860       106.8750        64.8750         1.2250         1.6460       0.341310         2.2320
       3827.50         7.8590       106.6880        63.6560         1.2420         1.5390       0.331540         2.2170
       3828.00         7.6290       106.4380        60.9060         1.2640         1.4990       0.318360         2.2110
       3828.50         7.6410       106.0000        62.4690         1.2700         1.3940       0.319820         2.2150
       3829.00         7.6410       106.1880        64.6880         1.2690         1.5080       0.325200         2.2300
       3829.50         7.8240       105.8750        65.8750         1.2730         1.6060       0.333010         2.2420
       3830.00         8.2190       106.5620        66.8750         1.2760         1.6040       0.321290         2.2500
       3830.50         8.2660       107.6250        65.3750         1.2900         1.6180       0.316410         2.2420
       3831.00         8.2660       107.6250        67.2500         1.3100         1.6230       0.315920         2.2400
       3831.50         8.2270       107.8120        68.5000         1.3280         1.5290       0.329590         2.2440
       3832.00         8.2270       106.4380        70.8750         1.3390         1.5420       0.329100         2.2480
       3832.50         8.2420       106.6250        70.6250         1.3410         1.5940       0.327150         2.2560
       3833.00         8.2420       106.5000        68.9380         1.3420         1.6090       0.328610         2.2580
       3833.50         8.2190       106.6250        67.2500         1.3500         1.6410       0.333980         2.2660
       3834.00         8.1950       106.3750        66.5620         1.3620         1.6730       0.335940         2.2700
       3834.50         8.1950       106.1250        62.8440         1.3790         1.7050       0.330080         2.2600
       3835.00         8.1950       106.2500        65.8750         1.3980         1.6140       0.322270         2.2710
       3835.50         8.2420       107.0000        70.0000         1.4100         1.6120       0.309570         2.2710
       3836.00         8.2420       107.7500        73.1250         1.4100         1.7410       0.308110         2.2850
