~Version Information Block
VERS .                 2.00:  CWLS LOG ASCII STANDARD - VERSION 2.00
WRAP .                   NO:  One line per depth step
~Well Information Block
#MNEM.UNIT        Data Type   Information
#---------- ----------------  -----------
STRT .FT            1860.00:  START DEPTH
STOP .FT            4918.00:  STOP DEPTH
STEP .FT               0.50:  STEP
NULL .              -999.25:  NULL VALUE
COMP .                     :  COMPANY
WELL .                 UK-1:  WELL
FLD  .                     :  FIELD
LOC  .                     :  LOCATION
CTRY .                     :  COUNTRY
STAT .                     :  STATE
CNTY .                     :  COUNTY
SRVC .                     :  SERVICE COMPANY
DATE .                     :  DATE
API  .                     :  API NUMBER
UWI  .                     :  UNIQUE WELL ID
~Curve Information Block
#MNEM.UNIT         API CODE   Curve Description
#---------- ----------------  -----------------
DEPTH.FT                   :  DEPTH CURVE
CALI .IN                   :  
DT   .US/F                 :  
GR   .GAPI                 :  
ILD  .OHMM                 :  
MSFL .OHMM                 :  
NPHI_LS.V/V                  :  
RHOB .G/C3                 :  
~Parameter Information Block
#MNEM.UNIT            Value   Description
#---------- ----------------  -----------
PROJECT.     petro@kponwjlx001:  
SET  .                 WIRE:  
~Other Information Block
# 
~A       DEPTH           CALI             DT             GR            ILD           MSFL        NPHI_LS           RHOB 
# ...
       3133.00         9.0160       138.7500        79.1880         0.6180         0.9970       0.487300         2.2070
       3133.50         8.9450       137.6250        87.6880         0.6240         0.9920       0.470700         2.2110
       3134.00         8.9610       138.3750        85.7500         0.6430         0.9920       0.476070         2.2110
       3134.50         8.9220       138.1250        84.1880         0.6790         1.0480       0.484860         2.2110
       3135.00         8.9220       135.6250        79.0620         0.7300         1.0380       0.488770         2.2170
       3135.50         8.8980       129.7500        79.8120         0.7890         1.0660       0.453120         2.2110
       3136.00         8.8980       124.7500        79.4380         0.8550         1.1950       0.383790         2.2130
       3136.50         8.8980       122.6250        81.6250         0.9290         1.5180       0.355960         2.2050
       3137.00         8.9140       122.2500        78.3120         1.0080         1.6250       0.357420         2.2190
       3137.50         8.9920       121.0000        76.0620         1.0980         1.5760       0.371580         2.2300
       3138.00         8.9140       122.0000        76.9380         1.1480         1.5470       0.375980         2.2360
       3138.50         8.9140       123.2500        81.0000         1.1450         1.6720       0.372560         2.2130
       3139.00         8.8980       125.0000        86.9380         1.1290         1.7740       0.365230         2.1950
       3139.50         9.0390       131.2500        81.6250         1.0700         1.5700       0.388180         2.1990
       3140.00         9.0160       135.5000        80.8750         0.9920         1.3270       0.413090         2.2050
       3140.50         9.0160       136.3750        83.0000         0.9230         1.3120       0.457030         2.2010
       3141.00         8.9450       137.2500        87.2500         0.8810         1.2960       0.461430         2.1950
       3141.50         8.9220       139.3750        89.0000         0.8570         1.1740       0.469240         2.1990
       3142.00         8.9380       138.3750        86.4380         0.8650         1.0760       0.440920         2.2170
       3142.50         8.8360       137.1250        83.2500         0.8930         1.1080       0.430660         2.2270
       3143.00         8.7970       130.8750        77.2500         0.9220         1.1080       0.398440         2.2400
       3143.50         8.6090       125.5000        67.9380         0.9710         1.2710       0.379880         2.2190
       3144.00         8.5550       124.2500        60.8750         1.0320         1.7010       0.341800         2.1620
       3144.50         8.5080       124.6250        53.7500         1.1130         1.7020       0.348140         2.1040
       3145.00         8.5310       130.6250        54.8120         1.2230         1.3800       0.351560         2.0510
       3145.50         8.5160       135.0000        57.0000         1.3040         1.3000       0.353030         2.0210
       3146.00         8.5080       133.0000        58.0620         1.3590         1.4360       0.354980         2.0060
       3146.50         8.5080       129.1250        56.4690         1.3770         1.4360       0.370120         2.0180
       3147.00         8.5160       124.8750        51.9380         1.3770         1.3920       0.375980         2.0510
       3147.50         8.5310       118.3750        55.5310         1.3480         1.3540       0.352540         2.0940
       3148.00         8.5310       113.2500        61.7190         1.2800         1.4290       0.330570         2.1210
       3148.50         8.6480       114.0000        72.3120         1.2190         1.4290       0.327150         2.1680
       3149.00         8.7810       117.5000        78.5620         1.1560         1.6390       0.370610         2.2010
       3149.50         9.0940       122.1880        81.0620         1.1120         1.5390       0.396000         2.2300
       3150.00         9.1410       128.7500        81.9380         1.0740         1.2990       0.423830         2.2110
       3150.50         9.2110       129.7500        80.0620         1.0340         1.2360       0.410160         2.1880
       3151.00         9.2580       130.3750        78.0000         0.9780         1.3140       0.394530         2.1860
       3151.50         9.0700       130.8750        77.4380         0.9270         1.1860       0.384280         2.1860
       3152.00         9.0470       131.0000        80.6880         0.8850         1.1220       0.397950         2.1890
       3152.50         8.9220       133.6250        83.0620         0.8490         1.2030       0.423830         2.1840
       3153.00         8.8590       137.3750        82.5000         0.8240         1.2380       0.437010         2.1880
       3153.50         8.8750       140.7500        81.0000         0.8140         1.1220       0.441410         2.1910
       3154.00         8.8910       141.8750        81.0000         0.8140         1.0980       0.425780         2.1860
       3154.50         8.8750       142.7500        80.3120         0.8200         1.0520       0.419920         2.1740
       3155.00         8.9220       140.1250        79.0620         0.8330         1.0380       0.420900         2.1700
       3155.50         8.9690       135.2500        75.2500         0.8460         1.0640       0.437010         2.1840
       3156.00         9.0230       128.0000        74.8750         0.8500         1.0920       0.421390         2.1950
       3156.50         9.0230       124.7500        74.5620         0.8560         1.1770       0.406740         2.2110
       3157.00         9.0700       122.3750        76.0000         0.8760         1.4430       0.394040         2.2210
       3157.50         9.1330       124.8750        74.5000         0.9260         1.3830       0.408200         2.2290
       3158.00         9.1800       129.2500        74.2500         1.0010         1.2980       0.411620         2.2210
       3158.50         9.0780       123.9380        70.4380         1.1460         1.1720       0.415040         2.2230
       3159.00         9.1090       110.7500        67.8750         1.2700         1.1530       0.369630         2.2790
       3159.50         8.9220       104.0620        61.2500         1.3780         1.3760       0.302730         2.3730
       3160.00         8.8980        84.6880        55.9690         1.4640         3.1200       0.230960         2.4710
       3160.50         8.8980        84.1250        51.6560         1.5330         6.3520       0.213380         2.4860
       3161.00         8.9450        88.2500        53.3120         1.5990         5.3850       0.225590         2.4340
       3161.50         9.0780        98.8750        58.3440         1.6590         4.7150       0.275390         2.3610
       3162.00         9.2030       108.2500        63.9380         1.6680         2.9360       0.309080         2.2770
       3162.50         9.2110       111.2500        65.9380         1.5390         2.2320       0.357910         2.2340
       3163.00         9.2270       116.6250        65.5620         1.4270         1.5430       0.377930         2.2170
       3163.50         9.2420       116.5620        64.4380         1.2810         1.3560       0.399900         2.2270
       3164.00         9.2890       118.3750        65.5000         1.1390         1.5160       0.392580         2.2270
       3164.50         9.2890       120.3750        71.3750         1.0900         1.3580       0.400880         2.2030
       3165.00         9.3360       119.8750        75.5620         1.0590         1.2700       0.386720         2.1970
       3165.50         9.3280       121.3120        72.6880         1.0520         1.1950       0.393070         2.1910
       3166.00         9.3360       121.2500        68.0620         1.0500         1.2100       0.368650         2.1950
