~Version Information Block
VERS .                 2.00:  CWLS LOG ASCII STANDARD - VERSION 2.00
WRAP .                   NO:  One line per depth step
~Well Information Block
#MNEM.UNIT        Data Type   Information
#---------- ----------------  -----------
STRT .FT            1860.00:  START DEPTH
STOP .FT            4918.00:  STOP DEPTH
STEP .FT               0.50:  STEP
NULL .              -999.25:  NULL VALUE
COMP .                     :  COMPANY
WELL .                 UK-1:  WELL
FLD  .                     :  FIELD
LOC  .                     :  LOCATION
CTRY .                     :  COUNTRY
STAT .                     :  STATE
CNTY .                     :  COUNTY
SRVC .                     :  SERVICE COMPANY
DATE .                     :  DATE
API  .                     :  API NUMBER
UWI  .                     :  UNIQUE WELL ID
~Curve Information Block
#MNEM.UNIT         API CODE   Curve Description
#---------- ----------------  -----------------
DEPTH.FT                   :  DEPTH CURVE
CALI .IN                   :  
DT   .US/F                 :  
GR   .GAPI                 :  
ILD  .OHMM                 :  
MSFL .OHMM                 :  
NPHI_LS.V/V                  :  
RHOB .G/C3                 :  
~Parameter Information Block
#MNEM.UNIT            Value   Description
#---------- ----------------  -----------
PROJECT.     petro@kponwjlx001:  
SET  .                 WIRE:  
~Other Information Block
# 
~A       DEPTH           CALI             DT             GR            ILD           MSFL        NPHI_LS           RHOB 
# ...
       4071.00         8.7500       119.7500        70.8750         0.8580         0.8460       0.420900         2.1800
       4071.50         8.7730       118.3750        74.8120         0.8560         0.7780       0.406250         2.1990
       4072.00         8.7580       117.8750        72.6250         0.8400         0.9020       0.400390         2.2270
       4072.50         8.6480       116.6250        76.6250         0.8400         0.9870       0.366700         2.2270
       4073.00         8.6330       117.7500        76.0000         0.8490         0.9060       0.374510         2.2010
       4073.50         8.6330       112.3750        75.3750         0.8660         0.9500       0.368650         2.2250
       4074.00         8.6950       114.5000        73.7500         0.8450         0.7870       0.368650         2.2340
       4074.50         9.2420       119.1250        70.0000         0.8160         0.7990       0.350100         2.2320
       4075.00         9.7340       117.8750        71.5000         0.7950         0.7010       0.381350         2.1950
       4075.50        10.0390       124.2500        74.8750         0.7530         0.4980       0.378420         2.1350
       4076.00        10.1480       125.1250        79.3120         0.7320         0.5640       0.411620         2.1150
       4076.50        10.3200       123.3750        76.0620         0.7110         0.7550       0.405760         2.0880
       4077.00        10.5860       123.6250        74.5620         0.6680         0.6550       0.416020         2.0980
       4077.50        10.4220       124.0000        71.1880         0.6550         0.6060       0.429690         2.0800
       4078.00        10.3050       124.7500        77.2500         0.6540         0.6200       0.422360         2.0430
       4078.50        10.4220       125.6250        73.8750         0.6620         0.6450       0.409180         2.0250
       4079.00        10.3050       117.0000        74.6250         0.6630         0.6110       0.364750         2.0410
       4079.50         9.4060       117.0000        71.0000         0.6660         0.5760       0.349610         2.0550
       4080.00         9.4300       117.2500        75.2500         0.6690         0.8840       0.402340         2.0610
       4080.50         9.5550       117.8750        77.0620         0.6720         0.7480       0.408690         2.0530
       4081.00         9.7110       124.1250        79.2500         0.6700         0.6450       0.412110         2.0760
       4081.50        10.1560       123.1250        78.5620         0.6840         0.5740       0.395510         2.1040
       4082.00        10.1020       123.1250        74.0620         0.6660         0.5850       0.381350         2.1370
       4082.50        10.1020       123.2500        71.8120         0.6580         0.6730       0.395510         2.1860
       4083.00        10.0780       124.0000        73.8750         0.6480         0.6520       0.376460         2.1970
       4083.50         9.8750       124.3750        77.1250         0.6450         0.5960       0.385250         2.1760
       4084.00        10.0310       124.7500        82.3750         0.6450         0.6700       0.387700         2.1540
       4084.50        10.1170       125.0000        81.0000         0.6430         0.6430       0.409180         2.1520
       4085.00         9.8750       125.0000        82.8120         0.6490         0.5460       0.397950         2.1580
       4085.50         9.8360       123.3750        78.5620         0.6520         0.5900       0.391600         2.1540
       4086.00         9.6950       124.0000        77.4380         0.6520         0.5770       0.350100         2.1520
       4086.50         9.6880       123.8750        77.5000         0.6530         0.5690       0.378910         2.1640
       4087.00         9.9840       124.1250        82.3120         0.6510         0.5620       0.394040         2.1700
       4087.50         9.9920       125.2500        77.9380         0.6540         0.5360       0.428220         2.1820
       4088.00        10.1950       124.1250        77.5000         0.6530         0.3070       0.398440         2.1780
       4088.50        10.2190       124.6250        75.8120         0.6540         0.5540       0.407710         2.1430
       4089.00        10.2970       123.5000        81.0000         0.6560         0.6690       0.416020         2.0570
       4089.50        10.7030       124.8750        78.1880         0.6620         0.5360       0.413570         1.9570
       4090.00        10.5860       125.5000        78.3120         0.6630         0.5900       0.400390         1.8850
       4090.50        10.4920       123.5000        76.5620         0.6670         0.6330       0.376950         1.8700
       4091.00        10.1480       123.7500        76.7500         0.6720         0.6120       0.396970         1.8960
       4091.50        10.2810       122.0000        74.4380         0.6760         0.6010       0.395510         1.9490
       4092.00        10.2190       123.7500        74.7500         0.6720         0.5800       0.402340         1.9510
       4092.50        10.2500       123.2500        76.5620         0.6820         0.5930       0.395020         1.9430
       4093.00        10.3910       124.1250        77.1880         0.6910         0.5520       0.388670         1.9440
       4093.50        10.1250       121.8750        76.2500         0.6970         0.5190       0.392090         1.9790
       4094.00         9.9840       122.0000        78.3120         0.6970         0.6330       0.377930         2.0310
       4094.50         9.9380       122.3750        78.2500         0.6960         0.6410       0.386230         2.0310
       4095.00         9.8520       122.3750        81.2500         0.6970         0.6300       0.404300         2.0160
       4095.50         9.8750       123.2500        78.1250         0.7020         0.6300       0.412110         1.9900
       4096.00         9.6410       123.0000        74.3120         0.7090         0.5800       0.424320         1.9790
       4096.50         9.4300       121.6250        75.8750         0.7120         0.5740       0.428220         1.9660
       4097.00        10.0310       121.1250        76.1880         0.7090         0.7020       0.426760         1.9450
       4097.50         9.5550       121.6250        79.4380         0.7120         0.6860       0.401370         1.9090
       4098.00        10.1560       121.3750        74.7500         0.7100         0.6480       0.408200         1.9070
       4098.50        10.3050       123.2500        73.0000         0.7090         0.4730       0.412600         1.8980
       4099.00         9.3120       123.8750        71.7500         0.7080         0.5210       0.427250         1.9070
       4099.50         9.8120       122.8750        75.1880         0.7030         0.5420       0.414060         1.9310
       4100.00         9.9530       123.5620        81.3750         0.6890         0.5460       0.414060         1.9960
       4100.50         9.7340       122.6250        82.4380         0.6960         0.6520       0.417480         2.1130
       4101.00        10.0160       121.1880        80.8750         0.7320         0.7330       0.419430         2.1680
       4101.50        10.1480       122.3120        76.5000         0.7630         0.8120       0.407710         2.1950
       4102.00        10.2270       124.3750        74.4380         0.7900         0.7740       0.404790         2.1050
       4102.50         9.4530       114.6250        69.4380         0.8760         0.7950       0.394530         2.0720
       4103.00         9.9060       106.6250        63.1560         0.8630         0.8670       0.361820         2.0800
       4103.50         8.5160       106.6250        56.4060         0.8260         0.9370       0.314450         2.0900
       4104.00         9.7420       107.5000        60.9060         0.7990         1.7280       0.352540         2.1290
