~Version Information Block
VERS .                 2.00:  CWLS LOG ASCII STANDARD - VERSION 2.00
WRAP .                   NO:  One line per depth step
~Well Information Block
#MNEM.UNIT        Data Type   Information
#---------- ----------------  -----------
STRT .FT            1860.00:  START DEPTH
STOP .FT            4918.00:  STOP DEPTH
STEP .FT               0.50:  STEP
NULL .              -999.25:  NULL VALUE
COMP .                     :  COMPANY
WELL .                 UK-1:  WELL
FLD  .                     :  FIELD
LOC  .                     :  LOCATION
CTRY .                     :  COUNTRY
STAT .                     :  STATE
CNTY .                     :  COUNTY
SRVC .                     :  SERVICE COMPANY
DATE .                     :  DATE
API  .                     :  API NUMBER
UWI  .                     :  UNIQUE WELL ID
~Curve Information Block
#MNEM.UNIT         API CODE   Curve Description
#---------- ----------------  -----------------
DEPTH.FT                   :  DEPTH CURVE
CALI .IN                   :  
DT   .US/F                 :  
GR   .GAPI                 :  
ILD  .OHMM                 :  
MSFL .OHMM                 :  
NPHI_LS.V/V                  :  
RHOB .G/C3                 :  
~Parameter Information Block
#MNEM.UNIT            Value   Description
#---------- ----------------  -----------
PROJECT.     petro@kponwjlx001:  
SET  .                 WIRE:  
~Other Information Block
# 
~A       DEPTH           CALI             DT             GR            ILD           MSFL        NPHI_LS           RHOB 
# ...
       4205.00         9.7340       118.4380        72.8120         0.6490         0.7390       0.368160         2.0620
       4205.50         9.2340       118.1880        71.2500         0.6590         0.7740       0.369140         2.0390
       4206.00         9.5780       118.0000        73.5620         0.6890         0.8440       0.360840         2.0470
       4206.50         9.2660       118.3750        73.3120         0.6940         0.8630       0.380860         2.0610
       4207.00         9.5230       119.5000        72.7500         0.7040         0.7560       0.370610         2.1000
       4207.50         9.1800       119.2500        70.6880         0.7000         0.8140       0.380860         2.1270
       4208.00         9.4530       119.0000        72.1250         0.6930         1.0390       0.362790         2.1230
       4208.50         9.0620       118.0000        73.7500         0.6870         0.8420       0.402830         2.1000
       4209.00         9.4840       118.5000        73.7500         0.6810         0.9510       0.394530         2.0660
       4209.50         9.1090       118.1880        74.8120         0.6780         1.0460       0.396970         2.0880
       4210.00         8.9380       120.0000        75.8120         0.6720         0.8360       0.366210         2.0880
       4210.50         9.1090       119.6250        76.0620         0.6720         0.8190       0.368160         2.1050
       4211.00         9.3280       119.7500        77.1250         0.6690         0.6820       0.393070         2.0700
       4211.50         9.0700       121.2500        76.0000         0.6640         0.6930       0.385250         2.0530
       4212.00         9.2890       120.5000        77.9380         0.6650         0.7850       0.412110         2.0330
       4212.50         9.2420       119.5000        79.4380         0.6630         0.8850       0.387700         2.0640
       4213.00         9.2110       118.8750        79.2500         0.6710         0.8690       0.382810         2.1130
       4213.50         9.3120       118.2500        80.3750         0.6740         0.8960       0.359860         2.1660
       4214.00         9.2030       118.2500        81.2500         0.6770         0.7500       0.350100         2.1700
       4214.50         9.3670       118.9380        81.8750         0.6880         0.8170       0.360350         2.1430
       4215.00         9.1250       118.6250        81.6250         0.6940         0.9000       0.363280         2.1410
       4215.50         9.2340       118.5620        75.8750         0.7010         0.8440       0.396000         2.1560
       4216.00         9.1250       118.9380        74.8120         0.7030         1.0210       0.392580         2.1950
       4216.50         9.1090       118.0000        74.2500         0.7070         0.8730       0.403320         2.2050
       4217.00         9.1560       117.9380        75.0000         0.7110         0.7700       0.403320         2.2070
       4217.50         9.2580       117.3120        74.6880         0.7200         0.8870       0.395510         2.1820
       4218.00         8.9920       118.0620        73.3750         0.7270         0.8190       0.387210         2.1580
       4218.50         9.0390       116.5620        74.1250         0.7420         0.8400       0.375000         2.1580
       4219.00         9.2580       116.1250        70.3120         0.7420         0.8650       0.404300         2.1500
       4219.50         9.4060       116.1250        70.3120         0.7390         0.6780       0.386720         2.1270
       4220.00         9.7500       116.9380        70.6250         0.7410         0.8360       0.416020         2.1430
       4220.50         9.6410       118.0620        74.3750         0.7380         0.9370       0.390140         2.1700
       4221.00         9.0780       116.6880        71.3750         0.7300         1.0490       0.387700         2.2130
       4221.50         8.9610       117.6250        70.9380         0.7220         0.9540       0.371580         2.2230
       4222.00         8.9690       118.5000        70.8120         0.7120         0.9450       0.362790         2.2170
       4222.50         9.1090       117.9380        70.8750         0.7000         1.0200       0.387210         2.2110
       4223.00         9.0390       119.0620        74.0000         0.6920         0.9790       0.372560         2.1990
       4223.50         9.2110       117.0000        73.1250         0.6890         0.9450       0.379880         2.2170
       4224.00         8.9450       115.7500        76.5000         0.6930         0.9800       0.394040         2.2340
       4224.50         8.7810       115.1880        73.3750         0.7630         0.9110       0.387700         2.2520
       4225.00         8.7270       116.3120        73.5000         0.7660         1.0150       0.371580         2.2930
       4225.50         8.7030       115.1880        68.6880         0.8310         1.1520       0.367680         2.2970
       4226.00         8.6090       104.3120        67.8120         0.9140         1.1830       0.373050         2.3050
       4226.50         8.4380        98.8120        66.6880         0.9540         1.1890       0.342290         2.3480
       4227.00         8.4300        96.0620        67.8120         0.9850         2.6720       0.276370         2.3910
       4227.50         8.3910        96.0000        62.0000         1.0160         6.7470       0.248050         2.4390
       4228.00         8.1330       106.5620        60.8750         1.0400         3.2600       0.286620         2.3770
       4228.50         8.1330       111.1880        56.5000         1.0690         1.3380       0.315920         2.2990
       4229.00         8.1330       111.9380        55.5620         1.0640         1.1480       0.331540         2.2420
       4229.50         8.1720       110.2500        48.4060         0.9930         1.1630       0.320800         2.2050
       4230.00         8.2730       110.6880        46.5940         0.9670         1.1050       0.317380         2.2030
       4230.50         8.3120       110.6250        44.6880         0.9410         1.1360       0.328610         2.2030
       4231.00         8.3670       109.8120        45.6560         0.9230         1.2660       0.332030         2.2190
       4231.50         8.3670       107.5000        45.2190         0.9250         1.2710       0.337400         2.2130
       4232.00         8.3670       107.7500        47.8440         0.9270         1.1840       0.334470         2.2070
       4232.50         8.3670       107.6250        48.3750         0.9420         1.2450       0.333500         2.2030
       4233.00         8.3670       109.0620        48.1250         0.9440         1.3140       0.345210         2.2030
       4233.50         8.3670       108.4380        44.4380         0.9430         1.0770       0.338870         2.1950
       4234.00         8.3670       107.8750        40.1880         0.9310         1.1280       0.320310         2.1820
       4234.50         8.3750       107.3120        37.6250         0.9140         1.2170       0.314450         2.1820
       4235.00         8.3670       107.2500        36.2500         0.8850         1.2750       0.313480         2.1970
       4235.50         8.3750       110.0000        38.2500         0.8670         1.4170       0.329590         2.2300
       4236.00         8.3750       112.0000        36.4380         0.8600         1.2990       0.321290         2.2290
       4236.50         8.3670       111.3750        36.0620         0.8690         1.3400       0.319820         2.2190
       4237.00         8.4300       111.3750        35.0620         0.8790         1.1750       0.318850         2.1720
       4237.50         8.5160       109.7500        41.3750         0.8840         1.0610       0.319340         2.1640
       4238.00         8.5160       109.1250        43.7810         0.8950         1.1450       0.334470         2.1680
