~Version Information Block
VERS .                 2.00:  CWLS LOG ASCII STANDARD - VERSION 2.00
WRAP .                   NO:  One line per depth step
~Well Information Block
#MNEM.UNIT        Data Type   Information
#---------- ----------------  -----------
STRT .FT            1860.00:  START DEPTH
STOP .FT            4918.00:  STOP DEPTH
STEP .FT               0.50:  STEP
NULL .              -999.25:  NULL VALUE
COMP .                     :  COMPANY
WELL .                 UK-1:  WELL
FLD  .                     :  FIELD
LOC  .                     :  LOCATION
CTRY .                     :  COUNTRY
STAT .                     :  STATE
CNTY .                     :  COUNTY
SRVC .                     :  SERVICE COMPANY
DATE .                     :  DATE
API  .                     :  API NUMBER
UWI  .                     :  UNIQUE WELL ID
~Curve Information Block
#MNEM.UNIT         API CODE   Curve Description
#---------- ----------------  -----------------
DEPTH.FT                   :  DEPTH CURVE
CALI .IN                   :  
DT   .US/F                 :  
GR   .GAPI                 :  
ILD  .OHMM                 :  
MSFL .OHMM                 :  
NPHI_LS.V/V                  :  
RHOB .G/C3                 :  
~Parameter Information Block
#MNEM.UNIT            Value   Description
#---------- ----------------  -----------
PROJECT.     petro@kponwjlx001:  
SET  .                 WIRE:  
~Other Information Block
# 
~A       DEPTH           CALI             DT             GR            ILD           MSFL        NPHI_LS           RHOB 
# ...
       4875.00         8.3440        98.5000        49.3440         1.9770         2.1170       0.342290         2.1410
       4875.50         8.2970        98.6880        49.4380         2.1860        11.7140       0.286620         2.1740
       4876.00         8.2270        98.5620        51.5000         2.2810        20.3850       0.217290         2.2600
       4876.50         8.1950        98.5620        54.6560         2.2710         1.8490       0.170900         2.3670
       4877.00         8.1950        98.5620        54.2190         2.2540         1.1280       0.174320         2.4000
       4877.50         8.1950        98.5620        53.7190         2.2420         1.1220       0.225590         2.3120
       4878.00         8.1880        98.5620        49.9690         2.0960         1.1990       0.296390         2.2340
       4878.50         8.1880        98.5620        48.3440         1.8960         1.2230       0.337400         2.1860
       4879.00         8.2270        98.5620        53.3440         1.6950         1.1250       0.331540         2.1740
       4879.50         8.2420        98.5620        57.8440         1.5720         1.4600       0.312500         2.1680
       4880.00         8.2110        98.5620        66.1250         1.4380         1.8550       0.307130         2.1760
       4880.50         8.2110        98.5620        70.2500         1.4110         1.9240       0.316890         2.2090
       4881.00         8.1480        98.5620        75.6880         1.4160         1.8140       0.325680         2.2620
       4881.50         8.0550        98.5620        78.3750         1.4350         1.7540       0.337400         2.3090
       4882.00         8.0310        98.5620        84.3120         1.4680         1.7440       0.347170         2.3180
       4882.50         8.0230        98.5620        93.5000         1.5240         1.6670       0.345210         2.3090
       4883.00         8.0230        98.5620       105.8120         1.5370         1.6840       0.348630         2.3070
       4883.50         8.0230        98.5620       114.1880         1.5370         1.6980       0.338380         2.3070
       4884.00         8.0230        98.5620       115.6870         1.5460         1.7140       0.350100         2.2990
       4884.50         8.0080        98.5620       107.6250         1.5590         1.7240       0.336910         2.2850
       4885.00         8.0080        98.5620        98.1880         1.5710         1.7380       0.331050         2.2750
       4885.50         8.0080        98.5620        89.6250         1.6290         1.7380       0.303220         2.2790
       4886.00         8.0080        98.5620        86.3750         1.6760         1.7390       0.296880         2.2850
       4886.50         8.0000        98.5620        80.1250         1.7210         1.7410       0.300290         2.2910
       4887.00         8.0000        98.5620        78.6250         1.7830         1.7390       0.316890         2.3010
       4887.50         8.0000        98.5620        70.6250         1.9410         1.7440       0.321780         2.3030
       4888.00         8.0000        98.5620        66.3120         2.0390         1.7460       0.322750         2.3110
       4888.50         8.0000        98.5620        59.9690         2.1970         1.7440       0.302730         2.3090
       4889.00         8.0000        98.5620        61.9690         2.2250         1.7370       0.279300         2.3280
       4889.50         8.0000        98.5620        62.8750         2.1970         1.7340       0.270020         2.3520
       4890.00         8.0000        98.5620        66.0620         2.1270         1.7370       0.290040         2.3690
       4890.50         8.0000        98.5620        67.1880         2.0780         1.7380       0.309570         2.3420
       4891.00         8.0000        98.5620        68.5000         1.9900         1.7360       0.314940         2.3030
       4891.50         8.0000        98.5620        69.0000         1.9410         1.7340       0.321290         2.2700
       4892.00         8.0000        98.5620        13.6720         1.8170         1.7340       0.324220         2.2580
       4892.50         8.0000        98.5620         0.0000         1.7510         1.7350       0.324710         2.2480
       4893.00         8.0310        98.5620         0.0000         1.7190         1.7340       0.306150         2.2380
       4893.50         8.0000        98.5620         0.0000         1.7130         1.7360       0.302250         2.2360
       4894.00         8.0000        98.5620         0.0000         1.6380         1.7330       0.297850         2.2500
       4894.50         8.0000        98.5620         0.0000         1.6290         1.7340       0.312990         2.2640
       4895.00         8.0000        98.5620         0.0000         1.6160         1.7330       0.324710         2.2580
       4895.50         7.9880        98.5620         0.0000         1.5820         1.7310       0.354980         2.2420
       4896.00         7.9880        98.5620         0.0000         1.5740         2.0490       0.370610         2.2360
       4896.50         7.9880        98.5620         0.0000         1.5050      1335.1810       0.369140         2.2420
       4897.00         7.9880        98.5620         0.0000         1.4520      2000.0000       0.355470         2.2460
       4897.50         7.9880        98.5620         0.0000         1.4530      2000.0000       0.330570         2.2400
       4898.00         7.9880        98.5620         0.0000         1.4440      2000.0000       0.327150         2.2360
       4898.50         7.9880        98.5620         0.0000         1.4550      2000.0000       0.318850         2.2340
       4899.00         7.9880        98.5620         0.0000         1.4630      2000.0000       0.330570         2.2400
       4899.50         7.9880        98.5620         0.0000         1.4800      2000.0000       0.329590         2.2400
       4900.00         7.9880        98.5620         0.0000         1.5210      2000.0000       0.330080         2.2440
       4900.50         7.9880        98.5620         0.0000         1.5770      2000.0000       0.325680         2.2360
       4901.00         7.9880        98.5620         0.0000         1.6470      2000.0000       0.331540         2.2460
       4901.50         7.9880        98.5620         0.0000         1.6670      2000.0000       0.333500         2.2360
       4902.00         7.9880        98.5620         0.0000         1.6790      2000.0000       0.336430         2.2270
       4902.50         7.9880        98.5620         0.0000         1.6870      2000.0000       0.337400         2.2210
       4903.00         7.9880        98.5620         0.0000         1.6870      2000.0000       0.337400         2.2130
       4903.50         7.9880        98.5620         0.0000         1.6840      2000.0000       0.337890         2.2230
       4904.00         7.9880        98.5620         0.0000         1.6360      2000.0000       0.337890         2.2320
       4904.50         7.9880        98.5620         0.0000         1.5980      2000.0000       0.337890         2.2420
       4905.00         7.9880        98.5620         0.0000         1.5810      2000.0000       0.337890         2.2480
       4905.50         7.9880        98.5620         0.0000         1.5530      2000.0000       0.337400         2.2360
       4906.00         7.9880        98.5620         0.0000         1.5700      2000.0000       0.340820         2.2170
       4906.50         7.9880        98.5620         0.0000         1.5780      2000.0000       0.346190         2.2300
       4907.00         7.9880        98.5620         0.0000         1.5700      2000.0000       0.346190         2.2620
       4907.50         7.9880        98.5620         0.0000         1.5760      2000.0000       0.339840         2.2990
       4908.00         7.9880        98.5620         0.0000         1.5840      2000.0000       0.337400         2.2810
