~Version Information Block
VERS .                 2.00:  CWLS LOG ASCII STANDARD - VERSION 2.00
WRAP .                   NO:  One line per depth step
~Well Information Block
#MNEM.UNIT        Data Type   Information
#---------- ----------------  -----------
STRT .FT            1860.00:  START DEPTH
STOP .FT            4918.00:  STOP DEPTH
STEP .FT               0.50:  STEP
NULL .              -999.25:  NULL VALUE
COMP .                     :  COMPANY
WELL .                 UK-1:  WELL
FLD  .                     :  FIELD
LOC  .                     :  LOCATION
CTRY .                     :  COUNTRY
STAT .                     :  STATE
CNTY .                     :  COUNTY
SRVC .                     :  SERVICE COMPANY
DATE .                     :  DATE
API  .                     :  API NUMBER
UWI  .                     :  UNIQUE WELL ID
~Curve Information Block
#MNEM.UNIT         API CODE   Curve Description
#---------- ----------------  -----------------
DEPTH.FT                   :  DEPTH CURVE
CALI .IN                   :  
DT   .US/F                 :  
GR   .GAPI                 :  
ILD  .OHMM                 :  
MSFL .OHMM                 :  
NPHI_LS.V/V                  :  
RHOB .G/C3                 :  
~Parameter Information Block
#MNEM.UNIT            Value   Description
#---------- ----------------  -----------
PROJECT.     petro@kponwjlx001:  
SET  .                 WIRE:  
~Other Information Block
# 
~A       DEPTH           CALI             DT             GR            ILD           MSFL        NPHI_LS           RHOB 
# ...
       3937.00         9.0780        91.6250        50.1560         1.3070         0.9020       0.286130         2.2230
       3937.50         8.5940        88.1250        45.8750         1.3670         2.2250       0.238770         2.3320
       3938.00         8.6330        96.7500        47.4380         1.4510         5.2710       0.277340         2.2910
       3938.50         9.0470        95.9380        51.0310         1.5690         3.2150       0.323240         2.2420
       3939.00         9.1800       105.5620        52.3750         1.5920         1.2800       0.322270         2.2270
       3939.50         8.4530       111.2500        56.5000         1.5590         1.0160       0.307130         2.1370
       3940.00         9.2270       110.1880        63.6250         1.4080         1.4680       0.375490         2.0800
       3940.50         9.1410       120.2500        71.8750         1.2350         0.8830       0.408200         2.1090
       3941.00         8.7190       117.3120        73.5000         1.1090         0.8090       0.408200         2.1450
       3941.50         8.7500       115.6250        72.8750         0.9600         0.8190       0.371090         1.9800
       3942.00         9.5940       115.7500        72.0620         0.8600         1.1810       0.386720         1.8170
       3942.50         9.8200       118.6880        72.7500         0.7650         0.9170       0.384770         1.7700
       3943.00         9.2810       123.2500        77.3750         0.7060         0.9000       0.398440         1.8550
       3943.50         9.5000       122.5620        77.6250         0.6880         0.9060       0.409180         1.9490
       3944.00         9.7340       124.3750        80.7500         0.6520         0.6930       0.449710         1.9910
       3944.50         9.5780       125.0000        79.9380         0.5990         0.6730       0.456540         1.9900
       3945.00         9.6880       125.5000        79.7500         0.5770         0.7660       0.440430         2.0140
       3945.50         9.5310       123.8750        75.3120         0.5580         0.7640       0.403320         2.0140
       3946.00         9.7890       127.0000        75.0620         0.5460         0.6740       0.409180         1.9900
       3946.50         8.5940       128.5000        76.6250         0.5500         0.4790       0.421880         1.9140
       3947.00         9.8830       129.7500        81.6880         0.5770         1.0350       0.427250         1.8420
       3947.50        10.6330       129.5000        80.0620         0.6030         0.8280       0.417480         1.7640
       3948.00        11.0000       119.0000        76.4380         0.6570         0.7860       0.423830         1.7660
       3948.50        10.9220       114.3750        70.5620         0.6840         0.7150       0.415040         1.8540
       3949.00         9.6880       110.8750        68.8750         0.6950         0.7750       0.385740         2.0230
       3949.50         9.4530       110.0000        72.0000         0.7110         1.3920       0.376460         2.1540
       3950.00         8.9380       118.8750        72.8750         0.7210         1.0540       0.372070         2.1740
       3950.50         9.2340       125.2500        77.3750         0.7450         0.8600       0.387700         2.1720
       3951.00         9.3830       129.7500        77.9380         0.7710         0.8000       0.392580         2.1560
       3951.50         9.2420       127.2500        80.2500         0.7820         0.9350       0.415530         2.1640
       3952.00         9.0620       123.7500        78.3750         0.7930         0.9460       0.403320         2.1970
       3952.50         8.9380       118.7500        75.2500         0.8140         0.9850       0.396000         2.1910
       3953.00         8.5860       115.7500        70.1250         0.8340         1.0180       0.388670         2.2010
       3953.50         9.0620       110.3750        64.9380         0.8590         1.5800       0.390140         2.1500
       3954.00         9.0940       118.7500        63.5940         0.8920         1.0840       0.393070         2.1370
       3954.50         9.1800       115.8750        67.3120         0.9210         1.3590       0.396000         2.1270
       3955.00         9.5700       115.0000        76.2500         0.9470         1.2600       0.392090         2.1350
       3955.50         9.6880       119.6880        80.1880         0.9300         0.8250       0.413570         2.1430
       3956.00         9.7500       120.1250        84.3750         0.9030         0.9850       0.433590         2.1250
       3956.50         9.7500       119.8750        82.8120         0.8710         0.9730       0.466800         2.1170
       3957.00         9.7890       121.7500        85.8750         0.8100         0.9320       0.463380         2.1070
       3957.50         9.6720       123.5000        86.2500         0.7750         0.9540       0.445800         2.1230
       3958.00         9.5780       125.0000        87.2500         0.7550         0.9280       0.433590         2.1270
       3958.50         9.3520       126.3750        86.7500         0.7200         0.9830       0.418950         2.1250
       3959.00         9.2660       127.5000        85.4380         0.7080         0.8870       0.439940         2.1090
       3959.50         9.3050       127.0000        83.6250         0.6980         0.7510       0.468750         2.1000
       3960.00         9.3670       128.3750        86.1250         0.6890         0.9750       0.468260         2.1000
       3960.50         9.2660       127.1250        86.3120         0.6800         0.9350       0.473140         2.1130
       3961.00         9.4530       127.5000        87.8750         0.6710         0.9690       0.446290         2.1330
       3961.50         9.3980       127.6250        87.2500         0.6660         0.9530       0.431150         2.1500
       3962.00         9.2270       126.7500        83.8120         0.6730         0.9240       0.418950         2.1540
       3962.50         9.1090       126.2500        83.6880         0.7130         0.9610       0.444340         2.1350
       3963.00         8.9770       125.7500        81.4380         0.7600         0.9450       0.469240         2.1310
       3963.50         8.7580       112.6250        78.8750         0.9250         0.8160       0.477050         2.1560
       3964.00         8.7190       102.3750        69.3750         1.0160         0.8350       0.400390         2.2210
       3964.50         8.6330        84.2500        59.5310         1.1570         0.8440       0.322270         2.3440
       3965.00         8.4920        76.8750        53.2500         1.2370         1.4540       0.226070         2.4410
       3965.50         8.4920        85.5000        48.6250         1.2660         3.2710       0.224610         2.4220
       3966.00         8.5860        99.8750        52.9690         1.2810         6.3320       0.267580         2.3030
       3966.50         9.1330       115.9380        61.7810         1.3110         2.5130       0.362300         2.2090
       3967.00         9.2270       123.4380        73.0000         1.2910         1.2340       0.400390         2.1540
       3967.50         9.2270       126.0620        77.1880         1.1410         1.0210       0.391110         2.1390
       3968.00         9.3120       123.2500        79.8750         1.0410         0.9600       0.358890         2.1410
       3968.50         9.3520       123.2500        78.6250         0.9260         0.9850       0.363280         2.1620
       3969.00         9.7340       124.5000        77.6250         0.8270         0.8280       0.389650         2.1890
       3969.50         9.8750       122.6250        75.5000         0.8080         0.7140       0.409180         2.1820
       3970.00         9.6330       121.6880        82.9380         0.8050         0.7710       0.416990         2.1860
