~Version Information Block
VERS .                 2.00:  CWLS LOG ASCII STANDARD - VERSION 2.00
WRAP .                   NO:  One line per depth step
~Well Information Block
#MNEM.UNIT        Data Type   Information
#---------- ----------------  -----------
STRT .FT            1860.00:  START DEPTH
STOP .FT            4918.00:  STOP DEPTH
STEP .FT               0.50:  STEP
NULL .              -999.25:  NULL VALUE
COMP .                     :  COMPANY
WELL .                 UK-1:  WELL
FLD  .                     :  FIELD
LOC  .                     :  LOCATION
CTRY .                     :  COUNTRY
STAT .                     :  STATE
CNTY .                     :  COUNTY
SRVC .                     :  SERVICE COMPANY
DATE .                     :  DATE
API  .                     :  API NUMBER
UWI  .                     :  UNIQUE WELL ID
~Curve Information Block
#MNEM.UNIT         API CODE   Curve Description
#---------- ----------------  -----------------
DEPTH.FT                   :  DEPTH CURVE
CALI .IN                   :  
DT   .US/F                 :  
GR   .GAPI                 :  
ILD  .OHMM                 :  
MSFL .OHMM                 :  
NPHI_LS.V/V                  :  
RHOB .G/C3                 :  
~Parameter Information Block
#MNEM.UNIT            Value   Description
#---------- ----------------  -----------
PROJECT.     petro@kponwjlx001:  
SET  .                 WIRE:  
~Other Information Block
# 
~A       DEPTH           CALI             DT             GR            ILD           MSFL        NPHI_LS           RHOB 
# ...
       4339.00         9.0230       110.3750        72.0000         1.1250         1.3680       0.317870         2.2660
       4339.50         8.9220       111.6880        72.1880         1.1080         1.3560       0.324710         2.2700
       4340.00         8.6950       109.5000        70.8750         1.0790         1.2670       0.342770         2.2890
       4340.50         8.7190       108.7500        72.8120         1.0650         1.4770       0.345700         2.3140
       4341.00         8.7270       109.1250        76.6250         1.0330         1.5460       0.330080         2.2990
       4341.50         8.8750       109.6880        79.0000         1.0310         1.5690       0.328610         2.2950
       4342.00         8.7730       111.4380        79.1250         1.0240         1.1040       0.333010         2.2460
       4342.50         8.9140       111.6880        76.6880         1.0240         1.1920       0.352050         2.2580
       4343.00         8.7970       111.3750        77.5620         1.0210         1.1380       0.346680         2.2440
       4343.50         8.8280       110.8120        76.8120         1.0030         1.4930       0.336430         2.2700
       4344.00         8.6950       111.3120        79.0620         0.9960         1.5820       0.337400         2.2700
       4344.50         8.6950       111.7500        75.8120         0.9970         1.2760       0.338870         2.2850
       4345.00         8.8360       110.5000        76.1880         1.0020         1.2040       0.353030         2.2870
       4345.50         8.6950       112.4380        77.6880         1.0160         1.1670       0.351560         2.2660
       4346.00         8.8050       110.7500        79.8120         1.0260         1.1840       0.376950         2.2620
       4346.50         8.6170       109.9380        78.1880         1.0250         1.2420       0.375000         2.2850
       4347.00         8.6950       109.8750        80.6250         1.0190         1.4380       0.363280         2.3160
       4347.50         8.6560       108.8120        81.5000         1.0130         1.4260       0.345210         2.3340
       4348.00         8.6560       110.6250        81.5000         0.9980         1.4850       0.349120         2.3160
       4348.50         8.6720       112.6250        77.7500         0.9930         1.2700       0.350590         2.2850
       4349.00         8.7580       113.5000        77.6250         0.9860         1.3330       0.374020         2.2600
       4349.50         8.8910       113.1250        79.4380         0.9790         1.3770       0.364750         2.2190
       4350.00         8.7810       112.5620        80.3120         0.9730         1.6410       0.383300         2.2540
       4350.50         8.7810       113.5620        77.1880         0.9650         1.3220       0.369140         2.2540
       4351.00         8.7730       114.0000        77.3120         0.9660         1.1810       0.379880         2.2580
       4351.50         8.8910       112.8750        80.0620         0.9720         1.4200       0.368160         2.2890
       4352.00         8.7730       110.2500        79.6880         0.9790         1.2850       0.368650         2.2710
       4352.50         8.6330       109.0000        75.1880         0.9980         1.2510       0.355470         2.3070
       4353.00         8.6560       108.1250        69.8750         1.0570         1.7250       0.343260         2.3070
       4353.50         8.6950       108.8120        72.4380         1.1730         1.7540       0.331540         2.3010
       4354.00         8.7270       110.2500        74.1880         1.3030         1.2880       0.336910         2.2770
       4354.50         8.7270       103.3750        69.6250         1.4760         1.1570       0.362790         2.2680
       4355.00         8.7810        90.8750        66.0620         1.5370         1.0680       0.358400         2.2790
       4355.50         8.7190        82.3750        56.0310         1.4710         2.1810       0.292480         2.3520
       4356.00         9.0000        81.8750        50.9380         1.4210         9.8100       0.204100         2.4750
       4356.50        10.1250        96.1250        47.3440         1.3870         2.8080       0.161620         2.4390
       4357.00        10.4140       107.4380        55.1250         1.3870         0.6800       0.241700         2.2440
       4357.50        10.3050       117.1880        63.4060         1.3490         0.7220       0.338870         1.9600
       4358.00         9.0620       116.5000        64.6880         1.2460         0.5850       0.417480         1.8210
       4358.50         9.4300       116.6250        66.1250         1.1050         0.7760       0.427250         1.7650
       4359.00         8.9690       109.5000        66.0620         1.0050         0.9650       0.410160         1.8690
       4359.50         8.5550       111.8750        69.6880         0.9500         1.1250       0.377440         2.0270
       4360.00         8.5700       108.8750        70.5000         0.9370         1.4740       0.363770         2.2540
       4360.50         8.5310       111.1250        69.0620         0.9490         1.4000       0.347660         2.2970
       4361.00         8.5310       110.4380        66.3120         0.9930         1.5080       0.335450         2.3220
       4361.50         8.5310       111.3120        67.3750         1.0270         1.4890       0.317380         2.3160
       4362.00         8.5160       109.9380        69.3750         1.0650         1.5940       0.349610         2.3240
       4362.50         8.5620       109.8750        71.1250         1.0930         1.4390       0.359380         2.3180
       4363.00         8.5550       107.8120        62.3750         1.1100         1.5930       0.355470         2.3140
       4363.50         8.6090       105.1250        57.0620         1.1160         1.6390       0.351560         2.3180
       4364.00         8.5080       105.4380        54.0310         1.1180         1.8490       0.342770         2.3220
       4364.50         8.4920       108.7500        60.7810         1.1240         1.6900       0.338870         2.3160
       4365.00         8.4920       109.1250        65.2500         1.1240         1.6740       0.348140         2.3030
       4365.50         8.5080       109.6880        68.3120         1.1270         1.7150       0.357910         2.2850
       4366.00         8.5310       108.8750        71.2500         1.1010         1.4760       0.373540         2.2710
       4366.50         8.5550       113.5000        67.4380         1.0650         1.3250       0.331540         2.2500
       4367.00         8.5550       112.6250        65.9380         1.0490         1.4990       0.337400         2.1930
       4367.50         9.0390       112.0000        59.9690         1.0110         0.9540       0.333500         2.1370
       4368.00         8.6560       112.8120        60.8120         0.9860         0.5900       0.356450         2.0940
       4368.50         8.6950       109.0620        61.0620         0.9890         1.0010       0.325200         2.0740
       4369.00         8.8750       114.5620        62.0940         0.9860         0.5660       0.342290         2.0350
       4369.50         8.8360       114.6250        65.6250         1.0130         0.6550       0.361330         1.9530
       4370.00         9.1330       110.2500        67.6250         1.0380         0.7660       0.421880         1.8610
       4370.50         9.0470       109.2500        65.1250         1.0350         0.4610       0.408690         1.8420
       4371.00         8.5160       107.3120        63.4380         1.0140         0.7130       0.386720         1.9420
       4371.50         8.5080       109.8750        63.0000         1.0140         1.0360       0.368160         2.1150
       4372.00         8.6170       109.3120        67.6880         1.0150         1.5220       0.364260         2.2290
