~Version Information Block
VERS .                 2.00:  CWLS LOG ASCII STANDARD - VERSION 2.00
WRAP .                   NO:  One line per depth step
~Well Information Block
#MNEM.UNIT        Data Type   Information
#---------- ----------------  -----------
STRT .FT            1860.00:  START DEPTH
STOP .FT            4918.00:  STOP DEPTH
STEP .FT               0.50:  STEP
NULL .              -999.25:  NULL VALUE
COMP .                     :  COMPANY
WELL .                 UK-1:  WELL
FLD  .                     :  FIELD
LOC  .                     :  LOCATION
CTRY .                     :  COUNTRY
STAT .                     :  STATE
CNTY .                     :  COUNTY
SRVC .                     :  SERVICE COMPANY
DATE .                     :  DATE
API  .                     :  API NUMBER
UWI  .                     :  UNIQUE WELL ID
~Curve Information Block
#MNEM.UNIT         API CODE   Curve Description
#---------- ----------------  -----------------
DEPTH.FT                   :  DEPTH CURVE
CALI .IN                   :  
DT   .US/F                 :  
GR   .GAPI                 :  
ILD  .OHMM                 :  
MSFL .OHMM                 :  
NPHI_LS.V/V                  :  
RHOB .G/C3                 :  
~Parameter Information Block
#MNEM.UNIT            Value   Description
#---------- ----------------  -----------
PROJECT.     petro@kponwjlx001:  
SET  .                 WIRE:  
~Other Information Block
# 
~A       DEPTH           CALI             DT             GR            ILD           MSFL        NPHI_LS           RHOB 
# ...
       4473.00         8.6560       115.8120        87.0620         0.8710         1.2630       0.367680         2.2340
       4473.50         8.6720       115.5000        88.1880         0.8660         1.0060       0.370610         2.2340
       4474.00         8.6560       115.5000        85.0000         0.8660         0.8890       0.360350         2.2560
       4474.50         8.6950       116.1250        83.7500         0.8700         1.0970       0.394530         2.2710
       4475.00         8.6720       117.3750        83.1880         0.8650         1.0950       0.418460         2.2580
       4475.50         8.6170       117.1880        84.3750         0.8580         1.3140       0.424320         2.2540
       4476.00         8.6170       116.8120        83.1880         0.8530         1.1220       0.417480         2.2500
       4476.50         8.6800       117.6880        80.1880         0.8500         1.0660       0.418460         2.2790
       4477.00         8.6330       117.3120        79.2500         0.8290         1.2430       0.409180         2.2890
       4477.50         8.6330       117.5620        81.2500         0.8200         1.2640       0.402340         2.2750
       4478.00         8.5860       117.8750        84.2500         0.8170         1.0530       0.392580         2.2710
       4478.50         8.5700       117.5620        78.4380         0.8130         1.1060       0.385740         2.2520
       4479.00         8.5700       117.7500        77.1250         0.8130         1.1810       0.363770         2.2440
       4479.50         8.6170       117.1880        77.1880         0.8150         0.9540       0.339840         2.2290
       4480.00         8.7190       118.0000        82.7500         0.8180         1.3250       0.343260         2.2210
       4480.50         8.7580       118.1250        81.6880         0.8230         1.2220       0.362300         2.2190
       4481.00         8.7500       117.5620        81.3120         0.8300         1.0590       0.382320         2.2230
       4481.50         8.7810       117.5000        78.6880         0.8380         0.9360       0.385740         2.2540
       4482.00         8.7810       116.8750        82.3750         0.8440         0.9300       0.388180         2.2730
       4482.50         8.8280       116.0620        85.5000         0.8480         0.9770       0.368160         2.2730
       4483.00         8.7730       115.6250        86.5620         0.8510         1.0350       0.377440         2.2770
       4483.50         8.8360       116.1250        84.6250         0.8490         1.0650       0.377930         2.2540
       4484.00         8.8520       116.2500        77.9380         0.8460         1.1190       0.392580         2.2580
       4484.50         8.8980       116.9380        76.7500         0.8400         1.0600       0.377930         2.2360
       4485.00         8.9450       117.5000        74.6880         0.8400         1.0690       0.368650         2.2560
       4485.50         9.1560       118.0620        77.2500         0.8340         0.9840       0.376460         2.2680
       4486.00         8.9380       118.4380        83.5000         0.8300         1.0690       0.374020         2.2560
       4486.50         9.0470       117.8750        85.3120         0.8250         1.2020       0.382320         2.2190
       4487.00         8.8280       118.8750        86.0620         0.8180         1.0140       0.383300         2.2050
       4487.50         8.7810       118.3750        80.5620         0.8160         0.8940       0.407710         2.2150
       4488.00         8.7810       119.1250        80.9380         0.8200         0.9190       0.393550         2.2320
       4488.50         8.7970       118.3120        80.7500         0.8240         1.1690       0.387210         2.2250
       4489.00         8.8750       120.0000        84.0620         0.8270         1.1570       0.366700         2.2400
       4489.50         8.9220       119.1250        82.1880         0.8310         0.9140       0.359380         2.2600
       4490.00         8.7730       118.0620        85.1250         0.8340         1.1200       0.378910         2.2480
       4490.50         8.9380       117.5000        79.4380         0.8360         1.1340       0.392580         2.2290
       4491.00         8.9690       116.8750        79.1880         0.8370         1.0210       0.416500         2.2230
       4491.50         8.8200       116.6250        75.5000         0.8390         1.0000       0.375490         2.2440
       4492.00         8.6090       117.7500        79.2500         0.8370         1.0320       0.351560         2.2560
       4492.50         8.6560       118.6250        81.0000         0.8380         1.0030       0.362300         2.2460
       4493.00         8.5550       118.3120        82.1250         0.8340         1.0400       0.400880         2.2270
       4493.50         8.5700       118.1880        78.5000         0.8300         0.9670       0.432620         2.2420
       4494.00         8.6330       118.8120        79.8120         0.8280         1.0770       0.417480         2.2290
       4494.50         8.6720       119.3120        81.9380         0.8270         1.0580       0.445800         2.2540
       4495.00         8.7810       119.6880        83.8120         0.8250         0.8310       0.456540         2.2270
       4495.50         8.7730       120.6250        79.7500         0.8270         0.8560       0.455080         2.2340
       4496.00         8.6480       120.1250        79.1250         0.8300         0.9860       0.415040         2.2170
       4496.50         8.6950       119.4380        78.7500         0.8320         0.9910       0.397460         2.2210
       4497.00         8.8980       119.2500        79.2500         0.8320         1.1100       0.399900         2.2170
       4497.50         8.4530       118.6880        77.7500         0.8340         0.9370       0.387700         2.2150
       4498.00         8.5620       118.8120        79.9380         0.8340         0.9620       0.375490         2.2010
       4498.50         8.7030       118.7500        79.0620         0.8380         1.0250       0.386720         2.2050
       4499.00         8.8360       119.1880        78.3750         0.8390         1.0290       0.392580         2.2130
       4499.50         8.6480       119.8750        76.4380         0.8370         0.9860       0.404790         2.2270
       4500.00         8.4610       119.6250        78.6880         0.8330         1.1060       0.409180         2.2270
       4500.50         8.3120       119.3750        81.1880         0.8300         1.0590       0.396970         2.2290
       4501.00         8.3280       120.0000        83.4380         0.8280         0.9220       0.374020         2.2210
       4501.50         8.2970       119.1250        86.6250         0.8240         0.9540       0.356450         2.2270
       4502.00         8.2970       119.7500        85.8120         0.8200         1.0610       0.355470         2.1760
       4502.50         8.3200       120.0000        85.1250         0.8150         0.9260       0.375000         2.1110
       4503.00         8.3670       120.5000        82.9380         0.8130         0.7600       0.392580         2.0740
       4503.50         8.3910       120.6250        82.2500         0.8130         1.0990       0.412600         2.1170
       4504.00         8.4530       125.6250        80.6880         0.8070         0.9740       0.394530         2.1350
       4504.50         8.5160       122.5000        83.0000         0.8030         0.9630       0.408690         2.1800
       4505.00         8.3120       120.8120        82.1880         0.7970         0.9500       0.418950         2.1910
       4505.50         8.2420       120.8120        84.5000         0.7910         0.9600       0.423830         2.1990
       4506.00         8.2890       120.4380        80.6250         0.7910         1.0090       0.410640         2.2030
