~Version Information Block
VERS .                 2.00:  CWLS LOG ASCII STANDARD - VERSION 2.00
WRAP .                   NO:  One line per depth step
~Well Information Block
#MNEM.UNIT        Data Type   Information
#---------- ----------------  -----------
STRT .FT            1860.00:  START DEPTH
STOP .FT            4918.00:  STOP DEPTH
STEP .FT               0.50:  STEP
NULL .              -999.25:  NULL VALUE
COMP .                     :  COMPANY
WELL .                 UK-1:  WELL
FLD  .                     :  FIELD
LOC  .                     :  LOCATION
CTRY .                     :  COUNTRY
STAT .                     :  STATE
CNTY .                     :  COUNTY
SRVC .                     :  SERVICE COMPANY
DATE .                     :  DATE
API  .                     :  API NUMBER
UWI  .                     :  UNIQUE WELL ID
~Curve Information Block
#MNEM.UNIT         API CODE   Curve Description
#---------- ----------------  -----------------
DEPTH.FT                   :  DEPTH CURVE
CALI .IN                   :  
DT   .US/F                 :  
GR   .GAPI                 :  
ILD  .OHMM                 :  
MSFL .OHMM                 :  
NPHI_LS.V/V                  :  
RHOB .G/C3                 :  
~Parameter Information Block
#MNEM.UNIT            Value   Description
#---------- ----------------  -----------
PROJECT.     petro@kponwjlx001:  
SET  .                 WIRE:  
~Other Information Block
# 
~A       DEPTH           CALI             DT             GR            ILD           MSFL        NPHI_LS           RHOB 
# ...
       3267.00         8.4610       142.3750        87.6880         0.6280         1.0300       0.450680         2.1820
       3267.50         8.4610       143.7500        89.0000         0.6330         1.0500       0.486330         2.1720
       3268.00         8.4840       143.8750        88.3750         0.6350         0.9840       0.466310         2.1760
       3268.50         8.4840       143.1250        85.9380         0.6380         0.9680       0.463870         2.1860
       3269.00         8.5160       141.3750        87.4380         0.6390         0.9560       0.440430         2.1950
       3269.50         8.5310       140.1250        82.5620         0.6370         0.9930       0.455080         2.1930
       3270.00         8.5550       140.7500        81.5620         0.6350         0.9560       0.481930         2.1890
       3270.50         8.5160       141.0000        81.0000         0.6340         0.9860       0.461430         2.1890
       3271.00         8.5700       141.5000        83.2500         0.6320         1.0140       0.476070         2.1890
       3271.50         8.5940       140.1250        85.1250         0.6330         1.0180       0.452150         2.1880
       3272.00         8.6170       140.5000        83.8750         0.6310         1.0330       0.428710         2.1860
       3272.50         8.5940       142.5000        83.0620         0.6270         1.0560       0.415040         2.1740
       3273.00         8.5940       142.5000        85.5620         0.6260         1.0660       0.462400         2.1620
       3273.50         8.6330       142.2500        87.6250         0.6260         0.9830       0.492190         2.1660
       3274.00         8.6090       142.0000        88.1250         0.6250         0.9870       0.496580         2.1740
       3274.50         8.5160       141.0000        84.6880         0.6240         1.0000       0.453120         2.1860
       3275.00         8.5310       139.6250        84.1250         0.6230         0.9990       0.448730         2.1820
       3275.50         8.4840       140.6250        84.6880         0.6290         1.0030       0.447270         2.1780
       3276.00         8.4840       142.1250        86.3750         0.6200         0.9990       0.449220         2.1760
       3276.50         8.4920       140.7500        83.3120         0.6160         0.9480       0.461910         2.1800
       3277.00         8.4840       140.8750        83.8120         0.6170         0.8810       0.452640         2.1910
       3277.50         8.4840       140.2500        80.7500         0.6170         0.8860       0.468750         2.2050
       3278.00         8.5310       139.2500        81.6880         0.6240         0.9660       0.469730         2.2030
       3278.50         8.5620       140.3750        83.5000         0.6150         0.9590       0.460450         2.1890
       3279.00         8.5700       139.7500        87.9380         0.6140         0.9750       0.444820         2.1720
       3279.50         8.5860       139.8750        88.4380         0.6220         0.9850       0.409180         2.1620
       3280.00         8.6090       140.6250        85.4380         0.6350         0.9400       0.416990         2.1680
       3280.50         8.6170       139.0000        80.1250         0.6630         1.0060       0.422850         2.1760
       3281.00         8.6560       136.5000        75.1250         0.6970         0.9330       0.435060         2.1930
       3281.50         8.7270       132.8750        75.8120         0.7420         0.9720       0.424800         2.2090
       3282.00         8.7270       127.8750        75.0620         0.8020         1.0670       0.401370         2.2210
       3282.50         8.6800       122.6250        77.0620         0.8660         1.1160       0.385250         2.2250
       3283.00         8.6560       118.2500        69.8750         0.9590         1.2540       0.381840         2.2380
       3283.50         8.7190       114.4380        69.1250         1.0390         1.2380       0.372560         2.2380
       3284.00         8.5620       112.3750        63.2810         1.1400         1.0050       0.365230         2.2520
       3284.50         8.5390       111.2500        60.5620         1.2060         1.4910       0.350590         2.2440
       3285.00         8.5390       111.8120        55.2190         1.2620         1.6040       0.331540         2.2500
       3285.50         8.5620       112.2500        55.3440         1.3010         1.7270       0.323240         2.2440
       3286.00         8.5620       112.1250        57.3440         1.3280         1.7030       0.318360         2.2400
       3286.50         8.5620       112.7500        56.9690         1.3310         1.7080       0.331540         2.2420
       3287.00         8.5620       112.8120        59.1250         1.3280         1.6730       0.336910         2.2440
       3287.50         8.5620       112.9380        62.5310         1.3280         1.7070       0.352540         2.2520
       3288.00         8.5620       113.2500        67.5000         1.3290         1.6750       0.368160         2.2600
       3288.50         8.5620       113.3120        65.1880         1.3370         1.5780       0.359380         2.2710
       3289.00         8.5940       113.7500        59.7810         1.3480         1.7000       0.365230         2.2810
       3289.50         8.5860       113.7500        57.3440         1.3540         1.7070       0.354490         2.2890
       3290.00         8.5940       113.7500        59.8440         1.3530         1.8520       0.353520         2.2850
       3290.50         8.5940       113.8120        64.3750         1.3390         1.8020       0.334470         2.2830
       3291.00         8.7500       112.3120        66.8120         1.3140         1.9680       0.331540         2.2620
       3291.50         8.7730       112.4380        66.8750         1.2760         1.8980       0.349610         2.2560
       3292.00         8.9140       114.2500        68.1880         1.2370         1.7440       0.380370         2.2520
       3292.50         8.9220       115.0620        68.4380         1.2020         1.5200       0.387210         2.2600
       3293.00         8.9450       116.5620        70.9380         1.1750         1.4380       0.393070         2.2680
       3293.50         8.9920       119.1250        70.6880         1.1210         1.5160       0.358890         2.2710
       3294.00         8.9770       119.6250        74.6250         1.0750         1.5880       0.359860         2.2680
       3294.50         9.0160       119.5000        78.5620         1.0120         1.5350       0.359860         2.2680
       3295.00         9.0390       120.4380        81.8120         0.9540         1.4130       0.388180         2.2640
       3295.50         9.0470       120.7500        80.5620         0.9010         1.4070       0.377930         2.2640
       3296.00         9.0940       123.3750        79.9380         0.8450         1.3770       0.395510         2.2600
       3296.50         9.2270       126.2500        77.8750         0.8080         1.3120       0.395510         2.2320
       3297.00         9.1560       129.6250        81.6880         0.7910         1.1730       0.424800         2.2230
       3297.50         9.2030       130.7500        81.4380         0.7700         1.0690       0.405270         2.2090
       3298.00         9.2030       130.2500        81.0000         0.7550         1.0260       0.413570         2.2250
       3298.50         9.0620       129.8750        75.1880         0.7500         1.1010       0.396000         2.2300
       3299.00         9.1250       128.1250        70.5620         0.7590         1.1580       0.401860         2.2340
       3299.50         9.2110       126.6250        73.6250         0.7870         1.1720       0.373050         2.2420
       3300.00         9.2420       124.3750        77.3750         0.8340         1.1800       0.366210         2.2460
