~Version Information Block
VERS .                 2.00:  CWLS LOG ASCII STANDARD - VERSION 2.00
WRAP .                   NO:  One line per depth step
~Well Information Block
#MNEM.UNIT        Data Type   Information
#---------- ----------------  -----------
STRT .FT            1860.00:  START DEPTH
STOP .FT            4918.00:  STOP DEPTH
STEP .FT               0.50:  STEP
NULL .              -999.25:  NULL VALUE
COMP .                     :  COMPANY
WELL .                 UK-1:  WELL
FLD  .                     :  FIELD
LOC  .                     :  LOCATION
CTRY .                     :  COUNTRY
STAT .                     :  STATE
CNTY .                     :  COUNTY
SRVC .                     :  SERVICE COMPANY
DATE .                     :  DATE
API  .                     :  API NUMBER
UWI  .                     :  UNIQUE WELL ID
~Curve Information Block
#MNEM.UNIT         API CODE   Curve Description
#---------- ----------------  -----------------
DEPTH.FT                   :  DEPTH CURVE
CALI .IN                   :  
DT   .US/F                 :  
GR   .GAPI                 :  
ILD  .OHMM                 :  
MSFL .OHMM                 :  
NPHI_LS.V/V                  :  
RHOB .G/C3                 :  
~Parameter Information Block
#MNEM.UNIT            Value   Description
#---------- ----------------  -----------
PROJECT.     petro@kponwjlx001:  
SET  .                 WIRE:  
~Other Information Block
# 
~A       DEPTH           CALI             DT             GR            ILD           MSFL        NPHI_LS           RHOB 
# ...
       2865.00      -999.2500       114.0620        63.7190         0.7210      -999.2500    -999.250000      -999.2500
       2865.50      -999.2500       114.0620        63.3980         0.6850      -999.2500    -999.250000      -999.2500
       2866.00      -999.2500       114.1250        65.7030         0.6490      -999.2500    -999.250000      -999.2500
       2866.50      -999.2500       114.1250        67.0620         0.6240      -999.2500    -999.250000      -999.2500
       2867.00      -999.2500       114.2500        66.1880         0.6170      -999.2500    -999.250000      -999.2500
       2867.50      -999.2500       114.1250        64.5230         0.6180      -999.2500    -999.250000      -999.2500
       2868.00      -999.2500       114.2500        63.3670         0.6250      -999.2500    -999.250000      -999.2500
       2868.50      -999.2500       114.2500        63.6020         0.6290      -999.2500    -999.250000      -999.2500
       2869.00      -999.2500       114.1250        64.4450         0.6290      -999.2500    -999.250000      -999.2500
       2869.50      -999.2500       114.6250        65.0940         0.6250      -999.2500    -999.250000      -999.2500
       2870.00      -999.2500       114.5000        65.3590         0.6190      -999.2500    -999.250000      -999.2500
       2870.50      -999.2500       114.5000        64.6880         0.6070      -999.2500    -999.250000      -999.2500
       2871.00      -999.2500       114.6250        63.6480         0.5960      -999.2500    -999.250000      -999.2500
       2871.50      -999.2500       114.5000        63.3280         0.5840      -999.2500    -999.250000      -999.2500
       2872.00      -999.2500       115.0000        64.6480         0.5760      -999.2500    -999.250000      -999.2500
       2872.50      -999.2500       115.1880        66.6560         0.5650      -999.2500    -999.250000      -999.2500
       2873.00      -999.2500       115.1880        67.6250         0.5670      -999.2500    -999.250000      -999.2500
       2873.50      -999.2500       115.1880        67.3120         0.5760      -999.2500    -999.250000      -999.2500
       2874.00      -999.2500       115.1880        65.9690         0.6030      -999.2500    -999.250000      -999.2500
       2874.50      -999.2500       115.1880        65.1560         0.6420      -999.2500    -999.250000      -999.2500
       2875.00      -999.2500       115.1880        65.4380         0.6740      -999.2500    -999.250000      -999.2500
       2875.50      -999.2500       115.1880        66.7970         0.7130      -999.2500    -999.250000      -999.2500
       2876.00      -999.2500       115.1880        69.1250         0.7480      -999.2500    -999.250000      -999.2500
       2876.50      -999.2500       115.1880        69.9530         0.7920      -999.2500    -999.250000      -999.2500
       2877.00      -999.2500       115.1880        69.2500         0.8280      -999.2500    -999.250000      -999.2500
       2877.50      -999.2500       115.1880        67.8440         0.8720      -999.2500    -999.250000      -999.2500
       2878.00      -999.2500       115.1880        67.4060         0.8920      -999.2500    -999.250000      -999.2500
       2878.50      -999.2500       115.1880        68.9690         0.8860      -999.2500    -999.250000      -999.2500
       2879.00      -999.2500       115.1880        70.7970         0.8570      -999.2500    -999.250000      -999.2500
       2879.50      -999.2500       115.1880        72.4220         0.8220      -999.2500    -999.250000      -999.2500
       2880.00      -999.2500       115.1880        73.1880         0.7880      -999.2500    -999.250000      -999.2500
       2880.50      -999.2500       115.1880        73.1880         0.7830      -999.2500    -999.250000      -999.2500
       2881.00      -999.2500       115.1880        73.1880         0.7850      -999.2500    -999.250000      -999.2500
       2881.50      -999.2500       115.1880        73.1880         0.8070      -999.2500    -999.250000      -999.2500
       2882.00      -999.2500       115.1880        73.1880         0.8400      -999.2500    -999.250000      -999.2500
       2882.50      -999.2500       115.1880        73.1880         0.8850      -999.2500    -999.250000      -999.2500
       2883.00      -999.2500       115.1880        73.1880         0.9430      -999.2500    -999.250000      -999.2500
       2883.50      -999.2500       115.1880        73.1880         1.0000      -999.2500    -999.250000      -999.2500
       2884.00         9.0390       115.1880        73.1880         1.0220         0.6420       0.469730         2.2210
       2884.50         9.8750       115.1880        73.1880         1.0240         0.8410       0.496090         2.1580
       2885.00         9.9380       115.1880        73.1880         1.0240         1.5490       0.486330         2.1050
       2885.50        10.0310       115.1880        73.1880         1.0260         1.6030       0.471680         2.0840
       2886.00        10.1720       115.1880        73.1880         1.0280         1.6890       0.453610         2.0820
       2886.50        10.2730       115.1880        73.1880         1.0300         1.5220       0.465330         2.0590
       2887.00        10.3440       115.1880        73.1880         1.0300         1.3530       0.464840         2.0180
       2887.50        10.6800       115.1880        73.1880         1.0300         1.1000       0.456540         1.9930
       2888.00        11.7890       115.1880        73.1880         1.0310         0.8330       0.457520         1.9770
       2888.50        11.0700       115.1880        73.1880         1.0280         0.5990       0.462890         1.9890
       2889.00        10.9220       115.1880        73.1880         1.0230         0.5390       0.476560         2.0140
       2889.50        10.9300       115.1880        73.1880         1.0210         0.5740       0.489750         2.0610
       2890.00        10.9220       144.5000        73.1880         0.8600         0.6140       0.492190         2.0920
       2890.50        10.9060       138.5000        75.6250         0.8530         0.6820       0.474610         2.1270
       2891.00        10.9060       140.2500        70.3120         0.8270         0.7570       0.442870         2.1270
       2891.50        10.9060       144.1250        72.3120         0.8030         0.8410       0.430660         2.1070
       2892.00        10.9450       147.5000        74.3120         0.7660         0.9280       0.442870         2.0700
       2892.50        10.9450       152.8750        81.3750         0.7870         0.6780       0.473140         2.0490
       2893.00        10.9450       154.2500        77.5000         0.8070         0.7160       0.521000         2.0430
       2893.50        10.9450       153.1250        74.6250         0.7720         0.7450       0.490720         2.0390
       2894.00        10.9690       152.3750        71.1250         0.7380         0.7250       0.476560         2.0330
       2894.50        10.9920       151.3750        71.6250         0.7210         0.7600       0.449710         2.0410
       2895.00        10.9920       147.0000        71.6250         0.6980         0.7620       0.467770         2.0780
       2895.50        10.8200       145.0000        72.9380         0.6960         0.7820       0.476560         2.1170
       2896.00        10.8440       144.2500        77.2500         0.6960         0.8770       0.489750         2.1520
       2896.50        10.8520       143.6250        83.0000         0.6980         1.0120       0.498050         2.1520
       2897.00        10.8670       144.6250        82.3750         0.7010         0.9840       0.466800         2.1430
       2897.50        10.8670       144.8750        83.0000         0.7010         0.9700       0.437990         2.1350
       2898.00        10.8910       145.5000        80.0000         0.7000         0.9450       0.443360         2.1390
