~Version Information Block
VERS .                 2.00:  CWLS LOG ASCII STANDARD - VERSION 2.00
WRAP .                   NO:  One line per depth step
~Well Information Block
#MNEM.UNIT        Data Type   Information
#---------- ----------------  -----------
STRT .FT             890.00:  START DEPTH
STOP .FT            4968.50:  STOP DEPTH
STEP .FT               0.50:  STEP
NULL .              -999.25:  NULL VALUE
COMP .                     :  COMPANY
WELL .                 UO-1:  WELL
FLD  .                     :  FIELD
LOC  .                     :  LOCATION
CTRY .                     :  COUNTRY
STAT .                     :  STATE
CNTY .                     :  COUNTY
SRVC .                     :  SERVICE COMPANY
DATE .                     :  DATE
API  .                     :  API NUMBER
UWI  .                     :  UNIQUE WELL ID
~Curve Information Block
#MNEM.UNIT         API CODE   Curve Description
#---------- ----------------  -----------------
DEPTH.FT                   :  DEPTH CURVE
CALI .IN                   :  
DT   .US/F                 :  
GR   .GAPI                 :  
ILD  .OHMM                 :  
MSFL .OHMM                 :  
NPHI_LS.V/V                  :  
RHOB .G/C3                 :  
~Parameter Information Block
#MNEM.UNIT            Value   Description
#---------- ----------------  -----------
PROJECT.     petro@kponwjlx001:  
SET  .                 WIRE:  
~Other Information Block
# 
~A       DEPTH           CALI             DT             GR            ILD           MSFL        NPHI_LS           RHOB 
# ...
       3335.50        12.3590       125.1250        58.9380         1.1100         1.1330       0.390620         2.2600
       3336.00        12.3750       126.6880        62.2190         1.0690         1.1340       0.385740         2.2600
       3336.50        12.3830       126.5620        64.2500         1.0080         1.1050       0.374020         2.2660
       3337.00        12.3910       125.8120        65.0620         0.9420         1.0940       0.369140         2.2750
       3337.50        12.3590       125.8750        65.6250         0.9030         1.1460       0.369140         2.2700
       3338.00        12.3980       125.2500        68.3120         0.8830         1.1400       0.386230         2.2640
       3338.50        12.3440       126.0000        71.5620         0.8820         1.1490       0.382320         2.2500
       3339.00        12.3280       127.1250        71.3120         0.8880         1.1080       0.389650         2.2500
       3339.50        12.2340       127.3750        69.1880         0.8920         1.0280       0.381840         2.2440
       3340.00        12.1950       127.5000        67.3120         0.8950         1.0920       0.390620         2.2500
       3340.50        12.3120       127.1250        68.6250         0.8920         1.0950       0.377440         2.2440
       3341.00        12.3050       127.1250        67.3120         0.8880         1.1050       0.389650         2.2440
       3341.50        12.3360       127.5000        69.3750         0.8820         1.0900       0.383790         2.2380
       3342.00        12.3980       127.1250        69.1250         0.8730         1.0990       0.393070         2.2540
       3342.50        12.3830       126.6250        71.4380         0.8660         1.1430       0.375490         2.2620
       3343.00        12.3750       126.5000        69.8120         0.8640         1.1850       0.378910         2.2700
       3343.50        12.3910       125.8750        66.6880         0.8620         1.2090       0.395020         2.2680
       3344.00        12.3520       126.3750        67.3120         0.8580         1.1480       0.403320         2.2620
       3344.50        12.3590       125.7500        67.4380         0.8540         1.1700       0.405270         2.2680
       3345.00        12.2580       125.5000        70.0620         0.8460         1.2040       0.385250         2.2620
       3345.50        12.2190       124.6250        65.3750         0.8360         1.0790       0.394040         2.2600
       3346.00        12.2190       125.1250        64.8750         0.8290         1.1280       0.379390         2.2560
       3346.50        12.2110       124.8750        66.4380         0.8310         1.1670       0.386230         2.2600
       3347.00        12.2420       123.1880        68.7500         0.8510         1.1450       0.375980         2.2770
       3347.50        12.2110       123.0620        67.2500         0.8990         1.1840       0.399410         2.2910
       3348.00        12.2270       116.2500        63.0310         0.9960         1.2710       0.402830         2.2830
       3348.50        12.2810       109.5620        56.2810         1.1650         1.2540       0.376460         2.3320
       3349.00        12.3200        94.1250        46.4690         1.3900         1.3750       0.304690         2.2830
       3349.50        12.1170        82.6250        34.0620         1.7990         5.2150       0.232910         2.3320
       3350.00        11.9770        73.2500        26.0780         2.3590        37.0420       0.199710         2.4140
       3350.50        11.9770        65.7500        25.1090         2.9840        51.2710       0.188960         2.5450
       3351.00        12.0390        73.2500        27.0940         4.6480        75.6770       0.171880         2.6110
       3351.50        12.0230        65.7500        33.0000         7.5270        32.7140       0.154300         2.6170
       3352.00        11.9450        65.6880        35.9690         8.9300        44.6820       0.160160         2.6460
       3352.50        11.9220        67.0000        41.4380         7.6910        12.4380       0.179690         2.6410
       3353.00        11.9220        71.5000        46.1250         5.3630         8.9580       0.218750         2.5880
       3353.50        11.9530        79.6880        50.4380         3.9450         4.3950       0.267090         2.4960
       3354.00        11.9220        95.6250        51.4690         3.0120         2.1210       0.297360         2.3980
       3354.50        11.9300       101.4380        52.8120         2.3710         1.8170       0.320310         2.3280
       3355.00        11.9300       110.6250        51.8750         1.9760         1.6330       0.327150         2.2660
       3355.50        12.0000       115.1880        53.4380         1.6710         1.6060       0.353030         2.2290
       3356.00        12.0940       115.9380        57.2500         1.4810         1.6750       0.357420         2.2150
       3356.50        12.1410       118.1250        62.4380         1.3940         1.7900       0.353030         2.2150
       3357.00        12.1560       118.1880        63.8120         1.3510         1.5270       0.326170         2.2400
       3357.50        12.1560       120.5620        58.8750         1.3070         1.5770       0.333500         2.2620
       3358.00        12.1640       119.6880        58.0310         1.2370         1.6890       0.338870         2.2680
       3358.50        12.2030       121.8120        61.0310         1.1820         1.7430       0.359860         2.2460
       3359.00        12.2730       117.2500        63.7190         1.1180         1.8980       0.379880         2.2340
       3359.50        12.2810       116.1250        63.5310         1.0870         1.7660       0.403810         2.2480
       3360.00        12.2810       128.8750        63.1880         1.1010         1.3980       0.412600         2.2710
       3360.50        12.3590       128.8750        63.7190         1.1300         1.2390       0.405760         2.2730
       3361.00        12.3050       124.2500        63.4060         1.1510         1.2030       0.376950         2.2750
       3361.50        12.1560       116.1250        61.6560         1.1570         1.6170       0.370120         2.2830
       3362.00        12.2030       110.6250        61.1250         1.1580         1.9160       0.334470         2.2830
       3362.50        12.3830       110.5000        58.8120         1.1850         1.9480       0.329100         2.2850
       3363.00        12.5470       113.0620        60.7810         1.2710         2.0900       0.341800         2.2950
       3363.50        12.5550       115.1250        62.2810         1.3800         2.0400       0.362790         2.2970
       3364.00        12.5550       116.3120        69.1250         1.4840         1.8620       0.377440         2.2950
       3364.50        12.5550       115.5000        67.8750         1.5470         2.0890       0.369630         2.2930
       3365.00        12.5550       112.7500        66.8120         1.5670         2.2780       0.349610         2.2870
       3365.50        12.5230       112.1880        64.4380         1.5540         2.2640       0.337400         2.2870
       3366.00        12.5390       111.9380        66.9380         1.5370         2.1930       0.327640         2.2910
       3366.50        12.5940       111.8750        68.6880         1.5370         2.1710       0.346680         2.2930
       3367.00        12.6020       112.6250        70.0000         1.5310         2.3110       0.356930         2.2930
       3367.50        12.5550       114.3120        67.8750         1.5100         2.1730       0.353030         2.2830
       3368.00        12.5550       116.8750        70.1880         1.4810         2.0510       0.377930         2.2910
       3368.50        12.5550       118.8750        68.7500         1.4440         1.9000       0.385740         2.2850
