~Version Information Block
VERS .                 2.00:  CWLS LOG ASCII STANDARD - VERSION 2.00
WRAP .                   NO:  One line per depth step
~Well Information Block
#MNEM.UNIT        Data Type   Information
#---------- ----------------  -----------
STRT .FT             890.00:  START DEPTH
STOP .FT            4968.50:  STOP DEPTH
STEP .FT               0.50:  STEP
NULL .              -999.25:  NULL VALUE
COMP .                     :  COMPANY
WELL .                 UO-1:  WELL
FLD  .                     :  FIELD
LOC  .                     :  LOCATION
CTRY .                     :  COUNTRY
STAT .                     :  STATE
CNTY .                     :  COUNTY
SRVC .                     :  SERVICE COMPANY
DATE .                     :  DATE
API  .                     :  API NUMBER
UWI  .                     :  UNIQUE WELL ID
~Curve Information Block
#MNEM.UNIT         API CODE   Curve Description
#---------- ----------------  -----------------
DEPTH.FT                   :  DEPTH CURVE
CALI .IN                   :  
DT   .US/F                 :  
GR   .GAPI                 :  
ILD  .OHMM                 :  
MSFL .OHMM                 :  
NPHI_LS.V/V                  :  
RHOB .G/C3                 :  
~Parameter Information Block
#MNEM.UNIT            Value   Description
#---------- ----------------  -----------
PROJECT.     petro@kponwjlx001:  
SET  .                 WIRE:  
~Other Information Block
# 
~A       DEPTH           CALI             DT             GR            ILD           MSFL        NPHI_LS           RHOB 
# ...
       3536.50        12.5470       124.3750        67.3750         0.8300         1.3630       0.383300         2.2730
       3537.00        12.5470       121.2500        69.6250         0.8980         1.3700       0.392580         2.2950
       3537.50        12.6020       117.6250        68.8120         0.9750         1.3810       0.380370         2.2950
       3538.00        12.5860       115.7500        68.0620         1.0540         1.7600       0.361820         2.2970
       3538.50        12.5780       114.1250        66.2500         1.0980         1.7570       0.355470         2.3010
       3539.00        12.5700       116.6250        62.9690         1.1300         1.7270       0.371090         2.3110
       3539.50        12.5860       118.6250        62.0310         1.1510         1.6630       0.372560         2.3090
       3540.00        12.5860       119.5000        62.2810         1.1600         1.7060       0.374020         2.3070
       3540.50        12.5700       120.1250        66.4380         1.1580         1.6070       0.390140         2.2950
       3541.00        12.5470       121.0000        63.0620         1.1390         1.4600       0.398930         2.2910
       3541.50        12.5860       120.3750        60.3120         1.1120         1.4490       0.385740         2.2890
       3542.00        12.6480       116.2500        57.9060         1.0780         1.4720       0.362790         2.2870
       3542.50        12.5160       121.0000        60.9380         1.0440         1.4500       0.367190         2.2870
       3543.00        12.5160       121.8750        66.5000         1.0260         1.4110       0.369140         2.2730
       3543.50        12.3830       122.6250        68.4380         1.0140         1.2990       0.366210         2.2810
       3544.00        12.3910       123.0000        67.1250         1.0050         1.2640       0.367190         2.2660
       3544.50        12.3830       122.2500        64.8750         0.9980         1.2510       0.375000         2.2710
       3545.00        12.3590       123.3750        62.0940         0.9880         1.2660       0.391600         2.2680
       3545.50        12.5620       121.6250        63.3440         0.9760         1.3270       0.412600         2.2890
       3546.00        12.5550       121.3750        61.8440         0.9730         1.2860       0.444820         2.2990
       3546.50        12.5550       121.8750        63.4060         0.9750         1.2850       0.468260         2.3010
       3547.00        12.6950       122.8750        62.9060         0.9720         1.2150       0.460940         2.2930
       3547.50        12.6090       123.3750        65.3120         0.9660         1.2440       0.437010         2.2870
       3548.00        12.5550       123.3750        65.8750         0.9540         1.1930       0.411620         2.2710
       3548.50        12.4060       124.0000        65.4380         0.9380         1.2870       0.388180         2.2710
       3549.00        12.3750       123.8750        64.3750         0.9160         1.2570       0.380860         2.2750
       3549.50        12.4220       124.0000        65.5000         0.8990         1.2200       0.380860         2.2890
       3550.00        12.2500       129.5000        67.0620         0.8850         1.1660       0.414550         2.2770
       3550.50        12.0550       126.1250        71.5000         0.8680         1.1100       0.422360         2.2640
       3551.00        12.1800       127.1250        72.3750         0.8530         1.1160       0.452640         2.2600
       3551.50        11.9450       124.6250        72.2500         0.8380         1.0720       0.429690         2.2440
       3552.00        11.8360       129.3750        68.8120         0.8220         1.0650       0.440920         2.2520
       3552.50        11.6800       127.1250        68.9380         0.8150         0.9650       0.425780         2.2360
       3553.00        11.3360       127.1250        70.3120         0.8230         0.9620       0.444820         2.2480
       3553.50        11.3520       127.8750        68.7500         0.8790         0.9130       0.431150         2.2340
       3554.00        11.1640       126.5000        65.1250         0.9560         0.9500       0.416020         2.2420
       3554.50        11.0230       117.8750        60.5310         1.0880         0.8840       0.397950         2.2050
       3555.00        10.6090       104.5620        56.8750         1.2640         0.7420       0.371580         2.1720
       3555.50         9.8750        90.5000        50.9060         1.3850         0.7270       0.338380         2.1560
       3556.00         9.6640        87.1250        50.7810         1.4470         0.6740       0.299320         2.1560
       3556.50         9.7110        95.0000        51.3750         1.5040         0.6970       0.293950         2.1700
       3557.00         9.8830       103.1880        53.5000         1.5530         0.7210       0.306640         2.1540
       3557.50        10.0620       112.3120        51.0940         1.5290         0.7360       0.338870         2.1460
       3558.00        10.1410       113.1880        53.3120         1.4340         0.7310       0.356930         2.1290
       3558.50        10.1480       114.8120        53.5000         1.2800         0.8050       0.346190         2.1230
       3559.00        10.2810       115.3750        52.3750         1.1160         0.8650       0.326170         2.0940
       3559.50        10.6800       116.8750        49.1560         0.9850         0.8880       0.313480         2.0640
       3560.00        10.8830       116.0000        47.1560         0.8980         0.8850       0.329590         2.0490
       3560.50        11.1250       116.2500        45.5940         0.8520         0.8700       0.341310         2.0880
       3561.00        11.4610       116.8750        46.0620         0.8190         1.0300       0.357420         2.1190
       3561.50        11.5230       114.8750        47.3440         0.8040         0.9860       0.352540         2.1330
       3562.00        11.6800       114.6250        49.4060         0.7950         0.9440       0.353520         2.1410
       3562.50        11.8200       114.0000        49.4060         0.7910         1.0630       0.344240         2.1460
       3563.00        11.8670       113.1250        48.7500         0.8000         1.0000       0.354980         2.1560
       3563.50        11.8670       112.2500        50.0620         0.8050         1.0920       0.367680         2.1620
       3564.00        11.8670       111.3750        50.8120         0.8160         1.0060       0.369630         2.1620
       3564.50        11.8590       111.3750        53.5310         0.8480         1.1710       0.368160         2.1720
       3565.00        11.8670       111.7500        54.7190         0.8810         1.1730       0.357910         2.1700
       3565.50        11.8280       112.8750        55.6880         0.9180         1.3340       0.356930         2.1930
       3566.00        11.8280       115.3750        60.6880         0.9670         1.5420       0.354000         2.2250
       3566.50        11.8280       118.7500        63.9060         1.0080         1.5320       0.372560         2.2580
       3567.00        11.8590       120.2500        69.5000         1.0440         1.5180       0.380860         2.2790
       3567.50        11.8830       117.8750        68.0000         1.0720         1.5770       0.392580         2.2830
       3568.00        11.9220       114.7500        64.6880         1.0830         1.5890       0.375490         2.2930
       3568.50        11.9140       112.5000        56.4690         1.0560         1.5480       0.382810         2.2810
       3569.00        11.9140       111.0000        49.8750         1.0210         1.6460       0.364750         2.2460
       3569.50        11.9220       111.0000        46.5310         0.9980         1.2970       0.368160         2.1860
