~Version Information Block
VERS .                 2.00:  CWLS LOG ASCII STANDARD - VERSION 2.00
WRAP .                   NO:  One line per depth step
~Well Information Block
#MNEM.UNIT        Data Type   Information
#---------- ----------------  -----------
STRT .FT             890.00:  START DEPTH
STOP .FT            4968.50:  STOP DEPTH
STEP .FT               0.50:  STEP
NULL .              -999.25:  NULL VALUE
COMP .                     :  COMPANY
WELL .                 UO-1:  WELL
FLD  .                     :  FIELD
LOC  .                     :  LOCATION
CTRY .                     :  COUNTRY
STAT .                     :  STATE
CNTY .                     :  COUNTY
SRVC .                     :  SERVICE COMPANY
DATE .                     :  DATE
API  .                     :  API NUMBER
UWI  .                     :  UNIQUE WELL ID
~Curve Information Block
#MNEM.UNIT         API CODE   Curve Description
#---------- ----------------  -----------------
DEPTH.FT                   :  DEPTH CURVE
CALI .IN                   :  
DT   .US/F                 :  
GR   .GAPI                 :  
ILD  .OHMM                 :  
MSFL .OHMM                 :  
NPHI_LS.V/V                  :  
RHOB .G/C3                 :  
~Parameter Information Block
#MNEM.UNIT            Value   Description
#---------- ----------------  -----------
PROJECT.     petro@kponwjlx001:  
SET  .                 WIRE:  
~Other Information Block
# 
~A       DEPTH           CALI             DT             GR            ILD           MSFL        NPHI_LS           RHOB 
# ...
       1928.50      -999.2500      -999.2500        36.1450      -999.2500      -999.2500       0.508300         2.1860
       1929.00      -999.2500      -999.2500        37.3840      -999.2500      -999.2500       0.508300         2.1860
       1929.50      -999.2500      -999.2500        38.5420      -999.2500      -999.2500       0.508300         2.1860
       1930.00      -999.2500      -999.2500        39.2400      -999.2500      -999.2500       0.508300         2.1860
       1930.50      -999.2500      -999.2500        38.2150      -999.2500      -999.2500       0.508300         2.1860
       1931.00      -999.2500      -999.2500        36.7670      -999.2500      -999.2500       0.508300         2.1860
       1931.50      -999.2500      -999.2500        35.5080      -999.2500      -999.2500       0.508300         2.1860
       1932.00      -999.2500      -999.2500        34.7470      -999.2500      -999.2500       0.508300         2.1860
       1932.50      -999.2500      -999.2500        34.3640      -999.2500      -999.2500       0.508300         2.1860
       1933.00      -999.2500      -999.2500        34.4140      -999.2500      -999.2500       0.508300         2.1860
       1933.50      -999.2500      -999.2500        34.6190      -999.2500      -999.2500       0.508300         2.1860
       1934.00      -999.2500      -999.2500        34.8130      -999.2500      -999.2500       0.508300         2.1860
       1934.50      -999.2500      -999.2500        35.5810      -999.2500      -999.2500       0.508300         2.1860
       1935.00      -999.2500      -999.2500        36.5870      -999.2500      -999.2500       0.508300         2.1860
       1935.50      -999.2500      -999.2500        36.9890      -999.2500      -999.2500       0.508300         2.1860
       1936.00      -999.2500      -999.2500        35.7320      -999.2500      -999.2500       0.508300         2.1860
       1936.50      -999.2500      -999.2500        33.2220      -999.2500      -999.2500       0.508300         2.1860
       1937.00      -999.2500      -999.2500        31.7060      -999.2500      -999.2500       0.508300         2.1860
       1937.50      -999.2500      -999.2500        32.2620      -999.2500      -999.2500       0.508300         2.1860
       1938.00      -999.2500      -999.2500        33.9590      -999.2500      -999.2500       0.508300         2.1860
       1938.50      -999.2500      -999.2500        34.7870      -999.2500      -999.2500       0.508300         2.1860
       1939.00      -999.2500      -999.2500        33.5690      -999.2500      -999.2500       0.508300         2.1860
       1939.50      -999.2500      -999.2500        31.9480      -999.2500      -999.2500       0.508300         2.1860
       1940.00      -999.2500      -999.2500        30.6990      -999.2500      -999.2500       0.508300         2.1860
       1940.50      -999.2500      -999.2500        30.5770      -999.2500      -999.2500       0.508300         2.1860
       1941.00      -999.2500      -999.2500        30.3070      -999.2500      -999.2500       0.508300         2.1860
       1941.50      -999.2500      -999.2500        29.5770      -999.2500      -999.2500       0.508300         2.1860
       1942.00      -999.2500      -999.2500        28.2070      -999.2500      -999.2500       0.508300         2.1860
       1942.50      -999.2500      -999.2500        29.1390      -999.2500      -999.2500       0.508300         2.1860
       1943.00      -999.2500      -999.2500        30.2660      -999.2500      -999.2500       0.508300         2.1860
       1943.50      -999.2500      -999.2500        31.4940      -999.2500      -999.2500       0.508300         2.1860
       1944.00      -999.2500      -999.2500        31.7600      -999.2500      -999.2500       0.508300         2.1860
       1944.50      -999.2500      -999.2500        31.4160      -999.2500      -999.2500       0.508300         2.1860
       1945.00      -999.2500      -999.2500        30.7500      -999.2500      -999.2500       0.508300         2.1860
       1945.50      -999.2500      -999.2500        30.5620      -999.2500      -999.2500       0.508300         2.1860
       1946.00      -999.2500      -999.2500        29.4090      -999.2500      -999.2500       0.508300         2.1860
       1946.50      -999.2500      -999.2500        27.9170      -999.2500      -999.2500       0.508300         2.1860
       1947.00      -999.2500      -999.2500        27.7470      -999.2500      -999.2500       0.508300         2.1860
       1947.50      -999.2500      -999.2500        27.8530      -999.2500      -999.2500       0.508300         2.1860
       1948.00      -999.2500      -999.2500        29.2350      -999.2500      -999.2500       0.508300         2.1860
       1948.50      -999.2500      -999.2500        30.0700      -999.2500      -999.2500       0.508300         2.1860
       1949.00      -999.2500      -999.2500        31.5820      -999.2500      -999.2500       0.508300         2.1860
       1949.50      -999.2500      -999.2500        33.1900      -999.2500      -999.2500       0.508300         2.1860
       1950.00      -999.2500      -999.2500        33.3800      -999.2500      -999.2500       0.508300         2.1860
       1950.50      -999.2500      -999.2500        33.1800      -999.2500      -999.2500       0.508300         2.1860
       1951.00      -999.2500      -999.2500        31.7400      -999.2500      -999.2500       0.508300         2.1860
       1951.50      -999.2500      -999.2500        31.3540      -999.2500      -999.2500       0.508300         2.1860
       1952.00        12.5700        73.1250        32.6040      2000.0000         3.6410       0.508300         2.1860
       1952.50        12.7030       127.7500        36.1950      2000.0000         0.1910       0.470700         2.0760
       1953.00        12.8750       155.5000        40.9100      2000.0000         0.3840       0.464360         1.9660
       1953.50        12.9530       167.5000        45.9500      2000.0000         1.1150       0.479000         1.8390
       1954.00        12.8590       180.6250        48.6440      2000.0000         0.6880       0.497560         1.7980
       1954.50        12.8670       187.7500        49.4090      2000.0000         0.6670       0.483890         1.8340
       1955.00        12.9610       170.2500        49.6050         0.7500         0.6860       0.468750         1.9140
       1955.50        12.8440       164.2500        49.0120         0.4030         0.7630       0.465330         1.9700
       1956.00        12.8670       157.6250        47.6860         0.3840         0.7770       0.497070         1.9770
       1956.50        12.8440       158.7500        46.7710         0.3910         0.8060       0.488770         1.9730
       1957.00        12.7030       160.0000        47.2300         0.4600         0.8010       0.480470         1.9650
       1957.50        12.5940       161.1250        48.3980         0.5580         0.7580       0.449220         1.9610
       1958.00        12.5550       161.6250        49.8120         0.5360         0.8010       0.475100         1.9540
       1958.50        12.5390       162.1250        51.7270         0.5260         0.7950       0.485350         1.9480
       1959.00        12.5000       164.5000        55.5760         0.5200         0.7680       0.489260         1.9450
       1959.50        12.4920       167.8750        58.1120         0.5140         0.7180       0.486820         1.9450
       1960.00        12.4920       169.0000        59.4380         0.5040         0.7250       0.482420         1.9460
       1960.50        12.4920       169.1250        59.3120         0.4790         0.7320       0.499510         1.9420
       1961.00        12.5000       171.0000        57.1250         0.4880         0.7170       0.459470         1.9390
       1961.50        12.5080       172.6250        54.8750         0.5140         0.7000       0.451170         1.9420
