~Version Information Block
VERS .                 2.00:  CWLS LOG ASCII STANDARD - VERSION 2.00
WRAP .                   NO:  One line per depth step
~Well Information Block
#MNEM.UNIT        Data Type   Information
#---------- ----------------  -----------
STRT .FT             890.00:  START DEPTH
STOP .FT            4968.50:  STOP DEPTH
STEP .FT               0.50:  STEP
NULL .              -999.25:  NULL VALUE
COMP .                     :  COMPANY
WELL .                 UO-1:  WELL
FLD  .                     :  FIELD
LOC  .                     :  LOCATION
CTRY .                     :  COUNTRY
STAT .                     :  STATE
CNTY .                     :  COUNTY
SRVC .                     :  SERVICE COMPANY
DATE .                     :  DATE
API  .                     :  API NUMBER
UWI  .                     :  UNIQUE WELL ID
~Curve Information Block
#MNEM.UNIT         API CODE   Curve Description
#---------- ----------------  -----------------
DEPTH.FT                   :  DEPTH CURVE
CALI .IN                   :  
DT   .US/F                 :  
GR   .GAPI                 :  
ILD  .OHMM                 :  
MSFL .OHMM                 :  
NPHI_LS.V/V                  :  
RHOB .G/C3                 :  
~Parameter Information Block
#MNEM.UNIT            Value   Description
#---------- ----------------  -----------
PROJECT.     petro@kponwjlx001:  
SET  .                 WIRE:  
~Other Information Block
# 
~A       DEPTH           CALI             DT             GR            ILD           MSFL        NPHI_LS           RHOB 
# ...
       4541.50        11.8200        96.3750        46.0310         2.7340         4.6670       0.208010         2.3930
       4542.00        11.8360       100.0000        49.1250         2.5980         3.3860       0.216800         2.3890
       4542.50        11.9140       100.3750        52.7810         2.3690         2.2890       0.247560         2.3890
       4543.00        11.8750        99.7500        55.0620         2.1580         2.2710       0.283200         2.3930
       4543.50        11.8200       100.0000        58.5310         1.9370         2.5230       0.309080         2.4040
       4544.00        11.7340        99.7500        57.9690         1.7710         2.5170       0.316410         2.4120
       4544.50        11.7970        99.0000        56.4690         1.6130         2.2980       0.312010         2.4180
       4545.00        11.7660        95.2500        55.9690         1.6370         2.3320       0.304200         2.4390
       4545.50        11.7890        89.1250        54.3750         1.7710         2.2690       0.289060         2.4470
       4546.00        11.6330        86.3750        50.9380         1.8280         2.0900       0.245610         2.4590
       4546.50        11.5620        81.3750        46.4380         1.8480         2.3880       0.206050         2.4730
       4547.00        11.6480        84.7500        45.5310         1.8560         4.7260       0.182620         2.5000
       4547.50        11.6410        92.0000        47.3750         1.8340         3.5740       0.207030         2.4900
       4548.00        11.4610        98.8750        51.7500         1.8200         2.2060       0.250000         2.4510
       4548.50        11.7270       105.1250        55.1250         1.8160         1.7830       0.272460         2.3980
       4549.00        11.7340       104.7500        59.0940         1.8280         1.8730       0.286620         2.3770
       4549.50        11.5700       102.1250        57.6880         1.7680         2.0880       0.290040         2.3730
       4550.00        11.4220       105.5000        58.1250         1.6700         1.7610       0.307620         2.3710
       4550.50        11.1950       104.0000        55.0000         1.5320         1.4330       0.323240         2.3670
       4551.00        11.0470       104.5000        56.3750         1.3980         1.2450       0.318850         2.3610
       4551.50        11.0080       104.0000        54.2500         1.3260         0.8950       0.315430         2.3630
       4552.00        10.8280       103.2500        60.4380         1.2810         0.9160       0.312010         2.3420
       4552.50        10.5700       103.2500        62.8440         1.3030         1.0080       0.298830         2.3120
       4553.00         8.9060       103.5000        66.8120         1.3170         1.0400       0.300780         2.2950
       4553.50         9.6330       103.0000        67.1250         1.3300         1.3450       0.287110         2.3090
       4554.00        10.3440       101.8750        64.6880         1.3460         1.3770       0.292480         2.3400
       4554.50        10.3360       103.1250        60.1880         1.3480         1.5310       0.280760         2.3420
       4555.00        10.3440       106.5000        54.7190         1.3180         1.5870       0.272460         2.3300
       4555.50        10.4530       109.3750        53.7810         1.3030         1.4500       0.261230         2.2910
       4556.00        10.9690       108.8750        54.8750         1.3070         1.4330       0.259280         2.2620
       4556.50        11.5620       108.7500        54.4690         1.3130         1.4280       0.278810         2.2950
       4557.00        11.8200       108.2500        53.1250         1.3400         1.5090       0.297850         2.3110
       4557.50        11.8360       107.7500        50.2190         1.3690         1.5730       0.304690         2.3220
       4558.00        11.7810       107.0000        49.5620         1.3790         1.5720       0.304690         2.3050
       4558.50        11.6950       106.8750        49.1250         1.3350         1.5540       0.300780         2.3140
       4559.00        11.7970       106.0000        50.5000         1.3270         1.6450       0.301760         2.3220
       4559.50        12.0390       106.2500        52.0000         1.2830         1.6700       0.299320         2.3300
       4560.00        12.1170       105.2500        52.9380         1.2710         1.7990       0.290040         2.3320
       4560.50        12.1250       106.0000        55.2810         1.2770         1.8480       0.293950         2.3360
       4561.00        12.1330       106.0000        54.5310         1.3030         1.7060       0.284670         2.3340
       4561.50        12.1640       105.7500        54.2190         1.3480         1.6920       0.279790         2.3320
       4562.00        12.1880       106.2500        54.5940         1.4440         1.8310       0.265140         2.3460
       4562.50        12.1880       105.6250        56.5620         1.4800         1.9390       0.257810         2.3610
       4563.00        11.9770       104.6250        57.7810         1.5090         2.0000       0.262700         2.3750
       4563.50        11.8280       104.1250        57.0310         1.5260         2.0150       0.262210         2.3850
       4564.00        11.9220       104.6250        54.0620         1.5340         1.9010       0.271970         2.3830
       4564.50        11.9770       105.0000        53.5310         1.5810         1.8010       0.278320         2.3810
       4565.00        11.9920       104.5620        50.8750         1.5980         1.8440       0.284180         2.3770
       4565.50        12.2500       104.4380        52.1880         1.5780         1.9320       0.291500         2.3810
       4566.00        12.3200       104.4380        50.7190         1.5460         1.7900       0.285640         2.3810
       4566.50        12.3910       103.8750        51.3440         1.5060         1.8150       0.300780         2.3730
       4567.00        12.4530       103.1880        51.5000         1.3820         2.0260       0.293950         2.3750
       4567.50        12.4530       104.1880        54.3750         1.2300         2.1490       0.301270         2.3770
       4568.00        12.5160       104.9380        60.5310         1.0850         2.1810       0.302730         2.3870
       4568.50        12.4920       107.0000        63.6560         0.9240         1.5090       0.328120         2.3870
       4569.00        12.3590       110.0620        64.5000         0.7900         1.0080       0.361820         2.3870
       4569.50        12.3750       113.4380        64.1250         0.6950         1.0710       0.384770         2.3890
       4570.00        12.3910       116.4380        66.8120         0.6450         1.0580       0.392580         2.3890
       4570.50        12.3910       119.2500        68.2500         0.5910         1.0590       0.375980         2.3930
       4571.00        12.4610       119.0000        70.6880         0.5610         1.0550       0.366210         2.3890
       4571.50        12.4450       118.1250        71.8120         0.5490         1.0870       0.367680         2.3890
       4572.00        12.4060       117.3120        72.4380         0.5480         1.0790       0.379880         2.3910
       4572.50        12.4060       117.5620        70.5620         0.5570         1.2100       0.399410         2.4040
       4573.00        12.3980       116.8750        70.1250         0.5750         1.1950       0.408200         2.4040
       4573.50        12.3980       116.0000        69.6250         0.6000         1.1780       0.406250         2.4080
       4574.00        12.3980       115.9380        71.0000         0.6310         1.1840       0.384280         2.4040
       4574.50        12.3910       115.9380        67.0000         0.6550         1.1270       0.364750         2.4000
