~Version Information Block
VERS .                 2.00:  CWLS LOG ASCII STANDARD - VERSION 2.00
WRAP .                   NO:  One line per depth step
~Well Information Block
#MNEM.UNIT        Data Type   Information
#---------- ----------------  -----------
STRT .FT             890.00:  START DEPTH
STOP .FT            4968.50:  STOP DEPTH
STEP .FT               0.50:  STEP
NULL .              -999.25:  NULL VALUE
COMP .                     :  COMPANY
WELL .                 UO-1:  WELL
FLD  .                     :  FIELD
LOC  .                     :  LOCATION
CTRY .                     :  COUNTRY
STAT .                     :  STATE
CNTY .                     :  COUNTY
SRVC .                     :  SERVICE COMPANY
DATE .                     :  DATE
API  .                     :  API NUMBER
UWI  .                     :  UNIQUE WELL ID
~Curve Information Block
#MNEM.UNIT         API CODE   Curve Description
#---------- ----------------  -----------------
DEPTH.FT                   :  DEPTH CURVE
CALI .IN                   :  
DT   .US/F                 :  
GR   .GAPI                 :  
ILD  .OHMM                 :  
MSFL .OHMM                 :  
NPHI_LS.V/V                  :  
RHOB .G/C3                 :  
~Parameter Information Block
#MNEM.UNIT            Value   Description
#---------- ----------------  -----------
PROJECT.     petro@kponwjlx001:  
SET  .                 WIRE:  
~Other Information Block
# 
~A       DEPTH           CALI             DT             GR            ILD           MSFL        NPHI_LS           RHOB 
# ...
       2531.50        11.9920       148.2500        66.2500         0.7530         0.9580       0.431640         2.1250
       2532.00        11.9530       149.5000        67.2500         0.7430         0.9450       0.435060         2.1230
       2532.50        11.9840       151.2500        65.3120         0.7370         0.9160       0.445310         2.1110
       2533.00        12.0080       152.1250        63.3750         0.7330         0.8740       0.424320         2.1130
       2533.50        12.0780       152.6250        62.8750         0.7310         0.8900       0.426270         2.1090
       2534.00        12.1020       152.7500        61.9690         0.7260         0.9660       0.431640         2.1210
       2534.50        12.0390       151.2500        63.0000         0.7210         0.9420       0.452640         2.1270
       2535.00        11.9840       151.3750        63.6560         0.7130         0.9050       0.444820         2.1370
       2535.50        11.9840       151.7500        63.5310         0.7050         0.9160       0.446290         2.1270
       2536.00        12.0700       151.5000        66.1250         0.6960         0.9100       0.450200         2.1130
       2536.50        12.0700       151.8750        67.8750         0.6880         0.9110       0.468260         2.1070
       2537.00        12.0390       151.3750        70.1880         0.6790         0.9080       0.465330         2.1050
       2537.50        12.0390       151.6250        67.7500         0.6730         0.9350       0.461430         2.1090
       2538.00        12.0780       151.2500        66.7500         0.6680         0.9590       0.452640         2.1040
       2538.50        12.0780       151.7500        66.5000         0.6650         0.9470       0.469730         2.1110
       2539.00        12.1020       151.1250        66.8120         0.6630         0.9390       0.442870         2.1150
       2539.50        12.1480       149.2500        65.6250         0.6600         0.8920       0.438480         2.1250
       2540.00        12.1480       151.3750        66.7500         0.6560         0.9390       0.418950         2.1330
       2540.50        12.1950       145.1250        70.0000         0.6580         0.9310       0.448240         2.1250
       2541.00        12.3120       147.3750        70.0000         0.6620         0.9320       0.445800         2.1190
       2541.50        12.0470       145.5000        68.1250         0.6670         0.9450       0.446290         2.1270
       2542.00        12.0470       142.0000        63.1250         0.6830         0.9580       0.429690         2.1370
       2542.50        12.0390       138.1250        63.6250         0.7100         0.9510       0.424320         2.1350
       2543.00        11.9770       147.2500        62.2500         0.7560         0.9730       0.426270         2.1250
       2543.50        11.9770       149.3750        61.1880         0.8250         1.0010       0.439450         2.1130
       2544.00        12.0000       146.5000        58.5620         0.8790         0.9740       0.426760         2.1210
       2544.50        12.0550       148.5000        55.3120         0.9010         1.1800       0.388180         2.1520
       2545.00        12.0080       140.8750        55.5310         0.8920         2.4190       0.384770         2.1740
       2545.50        11.8280       144.2500        57.7190         0.8820         2.1050       0.416020         2.1560
       2546.00        11.5860       155.5000        61.8120         0.8760         1.0080       0.465820         2.1130
       2546.50        11.4450       156.1250        65.2500         0.8720         0.8570       0.470700         2.0720
       2547.00        11.3520       160.0000        64.2500         0.8390         0.9110       0.456540         2.0310
       2547.50        11.5550       160.5000        64.4380         0.7790         0.8500       0.453120         1.9960
       2548.00        11.7970       159.2500        63.8120         0.7050         0.9810       0.458010         2.0100
       2548.50        11.8360       157.1250        61.8440         0.6680         0.7700       0.480960         2.0700
       2549.00        11.8360       160.0000        60.9060         0.6470         0.7150       0.473140         2.0980
       2549.50        11.8360       160.2500        61.9060         0.6390         0.7910       0.461910         2.0900
       2550.00        11.9300       160.8750        66.1250         0.6380         0.7760       0.452640         2.0780
       2550.50        11.9770       161.6250        67.8120         0.6380         0.7770       0.464360         2.0800
       2551.00        11.9920       162.1250        66.5620         0.6360         0.8190       0.476070         2.0840
       2551.50        12.0390       162.7500        65.2500         0.6350         0.8670       0.475100         2.0760
       2552.00        12.0550       162.3750        66.3750         0.6300         0.8490       0.462890         2.0720
       2552.50        12.0470       162.0000        65.3750         0.6290         0.8300       0.458500         2.0700
       2553.00        12.0550       160.2500        64.6250         0.6260         0.8010       0.452640         2.0720
       2553.50        12.0860       158.8750        63.6880         0.6260         0.8120       0.428220         2.0660
       2554.00        12.0860       159.1250        63.2810         0.6330         0.8450       0.417480         2.0620
       2554.50        11.9840       160.1250        61.4380         0.6420         0.7710       0.415530         2.0620
       2555.00        11.9840       162.3750        57.8440         0.6510         0.7500       0.445310         2.0620
       2555.50        11.9770       157.6250        57.9380         0.6590         0.7680       0.460940         2.0780
       2556.00        12.0160       151.8750        60.9060         0.6780         0.9030       0.460450         2.0820
       2556.50        12.0700       150.5000        63.6250         0.7010         0.8080       0.459960         2.0760
       2557.00        12.0780       152.0000        63.5000         0.7490         0.8330       0.465330         2.0640
       2557.50        12.1250       157.0000        60.3750         0.7970         0.7960       0.449220         2.0570
       2558.00        12.2190       153.3750        58.8120         0.8320         0.8970       0.440430         2.0610
       2558.50        12.3750       149.2500        54.9060         0.8470         1.0540       0.413090         2.0760
       2559.00        12.5780       154.7500        55.7500         0.8610         1.0120       0.435550         2.1000
       2559.50        12.7190       155.0000        55.9060         0.8760         0.9100       0.429200         2.0980
       2560.00        12.3830       144.5000        58.3120         0.8960         0.9240       0.426760         2.1020
       2560.50        12.4140       143.6250        55.4690         0.8980         0.8710       0.424320         2.0800
       2561.00        12.4380       145.7500        56.3440         0.8720         0.8980       0.439940         2.1270
       2561.50        12.4920       150.2500        59.1560         0.8420         0.9160       0.455080         2.1250
       2562.00        12.5620       141.7500        61.5310         0.8230         0.8380       0.447270         2.1480
       2562.50        12.3910       142.2500        61.5310         0.8070         0.9600       0.424320         2.1450
       2563.00        12.3520       141.0000        60.9380         0.8000         1.0310       0.415040         2.1500
       2563.50        12.2890       142.2500        62.5310         0.7950         1.0380       0.423340         2.1430
       2564.00        12.3520       142.8750        62.9060         0.7930         1.0160       0.442380         2.1210
       2564.50        12.3360       146.5000        61.9690         0.7920         0.9600       0.441410         2.0940
