~Version Information Block
VERS .                 2.00:  CWLS LOG ASCII STANDARD - VERSION 2.00
WRAP .                   NO:  One line per depth step
~Well Information Block
#MNEM.UNIT        Data Type   Information
#---------- ----------------  -----------
STRT .FT             890.00:  START DEPTH
STOP .FT            4968.50:  STOP DEPTH
STEP .FT               0.50:  STEP
NULL .              -999.25:  NULL VALUE
COMP .                     :  COMPANY
WELL .                 UO-1:  WELL
FLD  .                     :  FIELD
LOC  .                     :  LOCATION
CTRY .                     :  COUNTRY
STAT .                     :  STATE
CNTY .                     :  COUNTY
SRVC .                     :  SERVICE COMPANY
DATE .                     :  DATE
API  .                     :  API NUMBER
UWI  .                     :  UNIQUE WELL ID
~Curve Information Block
#MNEM.UNIT         API CODE   Curve Description
#---------- ----------------  -----------------
DEPTH.FT                   :  DEPTH CURVE
CALI .IN                   :  
DT   .US/F                 :  
GR   .GAPI                 :  
ILD  .OHMM                 :  
MSFL .OHMM                 :  
NPHI_LS.V/V                  :  
RHOB .G/C3                 :  
~Parameter Information Block
#MNEM.UNIT            Value   Description
#---------- ----------------  -----------
PROJECT.     petro@kponwjlx001:  
SET  .                 WIRE:  
~Other Information Block
# 
~A       DEPTH           CALI             DT             GR            ILD           MSFL        NPHI_LS           RHOB 
# ...
       2732.50        12.8830       153.3750        67.1250         0.6390         0.8600       0.459960         2.1310
       2733.00        12.8750       154.8750        65.5620         0.6450         0.8510       0.460450         2.1330
       2733.50        12.8750       156.0000        62.0620         0.6490         0.8970       0.474610         2.1170
       2734.00        12.8750       156.2500        63.9690         0.6530         0.8920       0.472170         2.1110
       2734.50        12.8120       157.8750        66.6880         0.6570         0.8760       0.483890         2.1020
       2735.00        12.8120       158.1250        68.6880         0.6590         0.8250       0.476070         2.1150
       2735.50        12.7270       157.6250        67.0000         0.6610         0.8150       0.475100         2.1170
       2736.00        12.6880       160.0000        67.0000         0.6630         0.8460       0.483890         2.1090
       2736.50        12.6020       161.6250        65.3120         0.6660         0.8770       0.497560         2.1000
       2737.00        12.6950       162.1250        64.9380         0.6830         0.9190       0.490720         2.0900
       2737.50        12.8520       161.1250        61.3750         0.7100         0.8400       0.474610         2.0960
       2738.00        12.9920       157.7500        60.5310         0.7480         0.8460       0.481450         2.1110
       2738.50        13.0080       148.0000        55.5310         0.8060         0.8670       0.473140         2.1330
       2739.00        13.0080       140.2500        48.4690         0.8600         0.9450       0.448730         2.1390
       2739.50        13.0000       134.3750        48.0310         0.8750         1.3620       0.416020         2.1410
       2740.00        13.0000       135.0000        51.8120         0.8890         1.8570       0.400880         2.1410
       2740.50        13.0000       141.6250        63.0940         0.9100         1.4790       0.406250         2.1500
       2741.00        13.0080       145.1250        65.5000         0.9310         1.1140       0.387210         2.1680
       2741.50        13.0000       148.1250        69.1250         0.9530         1.0820       0.396970         2.1640
       2742.00        13.0080       148.3750        67.1250         0.9350         1.0230       0.417480         2.1620
       2742.50        13.0080       149.6250        68.4380         0.8930         1.0660       0.443360         2.1520
       2743.00        12.9920       147.6250        68.9380         0.8500         1.0790       0.452150         2.1480
       2743.50        12.9300       147.8750        69.8120         0.8220         1.0810       0.432130         2.1480
       2744.00        12.9220       147.5000        71.5620         0.8060         1.0670       0.418950         2.1430
       2744.50        12.9300       145.6250        72.6880         0.8050         1.0240       0.426270         2.1450
       2745.00        12.9220       146.6250        73.5620         0.8090         0.9980       0.440430         2.1390
       2745.50        12.9220       147.1250        70.6250         0.8130         1.0220       0.430660         2.1390
       2746.00        12.9060       147.2500        66.0620         0.8120         0.9950       0.430180         2.1350
       2746.50        12.8910       147.1250        64.2500         0.8090         1.0250       0.419920         2.1410
       2747.00        12.9920       146.1250        66.3120         0.8010         0.9970       0.421390         2.1480
       2747.50        12.8980       147.5000        68.8750         0.7930         1.0120       0.438480         2.1430
       2748.00        12.8590       148.6250        69.2500         0.7880         1.0210       0.455570         2.1350
       2748.50        12.8670       149.6250        68.3750         0.7850         0.9910       0.476070         2.1330
       2749.00        12.8590       150.6250        68.8120         0.7790         1.0010       0.439940         2.1390
       2749.50        12.8590       149.8750        68.9380         0.7780         1.0020       0.430180         2.1430
       2750.00        12.8590       149.0000        68.7500         0.7720         1.0590       0.425290         2.1480
       2750.50        12.8590       148.2500        67.6250         0.7690         1.0440       0.433590         2.1540
       2751.00        12.8910       148.1250        66.3750         0.7660         1.0070       0.440920         2.1580
       2751.50        12.8830       148.6250        67.3120         0.7610         1.0270       0.452640         2.1580
       2752.00        12.8910       149.1250        64.3750         0.7550         1.0290       0.456540         2.1520
       2752.50        12.8750       149.6250        64.8750         0.7510         1.0220       0.449710         2.1520
       2753.00        12.8750       150.2500        66.5000         0.7450         0.9710       0.438960         2.1540
       2753.50        12.8910       150.8750        70.8120         0.7390         0.9530       0.442380         2.1520
       2754.00        12.9060       151.1250        71.8120         0.7370         0.9500       0.440430         2.1450
       2754.50        12.8830       151.5000        67.2500         0.7320         0.9960       0.432620         2.1390
       2755.00        12.8750       150.6250        64.7500         0.7280         0.9480       0.440430         2.1390
       2755.50        12.8520       150.0000        64.1250         0.7280         0.9450       0.455080         2.1450
       2756.00        12.6950       150.5000        66.9380         0.7260         0.9530       0.468260         2.1430
       2756.50        12.6950       150.3750        68.4380         0.7290         0.9470       0.458500         2.1410
       2757.00        12.7270       150.8750        67.2500         0.7290         0.9710       0.452150         2.1410
       2757.50        12.7580       150.1250        66.8120         0.7320         0.9800       0.441890         2.1460
       2758.00        12.8590       150.0000        68.2500         0.7340         0.9780       0.444820         2.1500
       2758.50        12.8830       149.8750        68.1880         0.7330         0.9800       0.471190         2.1480
       2759.00        12.8910       150.7500        67.2500         0.7310         0.9760       0.477540         2.1390
       2759.50        12.8910       151.7500        69.1880         0.7290         0.9260       0.480470         2.1350
       2760.00        12.8910       151.0000        67.3120         0.7260         0.8910       0.455080         2.1290
       2760.50        12.8750       151.2500        65.3750         0.7230         0.9060       0.449710         2.1390
       2761.00        12.8590       150.6250        61.4380         0.7200         0.9040       0.454100         2.1350
       2761.50        12.8520       150.5000        66.1250         0.7170         0.8720       0.451170         2.1370
       2762.00        12.7340       151.3750        68.5620         0.7150         0.8510       0.455080         2.1310
       2762.50        12.7270       151.7500        69.2500         0.7140         0.8380       0.445310         2.1310
       2763.00        12.6950       151.8750        65.6250         0.7130         0.8440       0.435060         2.1230
       2763.50        12.6800       151.7500        67.1250         0.7120         0.8880       0.427730         2.1110
       2764.00        12.6560       151.0000        68.0620         0.7120         0.9510       0.433110         2.1090
       2764.50        12.6250       151.3750        73.1250         0.7120         0.9100       0.437010         2.1250
       2765.00        12.6250       152.3750        70.3750         0.7120         0.8280       0.425780         2.1350
       2765.50        12.6560       151.8750        67.7500         0.7120         0.8110       0.426760         2.1390
