~Version Information Block
VERS .                 2.00:  CWLS LOG ASCII STANDARD - VERSION 2.00
WRAP .                   NO:  One line per depth step
~Well Information Block
#MNEM.UNIT        Data Type   Information
#---------- ----------------  -----------
STRT .FT             890.00:  START DEPTH
STOP .FT            4968.50:  STOP DEPTH
STEP .FT               0.50:  STEP
NULL .              -999.25:  NULL VALUE
COMP .                     :  COMPANY
WELL .                 UO-1:  WELL
FLD  .                     :  FIELD
LOC  .                     :  LOCATION
CTRY .                     :  COUNTRY
STAT .                     :  STATE
CNTY .                     :  COUNTY
SRVC .                     :  SERVICE COMPANY
DATE .                     :  DATE
API  .                     :  API NUMBER
UWI  .                     :  UNIQUE WELL ID
~Curve Information Block
#MNEM.UNIT         API CODE   Curve Description
#---------- ----------------  -----------------
DEPTH.FT                   :  DEPTH CURVE
CALI .IN                   :  
DT   .US/F                 :  
GR   .GAPI                 :  
ILD  .OHMM                 :  
MSFL .OHMM                 :  
NPHI_LS.V/V                  :  
RHOB .G/C3                 :  
~Parameter Information Block
#MNEM.UNIT            Value   Description
#---------- ----------------  -----------
PROJECT.     petro@kponwjlx001:  
SET  .                 WIRE:  
~Other Information Block
# 
~A       DEPTH           CALI             DT             GR            ILD           MSFL        NPHI_LS           RHOB 
# ...
       3938.50        12.5000       127.5000        68.8120         0.6900         0.7550       0.400880         2.2300
       3939.00        12.4300       127.3750        68.4380         0.6760         0.8390       0.401370         2.2380
       3939.50        12.5230       128.8750        66.0620         0.6610         0.8120       0.434570         2.2030
       3940.00        12.4530       127.3750        65.2500         0.6500         0.8510       0.426760         2.2110
       3940.50        12.3590       128.7500        62.5620         0.6460         0.8190       0.447270         2.2110
       3941.00        12.3980       128.3750        63.5940         0.6450         0.8870       0.425780         2.2190
       3941.50        12.2970       127.1250        67.0000         0.6460         0.9270       0.438960         2.2320
       3942.00        12.4840       126.7500        73.1250         0.6490         0.9190       0.422850         2.2400
       3942.50        12.5080       125.3750        73.1880         0.6520         0.8990       0.416500         2.2580
       3943.00        12.4610       124.6880        71.2500         0.6520         0.9100       0.402830         2.2460
       3943.50        12.3750       126.0000        70.3750         0.6520         0.9070       0.406250         2.2380
       3944.00        12.2970       125.3120        70.3750         0.6670         0.9280       0.407230         2.2270
       3944.50        12.1410       126.6880        68.6880         0.6920         0.8730       0.426760         2.2360
       3945.00        12.1800       123.6250        65.1880         0.7470         0.9270       0.425780         2.2480
       3945.50        12.3520       112.0620        57.5940         0.8580         0.9460       0.446290         2.2870
       3946.00        12.3520       100.7500        50.4690         1.0290         1.1050       0.364260         2.3690
       3946.50        12.3910        85.0000        40.5000         1.2020         2.9330       0.289060         2.4750
       3947.00        12.4450        75.2500        37.1560         1.4000        25.5260       0.201660         2.5530
       3947.50        12.4840        73.5620        33.9690         1.6260        12.1250       0.184080         2.5370
       3948.00        12.2810        79.3120        38.6880         1.7410         5.9080       0.198240         2.4980
       3948.50        12.2660        91.5620        43.1560         1.7750         6.6990       0.241700         2.4260
       3949.00        12.2500       104.4380        53.4690         1.7140         2.2230       0.306150         2.3380
       3949.50        12.2970       113.0000        59.1880         1.5300         1.0790       0.386720         2.2730
       3950.00        12.2580       120.6250        66.5000         1.3290         1.0680       0.400390         2.2270
       3950.50        12.1480       122.6250        69.0000         1.1130         1.0750       0.391600         2.2290
       3951.00        12.1880       120.3120        70.1250         0.9330         0.9910       0.376460         2.2210
       3951.50        12.1950       122.2500        69.1880         0.8350         1.0040       0.392090         2.2420
       3952.00        12.1880       123.3750        67.5000         0.7920         1.0570       0.423340         2.2420
       3952.50        12.1880       123.0000        67.9380         0.7760         0.9650       0.424320         2.2420
       3953.00        12.2110       122.6250        66.1880         0.7770         1.0430       0.421390         2.2400
       3953.50        12.2660       122.2500        64.3120         0.7860         1.0120       0.399410         2.2340
       3954.00        12.2660       122.0000        63.4380         0.7950         1.0800       0.397460         2.2190
       3954.50        12.3120       122.2500        64.0620         0.7960         1.0730       0.391600         2.2130
       3955.00        12.3440       122.6250        65.0000         0.7980         0.9480       0.398930         2.2270
       3955.50        12.4060       123.1250        65.2500         0.7980         0.9490       0.391600         2.2540
       3956.00        12.4220       122.8750        65.5620         0.7980         0.8930       0.403810         2.2300
       3956.50        12.5160       122.7500        66.6250         0.7940         1.0090       0.412110         2.2380
       3957.00        12.6720       122.7500        65.3120         0.7950         0.9140       0.406250         2.2520
       3957.50        13.0000       122.3750        65.8750         0.7980         1.0130       0.403320         2.2520
       3958.00        13.5080       122.7500        63.5940         0.8010         0.9530       0.413090         2.2420
       3958.50        12.8670       122.3750        65.5620         0.8070         1.0440       0.409670         2.2290
       3959.00        12.8980       121.3750        61.0000         0.8060         0.9490       0.419430         2.2380
       3959.50        13.0160       122.2500        60.4380         0.8090         0.8590       0.396480         2.2360
       3960.00        12.8910       122.2500        59.5310         0.8100         0.9850       0.404300         2.2300
       3960.50        12.9530       122.0000        62.8120         0.8100         1.0120       0.402830         2.2290
       3961.00        13.0940       123.2500        64.0620         0.8020         0.9980       0.397460         2.2250
       3961.50        13.1880       122.3120        64.8750         0.7970         0.9560       0.402340         2.2290
       3962.00        13.1480       121.9380        65.0000         0.8060         0.9410       0.390140         2.2130
       3962.50        12.9450       122.3750        64.3120         0.8320         1.0300       0.418950         2.2210
       3963.00        13.0470       122.1250        62.0000         0.8940         1.0070       0.412600         2.2250
       3963.50        12.8050       115.9380        58.2500         0.9710         0.9330       0.430180         2.2620
       3964.00        12.4380       108.0000        53.2500         1.0400         1.0580       0.391600         2.3200
       3964.50        12.3590       100.1250        49.2190         1.0640         1.4960       0.345210         2.3870
       3965.00        12.3670       100.7500        51.1250         1.0560         5.8410       0.300780         2.4040
       3965.50        12.3670       108.8750        58.2190         1.0580         3.9390       0.333010         2.3460
       3966.00        12.4140       113.3750        65.8750         1.0630         1.0620       0.389160         2.2750
       3966.50        12.6410       119.9380        70.1250         1.0850         0.9580       0.435060         2.2420
       3967.00        12.6950       120.6250        71.5000         1.0660         0.9930       0.418460         2.2440
       3967.50        12.9140       121.3120        71.0620         0.9830         0.9900       0.412110         2.2580
       3968.00        12.6720       120.5000        71.3750         0.9150         1.0590       0.400390         2.2660
       3968.50        12.6800       121.2500        69.8120         0.8740         1.1120       0.413090         2.2620
       3969.00        13.0230       120.1250        68.5000         0.8520         1.0350       0.420410         2.2480
       3969.50        12.7110       119.7500        65.6880         0.8500         1.0230       0.404790         2.2580
       3970.00        12.6410       119.6250        66.5000         0.8630         1.1070       0.398440         2.2600
       3970.50        12.8360       119.7500        65.9380         0.8800         1.0980       0.382320         2.2750
       3971.00        12.6560       119.8750        67.9380         0.8880         1.0560       0.382810         2.2680
       3971.50        12.7660       119.0000        65.7500         0.8950         0.9810       0.388670         2.2520
