~Version Information Block
VERS .                 2.00:  CWLS LOG ASCII STANDARD - VERSION 2.00
WRAP .                   NO:  One line per depth step
~Well Information Block
#MNEM.UNIT        Data Type   Information
#---------- ----------------  -----------
STRT .FT             890.00:  START DEPTH
STOP .FT            4968.50:  STOP DEPTH
STEP .FT               0.50:  STEP
NULL .              -999.25:  NULL VALUE
COMP .                     :  COMPANY
WELL .                 UO-1:  WELL
FLD  .                     :  FIELD
LOC  .                     :  LOCATION
CTRY .                     :  COUNTRY
STAT .                     :  STATE
CNTY .                     :  COUNTY
SRVC .                     :  SERVICE COMPANY
DATE .                     :  DATE
API  .                     :  API NUMBER
UWI  .                     :  UNIQUE WELL ID
~Curve Information Block
#MNEM.UNIT         API CODE   Curve Description
#---------- ----------------  -----------------
DEPTH.FT                   :  DEPTH CURVE
CALI .IN                   :  
DT   .US/F                 :  
GR   .GAPI                 :  
ILD  .OHMM                 :  
MSFL .OHMM                 :  
NPHI_LS.V/V                  :  
RHOB .G/C3                 :  
~Parameter Information Block
#MNEM.UNIT            Value   Description
#---------- ----------------  -----------
PROJECT.     petro@kponwjlx001:  
SET  .                 WIRE:  
~Other Information Block
# 
~A       DEPTH           CALI             DT             GR            ILD           MSFL        NPHI_LS           RHOB 
# ...
       4340.50        12.5230       106.9380        59.8750         1.0660         1.6790       0.387700         2.3770
       4341.00        12.5470       106.9380        59.8120         1.0670         1.8700       0.380860         2.3850
       4341.50        12.5230       106.9380        59.7190         1.0670         1.8620       0.384280         2.3810
       4342.00        12.4920       106.0620        58.5000         1.0700         1.7570       0.391110         2.3790
       4342.50        12.4840       107.6250        57.4060         1.0680         1.6860       0.405270         2.3710
       4343.00        12.3910       107.0620        55.9060         1.0580         1.6710       0.405270         2.3810
       4343.50        12.4530       108.3750        53.8120         1.0560         1.8050       0.419430         2.3850
       4344.00        12.4530       108.8120        53.4380         1.0640         2.1180       0.400880         2.3910
       4344.50        12.4920       108.3750        55.0310         1.0910         2.0600       0.388670         2.3890
       4345.00        12.4770       107.8120        55.2810         1.1250         1.7340       0.389650         2.3870
       4345.50        12.3910       105.0000        55.0620         1.1780         1.7610       0.400390         2.3950
       4346.00        12.3440       102.5000        53.8120         1.2630         1.8390       0.393070         2.4020
       4346.50        12.2340       102.8120        49.9690         1.3010         2.1500       0.379880         2.4100
       4347.00        12.1800       103.8120        45.9690         1.3210         5.0700       0.364260         2.3960
       4347.50        12.0860       104.5000        45.8440         1.3010         7.2470       0.357910         2.3950
       4348.00        12.0230       105.2500        50.7190         1.2970         4.1100       0.349610         2.3890
       4348.50        11.9060       104.0000        55.8750         1.3050         1.5420       0.376950         2.3960
       4349.00        11.7970        98.8750        56.0000         1.3190         1.4060       0.373050         2.4120
       4349.50        11.5470        93.8750        57.1560         1.3490         1.3990       0.373540         2.4430
       4350.00        10.3750        96.5000        57.4380         1.3580         1.2760       0.349120         2.4300
       4350.50         9.8360        99.1880        62.7190         1.3160         0.5760       0.378420         2.3770
       4351.00         8.5230       102.0620        60.3120         1.2900         0.6940       0.393070         2.3460
       4351.50         8.1480       104.5620        63.4380         1.2520         0.7010       0.394040         2.3540
       4352.00         8.1480       103.7500        61.3120         1.1890         0.6730       0.366210         2.3520
       4352.50         8.1560       102.6250        64.6250         1.1380         0.6530       0.341310         2.3240
       4353.00         8.1480       102.6880        65.1250         1.1130         0.3980       0.321290         2.2850
       4353.50         8.1640       104.1880        64.8120         1.0870         0.3960       0.324710         2.2620
       4354.00         8.2190       106.5000        63.8120         1.0650         0.5870       0.336910         2.2290
       4354.50         8.3910       110.0620        61.7500         1.0260         0.6350       0.351070         2.1620
       4355.00         8.6800       111.1250        64.6250         0.9740         0.6310       0.364750         2.0620
       4355.50         8.7890       111.0000        63.3750         0.9260         0.6320       0.370610         1.9890
       4356.00         8.7970       111.8120        63.2500         0.8910         0.6240       0.389160         1.9650
       4356.50         8.9610       112.5000        59.5620         0.8720         0.7100       0.364750         1.9810
       4357.00         9.2110       112.2500        57.9380         0.8650         0.7470       0.346190         2.0080
       4357.50         9.5390       110.3750        56.4690         0.8620         0.8520       0.325200         2.0410
       4358.00        10.4060       109.5620        57.7500         0.8540         0.8670       0.344240         2.0660
       4358.50        11.0230       109.6880        58.7810         0.8470         0.9060       0.353030         2.0980
       4359.00        11.1250       110.3750        60.8440         0.8740         1.0470       0.357910         2.1350
       4359.50        11.2190       112.2500        60.7810         0.8820         1.1130       0.363280         2.2090
       4360.00        11.3440       111.6250        60.4060         0.8830         1.1130       0.365230         2.2540
       4360.50        11.5470       111.2500        57.3750         0.8830         1.0690       0.362300         2.2710
       4361.00        11.6800       110.0000        57.4690         0.8840         1.2550       0.343260         2.2580
       4361.50        11.8050       108.6250        57.3440         0.9080         1.2690       0.350100         2.2790
       4362.00        11.8050       109.0000        56.6250         0.9490         1.1930       0.367680         2.2730
       4362.50        11.7970       110.1250        54.2500         0.9640         1.3350       0.371580         2.2580
       4363.00        11.7030       110.6250        53.6880         0.9710         1.3050       0.368160         2.2360
       4363.50        11.7030       109.6250        56.1560         0.9730         1.3300       0.339360         2.2440
       4364.00        11.7270       109.6250        53.7810         0.9780         1.3420       0.340330         2.2730
       4364.50        11.7810       109.2500        52.5940         0.9920         1.3650       0.347660         2.2890
       4365.00        11.8050       109.2500        51.2190         1.0030         1.3770       0.379880         2.2750
       4365.50        11.8200       109.6250        53.3750         1.0040         1.4240       0.379390         2.2600
       4366.00        11.8200       110.3750        56.5000         1.0050         1.3790       0.367190         2.2460
       4366.50        11.8360       110.6250        55.5620         1.0040         1.3500       0.351560         2.2460
       4367.00        11.8360       110.3750        55.9380         1.0090         1.3280       0.365230         2.2520
       4367.50        11.8360       111.1250        55.7810         1.0200         1.3300       0.374020         2.2480
       4368.00        11.8360       110.1250        57.9380         1.0210         1.3480       0.375000         2.2600
       4368.50        11.8360       110.5000        57.7190         1.0220         1.3780       0.355470         2.2660
       4369.00        11.8280       110.3750        55.6880         1.0240         1.4090       0.351070         2.2770
       4369.50        11.8200       110.8750        52.1880         1.0210         1.3400       0.350590         2.2890
       4370.00        11.7970       109.6250        52.9380         1.0210         1.3470       0.358890         2.2850
       4370.50        11.7890       109.6880        55.6250         1.0130         1.3460       0.360840         2.2830
       4371.00        11.7340       110.3750        57.2190         1.0130         1.3570       0.357420         2.2770
       4371.50        11.7110       110.3120        56.5310         1.0200         1.3210       0.362300         2.2750
       4372.00        11.7030       110.6880        53.0620         1.0320         1.3490       0.352050         2.2750
       4372.50        11.7030       110.1250        52.1560         1.0470         1.2850       0.355960         2.2810
       4373.00        11.7030       110.9380        51.1880         1.0650         1.3260       0.347660         2.2890
       4373.50        11.7030       110.4380        54.4690         1.0550         1.3060       0.339360         2.2770
