~Version Information Block
VERS .                 2.00:  CWLS LOG ASCII STANDARD - VERSION 2.00
WRAP .                   NO:  One line per depth step
~Well Information Block
#MNEM.UNIT        Data Type   Information
#---------- ----------------  -----------
STRT .FT             890.00:  START DEPTH
STOP .FT            4968.50:  STOP DEPTH
STEP .FT               0.50:  STEP
NULL .              -999.25:  NULL VALUE
COMP .                     :  COMPANY
WELL .                 UO-1:  WELL
FLD  .                     :  FIELD
LOC  .                     :  LOCATION
CTRY .                     :  COUNTRY
STAT .                     :  STATE
CNTY .                     :  COUNTY
SRVC .                     :  SERVICE COMPANY
DATE .                     :  DATE
API  .                     :  API NUMBER
UWI  .                     :  UNIQUE WELL ID
~Curve Information Block
#MNEM.UNIT         API CODE   Curve Description
#---------- ----------------  -----------------
DEPTH.FT                   :  DEPTH CURVE
CALI .IN                   :  
DT   .US/F                 :  
GR   .GAPI                 :  
ILD  .OHMM                 :  
MSFL .OHMM                 :  
NPHI_LS.V/V                  :  
RHOB .G/C3                 :  
~Parameter Information Block
#MNEM.UNIT            Value   Description
#---------- ----------------  -----------
PROJECT.     petro@kponwjlx001:  
SET  .                 WIRE:  
~Other Information Block
# 
~A       DEPTH           CALI             DT             GR            ILD           MSFL        NPHI_LS           RHOB 
# ...
       4139.50        12.2420       108.7500        56.3440         0.7090         1.3120       0.391600         2.2890
       4140.00        12.2420        99.0000        57.9380         0.7300         1.2400       0.390620         2.2910
       4140.50        12.2420        83.2500        58.4690         0.7700         1.2290       0.378910         2.3090
       4141.00        12.1330        76.2500        56.1560         0.8550         1.3520       0.340820         2.2910
       4141.50        12.1880        69.7500        51.5310         0.9400         2.0890       0.294430         2.3090
       4142.00        12.2580        99.0000        47.5310         1.1010         5.6020       0.225100         2.3360
       4142.50        12.2500        83.2500        40.8120         1.2790        20.2890       0.170900         2.3910
       4143.00        12.2500        76.2500        37.0000         1.5280        26.2190       0.146480         2.4570
       4143.50        12.1800        69.7500        35.5620         1.6650        23.4790       0.146000         2.5060
       4144.00        12.0780        60.5000        38.5310         1.6560        13.9450       0.181640         2.5100
       4144.50        11.5310        65.8750        39.8120         1.5880         9.7420       0.239260         2.4550
       4145.00        11.1480        78.2500        42.7190         1.4050         1.9700       0.291020         2.3500
       4145.50        11.1720        88.5000        45.0940         1.2010         1.1380       0.329590         2.2340
       4146.00        11.4840        98.2500        45.2500         1.0730         1.1280       0.324710         2.1620
       4146.50        11.1090       107.2500        46.8750         0.9660         1.0650       0.335940         2.1350
       4147.00        11.1170       107.5000        45.7190         0.8590         1.0540       0.329100         2.1460
       4147.50        11.3120       108.2500        45.5620         0.8220         1.0640       0.335450         2.1520
       4148.00        11.8280       110.2500        41.3750         0.8220         1.1130       0.322270         2.1540
       4148.50        11.8200       112.0000        43.4060         0.8540         1.1530       0.321780         2.1480
       4149.00        11.7970       112.6250        46.7190         0.9220         1.1210       0.322270         2.1450
       4149.50        11.8670       113.0000        51.6880         0.9340         1.2530       0.319340         2.1370
       4150.00        11.7660       111.2500        55.7500         0.9450         1.4330       0.308110         2.2460
       4150.50        11.5780       112.2500        58.4690         0.9560         1.3550       0.295410         2.2580
       4151.00        11.3440       112.6250        60.0310         0.9660         1.2710       0.289060         2.2480
       4151.50        11.2030       112.0000        59.6250         0.9780         1.1450       0.286620         2.2400
       4152.00        10.7810       111.0000        59.6250         0.9820         1.1170       0.303710         2.2500
       4152.50         9.7030       111.6250        59.7190         0.9710         1.1690       0.309080         2.2930
       4153.00         9.6880       112.7500        61.7500         0.9510         1.2130       0.316410         2.3010
       4153.50         9.9770       113.0000        61.5620         0.9280         1.1630       0.317870         2.2890
       4154.00        10.4140       113.0000        59.6250         0.9020         0.9760       0.310060         2.2770
       4154.50        10.6090       112.5000        57.6560         0.8820         1.0420       0.313960         2.2710
       4155.00        10.5940       113.2500        58.5620         0.8760         0.9880       0.301760         2.2810
       4155.50        10.3050       113.6250        60.8750         0.8770         0.8960       0.310550         2.2790
       4156.00         9.3200       114.0000        62.3440         0.8750         0.8490       0.302250         2.2850
       4156.50         9.1720       112.8750        60.7500         0.8730         0.8130       0.307620         2.2830
       4157.00         9.1720       113.2500        61.2190         0.8810         0.8560       0.296880         2.2750
       4157.50         9.3120       113.0000        62.9060         0.8860         0.8500       0.298830         2.2620
       4158.00         9.6480       112.7500        69.5620         0.8930         0.8340       0.293950         2.2600
       4158.50         9.7810       112.7500        72.4380         0.8980         0.7950       0.293950         2.2600
       4159.00         9.8120       112.3750        69.1880         0.9120         0.9110       0.288570         2.2830
       4159.50         9.8120       113.5000        66.1880         0.9130         0.9030       0.302250         2.3010
       4160.00        10.3360       114.5000        62.3750         0.9150         0.9770       0.313480         2.3220
       4160.50        11.1950       113.3750        62.8120         0.9250         1.0940       0.330080         2.3050
       4161.00        11.2500       113.2500        58.1880         0.9320         1.1130       0.323240         2.2810
       4161.50        11.2500       111.7500        57.1880         0.9280         1.0890       0.321290         2.2640
       4162.00        11.2660       112.7500        54.7810         0.9260         1.1050       0.318360         2.2560
       4162.50        11.2970       114.0000        55.0940         0.9270         1.1400       0.316410         2.2520
       4163.00        11.3360       115.0000        54.6250         0.9140         1.0700       0.320310         2.2600
       4163.50        11.3280       118.0000        55.9690         0.9010         0.9630       0.318850         2.2660
       4164.00        11.3280       117.7500        58.5310         0.9060         0.8900       0.323240         2.2700
       4164.50        11.3280       117.6250        58.8440         0.9060         0.9920       0.329100         2.2580
       4165.00        11.6250       117.5000        59.0620         0.9030         0.9650       0.355960         2.2420
       4165.50        11.7890       118.2500        57.4380         0.9090         0.8810       0.359380         2.2440
       4166.00        11.2970       117.2500        60.3440         0.9190         0.8470       0.355960         2.2400
       4166.50        11.3050       113.5000        59.7810         0.8990         0.9970       0.333010         2.2560
       4167.00        11.3050       111.7500        59.5940         0.8900         0.9890       0.329100         2.2480
       4167.50        11.3980       112.5000        57.6250         0.8910         0.8330       0.337400         2.2500
       4168.00        11.4530       116.7500        56.1560         0.8940         0.9700       0.342290         2.2420
       4168.50        11.5940       117.0000        55.2810         0.9230         0.9550       0.369630         2.2520
       4169.00        11.6170       112.5000        55.5310         0.9250         1.0480       0.364750         2.2600
       4169.50        11.6560       110.2500        56.2190         0.9280         1.0820       0.367190         2.2750
       4170.00        11.8590       109.0000        53.1250         0.9350         1.2940       0.351070         2.2950
       4170.50        12.0390       109.0000        49.5940         0.9400         1.3430       0.343750         2.3030
       4171.00        12.0780       110.0000        49.6560         0.9450         1.3670       0.341310         2.3110
       4171.50        12.0780       111.0000        52.8750         0.9510         1.3730       0.353030         2.3140
       4172.00        12.0780       114.3750        55.0000         0.9580         1.4000       0.344240         2.3200
       4172.50        12.1880       114.5000        57.0000         0.9640         1.4020       0.355960         2.3240
