~Version Information Block
VERS .                 2.00:  CWLS LOG ASCII STANDARD - VERSION 2.00
WRAP .                   NO:  One line per depth step
~Well Information Block
#MNEM.UNIT        Data Type   Information
#---------- ----------------  -----------
STRT .FT             890.00:  START DEPTH
STOP .FT            4968.50:  STOP DEPTH
STEP .FT               0.50:  STEP
NULL .              -999.25:  NULL VALUE
COMP .                     :  COMPANY
WELL .                 UO-1:  WELL
FLD  .                     :  FIELD
LOC  .                     :  LOCATION
CTRY .                     :  COUNTRY
STAT .                     :  STATE
CNTY .                     :  COUNTY
SRVC .                     :  SERVICE COMPANY
DATE .                     :  DATE
API  .                     :  API NUMBER
UWI  .                     :  UNIQUE WELL ID
~Curve Information Block
#MNEM.UNIT         API CODE   Curve Description
#---------- ----------------  -----------------
DEPTH.FT                   :  DEPTH CURVE
CALI .IN                   :  
DT   .US/F                 :  
GR   .GAPI                 :  
ILD  .OHMM                 :  
MSFL .OHMM                 :  
NPHI_LS.V/V                  :  
RHOB .G/C3                 :  
~Parameter Information Block
#MNEM.UNIT            Value   Description
#---------- ----------------  -----------
PROJECT.     petro@kponwjlx001:  
SET  .                 WIRE:  
~Other Information Block
# 
~A       DEPTH           CALI             DT             GR            ILD           MSFL        NPHI_LS           RHOB 
# ...
       2933.50        12.7030       140.6250        63.9060         0.8350         1.0960       0.410160         2.1480
       2934.00        12.7190       142.5000        64.1880         0.8700         1.1690       0.405760         2.1560
       2934.50        12.8200       140.3750        61.9690         0.8850         1.1620       0.407230         2.1600
       2935.00        12.7580       141.2500        62.1560         0.8840         1.2050       0.439450         2.1660
       2935.50        12.7730       137.2500        60.0940         0.8780         1.1850       0.431150         2.1540
       2936.00        12.8050       139.3750        62.2810         0.8750         1.1730       0.428220         2.1500
       2936.50        12.9060       137.0000        61.3750         0.8720         1.1870       0.392580         2.1500
       2937.00        13.0080       138.1250        62.5310         0.8700         1.1810       0.416020         2.1540
       2937.50        13.0080       140.1250        61.6250         0.8620         1.1460       0.424800         2.1580
       2938.00        13.0000       139.2500        62.6880         0.8560         1.1740       0.443850         2.1540
       2938.50        13.0000       137.1250        65.3750         0.8540         1.1350       0.442380         2.1500
       2939.00        12.9220       136.6250        66.3120         0.8520         1.1080       0.444340         2.1560
       2939.50        12.9920       136.7500        67.3120         0.8490         1.1110       0.427250         2.1580
       2940.00        12.8830       137.5000        63.1560         0.8420         1.0840       0.416020         2.1620
       2940.50        12.8050       139.5000        61.0940         0.8350         1.0990       0.417970         2.1540
       2941.00        12.8590       141.0000        60.2190         0.8310         1.0580       0.426270         2.1560
       2941.50        12.8590       141.6250        64.2500         0.8260         1.0540       0.410160         2.1640
       2942.00        12.7110       141.3750        63.9380         0.8230         1.1050       0.388670         2.1680
       2942.50        12.6950       139.8750        63.4690         0.8230         1.1500       0.391600         2.1680
       2943.00        12.5940       137.2500        61.2500         0.8210         1.1530       0.422850         2.1640
       2943.50        12.5940       137.2500        63.8120         0.8200         1.1450       0.429200         2.1640
       2944.00        12.5230       136.8750        62.2190         0.8200         1.1940       0.411130         2.1620
       2944.50        12.4220       139.3750        61.9060         0.8170         1.1370       0.380860         2.1620
       2945.00        12.4060       140.2500        63.8750         0.8090         1.1090       0.389160         2.1640
       2945.50        12.3830       140.2500        65.7500         0.8010         1.1150       0.411130         2.1660
       2946.00        12.2970       143.6250        64.6880         0.7920         1.1380       0.435550         2.1620
       2946.50        12.2970       143.2500        62.9690         0.7860         1.1430       0.437500         2.1520
       2947.00        12.3050       142.5000        64.5000         0.7820         1.1460       0.430180         2.1460
       2947.50        12.3750       143.5000        66.1250         0.7820         1.1020       0.439940         2.1500
       2948.00        12.3910       140.3750        69.2500         0.7800         1.0970       0.456050         2.1600
       2948.50        12.4530       140.3750        69.6880         0.7780         1.1030       0.466310         2.1600
       2949.00        12.5940       141.3750        69.8120         0.7790         1.0410       0.437990         2.1640
       2949.50        12.6330       140.1250        66.9380         0.7820         1.0100       0.419430         2.1660
       2950.00        12.7030       141.2500        64.1880         0.7850         1.0190       0.418950         2.1720
       2950.50        12.7580       140.1250        65.4380         0.7900         1.0390       0.450200         2.1720
       2951.00        12.8440       140.1250        66.2500         0.7920         1.0350       0.476070         2.1760
       2951.50        12.9690       140.5000        68.2500         0.7910         1.0590       0.466310         2.1890
       2952.00        13.0080       139.2500        67.6250         0.7900         1.0870       0.452640         2.1950
       2952.50        13.0000       139.8750        66.4380         0.7880         1.0530       0.436520         2.1910
       2953.00        13.0310       140.0000        67.8750         0.7810         1.0340       0.444820         2.1890
       2953.50        13.0620       139.7500        68.7500         0.7760         1.0740       0.435060         2.1840
       2954.00        13.1480       140.2500        70.0620         0.7680         1.1160       0.415530         2.1760
       2954.50        13.0310       140.5000        67.3750         0.7570         1.1270       0.405760         2.1720
       2955.00        13.1170       140.2500        65.6250         0.7500         1.0700       0.426760         2.1700
       2955.50        12.9920       139.0000        61.8750         0.7450         1.0460       0.443360         2.1740
       2956.00        13.0000       138.5000        61.3120         0.7340         0.9930       0.434570         2.1740
       2956.50        13.0000       137.6250        60.8750         0.7230         1.0380       0.412600         2.1780
       2957.00        12.8360       137.0000        61.0310         0.7140         1.0470       0.400880         2.1820
       2957.50        12.8590       138.7500        60.3440         0.7060         0.9350       0.402340         2.1740
       2958.00        12.7340       138.6250        62.8440         0.7020         0.9300       0.411620         2.1860
       2958.50        12.7580       139.6250        65.5000         0.7000         0.8990       0.434080         2.1890
       2959.00        12.9300       139.2500        65.5000         0.6920         0.9010       0.471680         2.1990
       2959.50        12.8910       139.5000        64.0000         0.6820         0.9670       0.457520         2.2090
       2960.00        12.8520       141.8750        63.5310         0.6720         0.8850       0.461430         2.2130
       2960.50        12.6800       142.0000        66.0000         0.6660         0.9010       0.433590         2.2070
       2961.00        12.5780       142.1250        66.3750         0.6590         0.9140       0.460940         2.1760
       2961.50        12.4060       143.0000        69.5000         0.6520         0.8740       0.457030         2.1660
       2962.00        12.4140       143.7500        67.5000         0.6470         0.8250       0.473140         2.1780
       2962.50        12.2030       145.8750        68.7500         0.6410         0.8320       0.471680         2.1780
       2963.00        12.0550       146.6250        66.6250         0.6340         0.8540       0.478030         2.1800
       2963.50        12.4380       147.3750        66.2500         0.6270         0.8690       0.450680         2.1780
       2964.00        12.3440       147.0000        67.4380         0.6190         0.8220       0.445310         2.1880
       2964.50        12.3590       146.2500        67.0620         0.6130         0.8800       0.429690         2.1840
       2965.00        12.3750       147.5000        67.0000         0.6140         0.8070       0.437990         2.1600
       2965.50        12.2580       147.0000        61.9690         0.6260         0.7870       0.447270         2.1450
       2966.00        12.2810       148.0000        62.7810         0.6640         0.8330       0.458010         2.1450
       2966.50        12.4920       144.2500        58.7810         0.7250         0.8670       0.458500         2.1620
