~Version Information Block
VERS .                 2.00:  CWLS LOG ASCII STANDARD - VERSION 2.00
WRAP .                   NO:  One line per depth step
~Well Information Block
#MNEM.UNIT        Data Type   Information
#---------- ----------------  -----------
STRT .FT             890.00:  START DEPTH
STOP .FT            4968.50:  STOP DEPTH
STEP .FT               0.50:  STEP
NULL .              -999.25:  NULL VALUE
COMP .                     :  COMPANY
WELL .                 UO-1:  WELL
FLD  .                     :  FIELD
LOC  .                     :  LOCATION
CTRY .                     :  COUNTRY
STAT .                     :  STATE
CNTY .                     :  COUNTY
SRVC .                     :  SERVICE COMPANY
DATE .                     :  DATE
API  .                     :  API NUMBER
UWI  .                     :  UNIQUE WELL ID
~Curve Information Block
#MNEM.UNIT         API CODE   Curve Description
#---------- ----------------  -----------------
DEPTH.FT                   :  DEPTH CURVE
CALI .IN                   :  
DT   .US/F                 :  
GR   .GAPI                 :  
ILD  .OHMM                 :  
MSFL .OHMM                 :  
NPHI_LS.V/V                  :  
RHOB .G/C3                 :  
~Parameter Information Block
#MNEM.UNIT            Value   Description
#---------- ----------------  -----------
PROJECT.     petro@kponwjlx001:  
SET  .                 WIRE:  
~Other Information Block
# 
~A       DEPTH           CALI             DT             GR            ILD           MSFL        NPHI_LS           RHOB 
# ...
       4943.50        11.2890       103.0620        19.8120         1.2310      2000.0000       0.305660         2.4320
       4944.00        11.2890       103.0620        19.8120         1.2220      2000.0000       0.305180         2.4300
       4944.50        11.2890       103.0620        19.8120         1.2260      2000.0000       0.305180         2.4180
       4945.00        11.2890       103.0620        19.8120         1.2320      2000.0000       0.305180         2.3930
       4945.50        11.2890       103.0620        19.8120         1.2490      2000.0000       0.305180         2.3890
       4946.00        11.2890       103.0620        19.8120         1.2360      2000.0000       0.305180         2.3870
       4946.50        11.2890       103.0620        19.8120         1.2210      2000.0000       0.305180         2.3910
       4947.00        11.2890       103.0620        19.8120         1.2020      2000.0000       0.305660         2.3910
       4947.50        11.2890       103.0620        19.8120         1.2020      2000.0000       0.305660         2.3750
       4948.00        11.2890       103.0620        19.8120         1.2220      2000.0000       0.305660         2.3830
       4948.50        11.2890       103.0620        19.8120         1.2360      2000.0000       0.305660         2.3790
       4949.00        11.2890       103.0620        19.8120         1.2540      2000.0000       0.305660         2.3850
       4949.50        11.2890       103.0620        19.8120         1.3100      2000.0000       0.305660         2.3690
       4950.00        11.2890       103.0620        19.8120         1.3430      2000.0000       0.307130         2.3670
       4950.50        11.2890       103.0620        19.8120         1.3440      2000.0000       0.307620         2.3400
       4951.00        11.2890       103.0620        19.8120         1.3450      2000.0000       0.309080         2.3380
       4951.50        11.2890       103.0620        19.8120         1.3450      2000.0000       0.310550         2.3140
       4952.00        11.2890       103.0620        19.8120         1.3440      2000.0000       0.312990         2.2890
       4952.50        11.2890       103.0620        19.8120         1.3420      2000.0000       0.314940         2.2460
       4953.00        11.2890       103.0620        19.8120         1.3440      2000.0000       0.318850         2.2270
       4953.50        11.2890       103.0620        19.8120         1.2680      2000.0000       0.320800         2.1930
       4954.00        11.2890       103.0620        19.8120         1.2710      2000.0000       0.326660         2.1660
       4954.50        11.2890       103.0620        19.8120         1.2690      2000.0000       0.334470         2.1090
       4955.00        11.2890       103.0620        19.8120         1.2680      2000.0000       0.339840         2.0780
       4955.50        11.2890       103.0620        19.8120         1.2670      2000.0000       0.342290         2.0620
       4956.00        11.2890       103.0620        19.8120         1.2630      2000.0000       0.344240         2.0410
       4956.50        11.2890       103.0620        19.8120         1.2640      2000.0000       0.344730         2.0230
       4957.00        11.2890       103.0620        19.8120         1.2630      2000.0000       0.344730         2.0080
       4957.50      -999.2500      -999.2500      -999.2500      -999.2500      -999.2500       0.344730         2.0080
       4958.00      -999.2500      -999.2500      -999.2500      -999.2500      -999.2500       0.344730         2.0080
       4958.50      -999.2500      -999.2500      -999.2500      -999.2500      -999.2500       0.344730         2.0080
       4959.00      -999.2500      -999.2500      -999.2500      -999.2500      -999.2500       0.344730         2.0080
       4959.50      -999.2500      -999.2500      -999.2500      -999.2500      -999.2500       0.344730         2.0080
       4960.00      -999.2500      -999.2500      -999.2500      -999.2500      -999.2500       0.344730         2.0080
       4960.50      -999.2500      -999.2500      -999.2500      -999.2500      -999.2500       0.344730         2.0080
       4961.00      -999.2500      -999.2500      -999.2500      -999.2500      -999.2500       0.344730         2.0080
       4961.50      -999.2500      -999.2500      -999.2500      -999.2500      -999.2500       0.344730         2.0080
       4962.00      -999.2500      -999.2500      -999.2500      -999.2500      -999.2500       0.344730         2.0080
       4962.50      -999.2500      -999.2500      -999.2500      -999.2500      -999.2500       0.344730         2.0080
       4963.00      -999.2500      -999.2500      -999.2500      -999.2500      -999.2500       0.344730         2.0080
       4963.50      -999.2500      -999.2500      -999.2500      -999.2500      -999.2500       0.344730         2.0080
       4964.00      -999.2500      -999.2500      -999.2500      -999.2500      -999.2500       0.344730         2.0080
       4964.50      -999.2500      -999.2500      -999.2500      -999.2500      -999.2500       0.344730         2.0080
       4965.00      -999.2500      -999.2500      -999.2500      -999.2500      -999.2500       0.344730         2.0080
       4965.50      -999.2500      -999.2500      -999.2500      -999.2500      -999.2500       0.344730         2.0080
       4966.00      -999.2500      -999.2500      -999.2500      -999.2500      -999.2500       0.344730         2.0080
       4966.50      -999.2500      -999.2500      -999.2500      -999.2500      -999.2500       0.344730         2.0080
       4967.00      -999.2500      -999.2500      -999.2500      -999.2500      -999.2500       0.344730         2.0080
       4967.50      -999.2500      -999.2500      -999.2500      -999.2500      -999.2500       0.344730         2.0080
       4968.00      -999.2500      -999.2500      -999.2500      -999.2500      -999.2500       0.344730         2.0080
       4968.50      -999.2500      -999.2500      -999.2500      -999.2500      -999.2500       0.344730         2.0080
