~Version Information Block
VERS .                 2.00:  CWLS LOG ASCII STANDARD - VERSION 2.00
WRAP .                   NO:  One line per depth step
~Well Information Block
#MNEM.UNIT        Data Type   Information
#---------- ----------------  -----------
STRT .FT             890.00:  START DEPTH
STOP .FT            4968.50:  STOP DEPTH
STEP .FT               0.50:  STEP
NULL .              -999.25:  NULL VALUE
COMP .                     :  COMPANY
WELL .                 UO-1:  WELL
FLD  .                     :  FIELD
LOC  .                     :  LOCATION
CTRY .                     :  COUNTRY
STAT .                     :  STATE
CNTY .                     :  COUNTY
SRVC .                     :  SERVICE COMPANY
DATE .                     :  DATE
API  .                     :  API NUMBER
UWI  .                     :  UNIQUE WELL ID
~Curve Information Block
#MNEM.UNIT         API CODE   Curve Description
#---------- ----------------  -----------------
DEPTH.FT                   :  DEPTH CURVE
CALI .IN                   :  
DT   .US/F                 :  
GR   .GAPI                 :  
ILD  .OHMM                 :  
MSFL .OHMM                 :  
NPHI_LS.V/V                  :  
RHOB .G/C3                 :  
~Parameter Information Block
#MNEM.UNIT            Value   Description
#---------- ----------------  -----------
PROJECT.     petro@kponwjlx001:  
SET  .                 WIRE:  
~Other Information Block
# 
~A       DEPTH           CALI             DT             GR            ILD           MSFL        NPHI_LS           RHOB 
# ...
       3134.50        12.4610       129.6250        59.4380         0.8810         1.1870       0.398440         2.2210
       3135.00        12.5230       128.1250        61.1560         0.8990         1.5080       0.394040         2.2230
       3135.50        12.5550       127.6250        63.0620         0.9160         1.5390       0.394040         2.2320
       3136.00        12.5550       129.5000        66.8750         0.9320         1.5360       0.406740         2.2320
       3136.50        12.5550       132.8750        72.1250         0.9470         1.3000       0.416990         2.2340
       3137.00        12.5940       134.2500        71.2500         0.9580         1.2170       0.415040         2.2250
       3137.50        12.6020       135.1250        75.5620         0.9540         1.2280       0.411130         2.2290
       3138.00        12.5390       135.6250        74.3750         0.9520         1.2050       0.427250         2.2230
       3138.50        12.4140       133.7500        74.0620         0.9650         1.1590       0.426760         2.2110
       3139.00        12.2890       130.5000        67.8120         1.0100         1.1270       0.432620         2.2110
       3139.50        12.0860       130.1250        60.0620         1.0860         1.1860       0.394530         2.2090
       3140.00        11.9840       122.4380        54.4060         1.2060         1.5190       0.385250         2.2130
       3140.50        12.0390       120.3750        50.6250         1.3260         1.6400       0.357420         2.1820
       3141.00        12.1020       119.3750        47.6250         1.5190         1.6950       0.359380         2.1520
       3141.50        12.1880       118.7500        45.3120         1.7490         1.8720       0.339360         2.1350
       3142.00        12.2810       115.7500        45.8750         1.9120         1.9210       0.337400         2.1480
       3142.50        12.3520       114.4380        48.5310         1.9710         2.0580       0.332520         2.1680
       3143.00        12.3520       116.4380        50.6880         1.9320         2.1110       0.325200         2.1840
       3143.50        12.3520       117.3120        51.8120         1.7950         2.1450       0.322750         2.1840
       3144.00        12.3830       118.6250        55.4380         1.6400         2.1290       0.325680         2.2110
       3144.50        12.3980       119.2500        58.5940         1.5600         1.8350       0.339360         2.2500
       3145.00        12.3830       117.2500        61.7190         1.4860         1.5470       0.335940         2.2850
       3145.50        12.3830       113.6880        57.8440         1.4280         1.6310       0.334960         2.2710
       3146.00        12.3910       111.8120        55.1880         1.3880         1.8730       0.338870         2.2380
       3146.50        12.3830       112.1250        52.5620         1.3440         1.7360       0.337890         2.2110
       3147.00        12.4530       113.0000        55.1250         1.3120         1.6180       0.345210         2.1970
       3147.50        12.5230       116.1880        59.5310         1.2830         1.8850       0.338870         2.2110
       3148.00        12.5470       121.2500        64.1250         1.2530         1.9650       0.359860         2.2270
       3148.50        12.5390       127.1880        65.6880         1.2150         1.7060       0.391600         2.2400
       3149.00        12.5550       131.7500        67.1880         1.1870         1.3020       0.416020         2.2320
       3149.50        12.5470       133.1250        62.2190         1.1550         1.2260       0.416500         2.2230
       3150.00        12.5620       131.2500        61.8120         1.1160         1.1710       0.401860         2.2270
       3150.50        12.6020       127.2500        57.6250         1.0760         1.3830       0.377930         2.2360
       3151.00        12.6170       123.8750        58.7810         1.0500         1.3880       0.374510         2.2480
       3151.50        12.6640       121.1250        57.0940         1.0340         1.4100       0.347660         2.2540
       3152.00        12.6880       122.0000        58.0620         1.0390         1.3460       0.364750         2.2580
       3152.50        12.6950       122.2500        56.8750         1.0460         1.3960       0.366210         2.2580
       3153.00        12.7030       126.8750        57.8120         1.0490         1.3280       0.392580         2.2620
       3153.50        12.7190       123.8750        57.1880         1.0410         1.3140       0.380370         2.2620
       3154.00        12.7340       124.5000        59.0310         1.0280         1.2430       0.389650         2.2620
       3154.50        12.7580       125.6250        56.3440         1.0030         1.2740       0.397950         2.2560
       3155.00        12.7810       126.6250        54.9690         0.9740         1.2980       0.403320         2.2480
       3155.50        12.8200       128.1250        57.3440         0.9510         1.2200       0.409670         2.2360
       3156.00        12.8200       129.7500        64.3750         0.9320         1.1070       0.413090         2.2300
       3156.50        12.8440       130.5000        66.4380         0.9180         1.0900       0.421880         2.2340
       3157.00        12.8200       133.2500        62.3120         0.9110         1.1680       0.411620         2.2420
       3157.50        12.8360       127.6250        60.0940         0.9110         1.1370       0.395510         2.2500
       3158.00        12.8590       128.1250        58.8120         0.9160         1.2280       0.390140         2.2540
       3158.50        12.8590       126.3750        59.3750         0.9370         1.2250       0.387210         2.2540
       3159.00        12.8280       123.1880        56.2500         0.9710         1.2370       0.398930         2.2560
       3159.50        12.8280       121.2500        54.7810         1.0080         1.2500       0.382320         2.2520
       3160.00        12.8440       116.6880        52.2500         1.0410         1.3780       0.373540         2.2580
       3160.50        12.8590       116.4380        51.1880         1.0720         1.4410       0.329100         2.2660
       3161.00        12.8910       116.0000        50.6880         1.1040         1.4270       0.315920         2.2710
       3161.50        12.8980       116.0000        52.3750         1.1350         1.4350       0.312990         2.2770
       3162.00        12.8980       116.3120        53.8440         1.1700         1.4310       0.336430         2.2700
       3162.50        12.8910       115.6880        54.7810         1.1890         1.3540       0.360840         2.2810
       3163.00        12.9300       118.6880        57.7500         1.1920         1.4450       0.364750         2.2750
       3163.50        12.9920       117.6250        55.0620         1.1900         1.3850       0.345210         2.2870
       3164.00        13.0080       117.5000        54.1880         1.1730         1.3790       0.338870         2.2790
       3164.50        13.0080       117.3120        51.8440         1.1610         1.4390       0.339360         2.2890
       3165.00        13.0310       117.3750        53.5620         1.1570         1.4430       0.343750         2.2890
       3165.50        13.1170       117.1250        54.7190         1.1540         1.4390       0.335940         2.2830
       3166.00        13.1330       118.3750        52.5620         1.1520         1.4820       0.336910         2.2810
       3166.50        13.1950       117.8750        53.4690         1.1500         1.4390       0.351560         2.2770
       3167.00        13.1170       119.5000        51.9690         1.1450         1.3750       0.356930         2.2810
       3167.50        12.9840       119.6250        56.3440         1.1230         1.2910       0.358890         2.2680
