~Version Information Block
VERS .                 2.00:  CWLS LOG ASCII STANDARD - VERSION 2.00
WRAP .                   NO:  One line per depth step
~Well Information Block
#MNEM.UNIT        Data Type   Information
#---------- ----------------  -----------
STRT .FT             890.00:  START DEPTH
STOP .FT            4968.50:  STOP DEPTH
STEP .FT               0.50:  STEP
NULL .              -999.25:  NULL VALUE
COMP .                     :  COMPANY
WELL .                 UO-1:  WELL
FLD  .                     :  FIELD
LOC  .                     :  LOCATION
CTRY .                     :  COUNTRY
STAT .                     :  STATE
CNTY .                     :  COUNTY
SRVC .                     :  SERVICE COMPANY
DATE .                     :  DATE
API  .                     :  API NUMBER
UWI  .                     :  UNIQUE WELL ID
~Curve Information Block
#MNEM.UNIT         API CODE   Curve Description
#---------- ----------------  -----------------
DEPTH.FT                   :  DEPTH CURVE
CALI .IN                   :  
DT   .US/F                 :  
GR   .GAPI                 :  
ILD  .OHMM                 :  
MSFL .OHMM                 :  
NPHI_LS.V/V                  :  
RHOB .G/C3                 :  
~Parameter Information Block
#MNEM.UNIT            Value   Description
#---------- ----------------  -----------
PROJECT.     petro@kponwjlx001:  
SET  .                 WIRE:  
~Other Information Block
# 
~A       DEPTH           CALI             DT             GR            ILD           MSFL        NPHI_LS           RHOB 
# ...
       3737.50        11.6950       107.4380        51.8120         1.0080         1.3470       0.356450         2.1680
       3738.00        11.6480       106.5620        50.3440         0.9920         1.1730       0.347170         2.1640
       3738.50        11.7190       106.3120        51.0000         0.9730         1.1480       0.347660         2.1680
       3739.00        11.7890       105.8750        51.6880         0.9610         1.2070       0.344730         2.1700
       3739.50        11.8750       105.5620        52.4690         0.9670         1.3400       0.345700         2.1800
       3740.00        11.8830       104.7500        52.1880         0.9810         1.3250       0.327640         2.1880
       3740.50        11.8830       104.5620        53.2500         1.0110         1.3670       0.312500         2.1930
       3741.00        11.8750       104.6250        55.1560         1.0450         1.3570       0.319340         2.1970
       3741.50        11.8750       104.7500        56.1880         1.0790         1.4510       0.312010         2.2050
       3742.00        11.8830       105.1880        54.7190         1.1050         1.5060       0.313480         2.2150
       3742.50        11.8590       105.0620        52.0310         1.1320         1.6290       0.310060         2.2250
       3743.00        11.8520       105.1880        52.3120         1.1460         1.5380       0.331050         2.2270
       3743.50        11.8360       106.1250        55.1250         1.1470         1.5230       0.335450         2.2230
       3744.00        11.8520       106.0620        57.4380         1.1420         1.4610       0.351560         2.2110
       3744.50        11.8590       106.8750        56.6250         1.1290         1.4050       0.353030         2.2010
       3745.00        11.8200       105.8120        56.0620         1.1110         1.4170       0.351560         2.1990
       3745.50        11.7970       105.3120        55.3120         1.1050         1.4140       0.337890         2.1910
       3746.00        11.7810       104.9380        57.5940         1.1050         1.3180       0.336910         2.1950
       3746.50        11.7890       105.1880        61.4380         1.1040         1.5450       0.339840         2.2010
       3747.00        11.7340       105.2500        61.9380         1.1010         1.4830       0.346680         2.2250
       3747.50        11.6480       105.3120        60.8750         1.0970         1.5450       0.329100         2.2340
       3748.00        11.6480       106.0000        59.1880         1.0870         1.4120       0.341310         2.2300
       3748.50        11.5860       106.7500        56.7500         1.0850         1.3110       0.333010         2.2150
       3749.00        11.5550       106.6250        55.5940         1.0830         1.1980       0.366700         2.1990
       3749.50        11.5000       106.8750        53.6880         1.0710         1.2370       0.360350         2.1910
       3750.00        11.4770       107.1250        58.0940         1.0560         1.1870       0.370120         2.1880
       3750.50        11.3520       107.2500        60.6250         1.0360         1.2240       0.356930         2.1880
       3751.00        11.2420       107.3750        61.0310         1.0190         1.2270       0.351070         2.1840
       3751.50        11.2030       107.1880        59.3440         1.0080         1.1580       0.333010         2.1800
       3752.00        11.0550       106.8120        58.8120         1.0060         1.1940       0.329590         2.1860
       3752.50        10.9610       106.9380        58.8440         1.0180         1.1950       0.346680         2.1930
       3753.00        10.7810       107.5620        60.3440         1.0350         1.2670       0.361820         2.1950
       3753.50        10.7340       107.3120        62.4690         1.0610         1.2340       0.368160         2.1880
       3754.00        10.6880       108.2500        62.0940         1.0970         1.1440       0.354980         2.1740
       3754.50        10.5390       108.5000        63.6560         1.1430         1.1410       0.350590         2.1600
       3755.00        10.4770       108.9380        63.0000         1.1930         1.1590       0.354980         2.1170
       3755.50        10.4380       110.0620        65.5000         1.2370         1.1190       0.361330         2.0820
       3756.00        10.4300       110.8750        63.7810         1.2860         1.0960       0.369630         2.0610
       3756.50        10.4300       111.5620        62.2810         1.3230         0.9930       0.357910         2.0450
       3757.00        10.4770       110.3750        60.8120         1.3430         1.0620       0.347660         2.0120
       3757.50        10.4690       109.9380        62.5940         1.3390         1.1330       0.361330         1.9980
       3758.00        10.4690       109.5620        63.8120         1.3260         1.1230       0.363280         2.0160
       3758.50        10.4690       108.6880        64.4380         1.3100         1.1350       0.356930         2.0590
       3759.00        10.5390       108.7500        64.0000         1.2720         1.1490       0.344730         2.0880
       3759.50        10.5550       108.0000        64.7500         1.2420         1.0620       0.351070         2.1050
       3760.00        10.6020       107.6250        65.8120         1.2040         1.0460       0.361330         2.0620
       3760.50        10.4380       107.4380        65.1250         1.1660         1.0200       0.367190         2.0450
       3761.00        10.2190       106.8120        67.0000         1.1370         1.1170       0.388670         2.0330
       3761.50        10.1950       106.6880        65.0000         1.1110         1.1070       0.401860         2.0450
       3762.00        10.1950       106.3120        65.0000         1.0970         1.0350       0.388670         2.0210
       3762.50        10.2270       106.1880        63.2500         1.1020         1.0190       0.358400         2.0350
       3763.00        10.2270       105.4380        67.6880         1.1080         1.0950       0.328610         2.0640
       3763.50        10.2270       105.1880        66.3120         1.1150         1.1360       0.324710         2.0980
       3764.00        10.2340       104.0620        68.2500         1.1330         1.1650       0.309570         2.1190
       3764.50        10.6090       104.3120        65.1880         1.1440         1.1970       0.304690         2.1560
       3765.00        11.0000       104.0000        66.5000         1.1530         1.2410       0.296390         2.1600
       3765.50        11.0860       104.8750        62.1250         1.1700         1.2070       0.300780         2.1910
       3766.00        11.0860       104.9380        64.1880         1.1790         1.3660       0.303710         2.2030
       3766.50        11.2110       104.1250        66.3120         1.1910         1.4770       0.304690         2.2170
       3767.00        11.3050       104.3750        68.5620         1.1950         1.3420       0.319340         2.2150
       3767.50        11.3360       104.5620        63.8440         1.1970         1.2710       0.330570         2.2290
       3768.00        11.3440       104.8750        62.6250         1.2030         1.2940       0.334470         2.2420
       3768.50        11.4770       105.4380        58.9380         1.2150         1.3360       0.334470         2.2500
       3769.00        11.5470       105.0000        60.8120         1.2240         1.4860       0.320310         2.2480
       3769.50        11.6170       104.9380        59.3750         1.2330         1.6240       0.337890         2.2500
       3770.00        11.7030       105.2500        61.0620         1.2360         1.7550       0.338380         2.2460
       3770.50        11.7580       105.0000        58.9060         1.2310         1.6970       0.358890         2.2600
