~Version Information Block
VERS .                 2.00:  CWLS LOG ASCII STANDARD - VERSION 2.00
WRAP .                   NO:  One line per depth step
~Well Information Block
#MNEM.UNIT        Data Type   Information
#---------- ----------------  -----------
STRT .FT             890.00:  START DEPTH
STOP .FT            4968.50:  STOP DEPTH
STEP .FT               0.50:  STEP
NULL .              -999.25:  NULL VALUE
COMP .                     :  COMPANY
WELL .                 UO-1:  WELL
FLD  .                     :  FIELD
LOC  .                     :  LOCATION
CTRY .                     :  COUNTRY
STAT .                     :  STATE
CNTY .                     :  COUNTY
SRVC .                     :  SERVICE COMPANY
DATE .                     :  DATE
API  .                     :  API NUMBER
UWI  .                     :  UNIQUE WELL ID
~Curve Information Block
#MNEM.UNIT         API CODE   Curve Description
#---------- ----------------  -----------------
DEPTH.FT                   :  DEPTH CURVE
CALI .IN                   :  
DT   .US/F                 :  
GR   .GAPI                 :  
ILD  .OHMM                 :  
MSFL .OHMM                 :  
NPHI_LS.V/V                  :  
RHOB .G/C3                 :  
~Parameter Information Block
#MNEM.UNIT            Value   Description
#---------- ----------------  -----------
PROJECT.     petro@kponwjlx001:  
SET  .                 WIRE:  
~Other Information Block
# 
~A       DEPTH           CALI             DT             GR            ILD           MSFL        NPHI_LS           RHOB 
# ...
       2129.50        13.0160       119.8750        38.0620         1.0450         1.1790       0.369630         2.0780
       2130.00        13.0160       121.2500        39.7190         1.0530         1.6220       0.377930         2.0740
       2130.50        13.0080       119.1250        39.6250         1.0390         1.3670       0.388670         2.0550
       2131.00        13.0160       118.7500        40.1560         1.0170         1.5690       0.377930         2.0530
       2131.50        12.9840       117.6250        39.3440         0.9980         1.4450       0.374020         2.0270
       2132.00        12.7420       121.7500        38.5940         0.9850         1.3450       0.394530         2.0210
       2132.50        12.6950       126.3750        41.0940         0.9880         1.1390       0.411130         2.0060
       2133.00        12.4920       130.5000        39.9690         1.0110         1.0170       0.421880         2.0210
       2133.50        12.4060       130.3750        38.2500         1.0320         1.1450       0.404790         2.0270
       2134.00        12.3670       125.6250        37.0310         1.0370         1.2820       0.388670         2.0390
       2134.50        12.4770       130.1250        35.9060         1.0210         1.0710       0.399410         2.0530
       2135.00        12.4770       123.3750        37.8750         0.9780         0.9790       0.394530         2.1000
       2135.50        12.4690       128.6250        38.6250         0.9040         1.1060       0.395020         2.1190
       2136.00        12.5230       135.1250        41.7190         0.8260         2.3650       0.404790         2.0510
       2136.50        12.6250       146.0000        45.2500         0.7450         1.1810       0.435550         1.9350
       2137.00        13.3280       160.8750        45.9060         0.6820         0.6970       0.471190         1.8310
       2137.50        12.7110       175.6250        46.8120         0.6250         0.6600       0.449710         1.8150
       2138.00        12.7420       167.0000        44.9380         0.5840         0.5440       0.440920         1.7940
       2138.50        12.7110       168.8750        46.3440         0.5320         0.5900       0.461910         1.7680
       2139.00        13.9690       167.7500        49.1560         0.5040         0.6670       0.483890         1.7060
       2139.50        14.5160       166.3750        48.6250         0.4940         0.6920       0.490230         1.7000
       2140.00        12.8750       168.3750        49.1560         0.4920         0.6780       0.469240         1.7520
       2140.50        12.9220       167.6250        46.8440         0.4980         0.6820       0.461430         1.8500
       2141.00        12.9610       167.3750        49.8750         0.5070         0.7050       0.452150         1.9150
       2141.50        13.0000       168.8750        50.7190         0.5110         0.6770       0.459470         1.9310
       2142.00        13.0000       170.7500        52.0000         0.5090         0.6880       0.469240         1.9160
       2142.50        12.9920       173.0000        52.6250         0.5060         0.6720       0.480470         1.9020
       2143.00        12.9920       173.3750        52.1560         0.5000         0.6360       0.459470         1.8880
       2143.50        12.9920       174.6250        54.5310         0.4910         0.6040       0.450680         1.8840
       2144.00        12.9920       175.5000        55.0620         0.4850         0.6150       0.453610         1.8900
       2144.50        13.0310       174.1250        57.7810         0.4800         0.6250       0.464360         1.8920
       2145.00        13.0620       175.6250        57.0000         0.4780         0.5870       0.480470         1.8820
       2145.50        13.0940       176.1250        54.5000         0.4780         0.6070       0.474120         1.8680
       2146.00        13.0940       176.5000        52.9060         0.4800         0.6440       0.479000         1.8860
       2146.50        13.1250       176.3750        50.6250         0.4800         0.6850       0.468260         1.9140
       2147.00        13.2030       176.1250        51.4060         0.4790         0.6920       0.466800         1.9470
       2147.50        13.2030       176.2500        52.2810         0.4800         0.7090       0.457520         1.9470
       2148.00        13.0780       176.5000        53.4380         0.4820         0.6740       0.464840         1.9380
       2148.50        13.0310       176.1250        56.7190         0.4830         0.6160       0.482420         1.9250
       2149.00        13.0940       175.1250        54.7810         0.4840         0.6110       0.476070         1.9400
       2149.50        13.0860       174.7500        54.6560         0.4830         0.6410       0.474610         1.9550
       2150.00        13.0160       174.0000        50.0940         0.4800         0.6380       0.458010         1.9740
       2150.50        13.0080       173.6250        51.1880         0.4820         0.6430       0.481930         1.9760
       2151.00        13.0080       171.5000        52.6880         0.4850         0.6760       0.470700         1.9830
       2151.50        12.9920       170.1250        53.8120         0.4880         0.6950       0.492680         1.9770
       2152.00        12.8830       168.6250        52.2810         0.4870         0.6700       0.464360         1.9630
       2152.50        12.8750       168.0000        49.0620         0.4820         0.6840       0.481930         1.9400
       2153.00        12.8830       168.2500        50.7190         0.4730         0.6960       0.476560         1.9270
       2153.50        12.9770       168.1250        49.8440         0.4640         0.7050       0.474120         1.9260
       2154.00        13.0160       168.6250        48.9690         0.4640         0.7100       0.455080         1.9270
       2154.50        13.0160       170.1250        46.5310         0.4810         0.7150       0.454590         1.9350
       2155.00        13.0310       166.5000        43.7500         0.5210         0.7040       0.480960         1.9450
       2155.50        13.0940       152.2500        40.5940         0.5840         0.7330       0.459470         1.9860
       2156.00        13.0940       134.3750        33.2810         0.6670         0.7970       0.405270         2.0660
       2156.50        13.0620       118.2500        27.7340         0.7440         1.4750       0.337890         2.1600
       2157.00        13.1020       110.0000        24.2340         0.8310         2.7010       0.311040         2.2400
       2157.50        13.1090       111.6880        25.3910         0.9180         2.6670       0.296880         2.2730
       2158.00        13.1170       119.0620        28.2190         1.0740         1.7400       0.307130         2.2770
       2158.50        13.1170       125.0000        32.2500         1.2530         1.0460       0.318850         2.2620
       2159.00        13.1090       125.1880        34.3120         1.3680         1.1030       0.337400         2.2030
       2159.50        13.1250       117.6250        33.1250         1.4730         1.0310       0.354490         2.1460
       2160.00        13.0310       108.5000        29.7190         1.4680         1.6100       0.358890         2.0820
       2160.50        13.0160       105.5620        26.7500         1.4240         1.1850       0.357910         2.1020
       2161.00        12.9920        98.1250        26.5000         1.3440         3.2960       0.322750         2.1460
       2161.50        12.8830       100.5000        29.1720         1.1630         2.6660       0.290530         2.2110
       2162.00        12.9060       119.5620        33.2500         0.9860         3.8450       0.301760         2.1580
       2162.50        13.1410       139.3750        41.3120         0.8750         1.5210       0.376950         2.0390
