~Version Information Block
VERS .                 2.00:  CWLS LOG ASCII STANDARD - VERSION 2.00
WRAP .                   NO:  One line per depth step
~Well Information Block
#MNEM.UNIT        Data Type   Information
#---------- ----------------  -----------
STRT .FT             890.00:  START DEPTH
STOP .FT            4968.50:  STOP DEPTH
STEP .FT               0.50:  STEP
NULL .              -999.25:  NULL VALUE
COMP .                     :  COMPANY
WELL .                 UO-1:  WELL
FLD  .                     :  FIELD
LOC  .                     :  LOCATION
CTRY .                     :  COUNTRY
STAT .                     :  STATE
CNTY .                     :  COUNTY
SRVC .                     :  SERVICE COMPANY
DATE .                     :  DATE
API  .                     :  API NUMBER
UWI  .                     :  UNIQUE WELL ID
~Curve Information Block
#MNEM.UNIT         API CODE   Curve Description
#---------- ----------------  -----------------
DEPTH.FT                   :  DEPTH CURVE
CALI .IN                   :  
DT   .US/F                 :  
GR   .GAPI                 :  
ILD  .OHMM                 :  
MSFL .OHMM                 :  
NPHI_LS.V/V                  :  
RHOB .G/C3                 :  
~Parameter Information Block
#MNEM.UNIT            Value   Description
#---------- ----------------  -----------
PROJECT.     petro@kponwjlx001:  
SET  .                 WIRE:  
~Other Information Block
# 
~A       DEPTH           CALI             DT             GR            ILD           MSFL        NPHI_LS           RHOB 
# ...
       4742.50        12.1560       105.3750        54.5940         1.0660         1.2190       0.381350         2.2620
       4743.00        12.8590       105.7500        56.3120         1.0410         1.0670       0.366210         2.2340
       4743.50        12.9840       106.9380        56.4060         1.0380         1.0650       0.355960         2.1990
       4744.00        13.1950       105.0000        55.0620         1.0380         1.1230       0.369140         2.1250
       4744.50        12.6800       104.6250        56.3120         1.0480         1.0650       0.376950         2.1000
       4745.00        12.7890       105.3120        57.4060         1.0630         0.8590       0.368160         2.0980
       4745.50        11.6090       104.8750        57.0620         1.0640         0.8640       0.355960         2.1780
       4746.00        11.5390       104.1250        55.8440         1.0630         1.1180       0.340820         2.2170
       4746.50        11.4220       104.6250        55.5940         1.0760         1.4290       0.348140         2.2480
       4747.00        11.0860       105.1250        56.7190         1.0680         1.0840       0.352540         2.2320
       4747.50        11.0310       106.0620        58.2810         1.0450         1.1220       0.375490         2.2170
       4748.00        11.0780       106.5620        58.8120         1.0220         1.0760       0.383790         2.2150
       4748.50        11.1720       106.8750        59.6250         0.9880         0.9740       0.383300         2.1970
       4749.00        11.3120       107.7500        58.1560         0.9540         0.9020       0.382320         2.2150
       4749.50        11.3980       107.5620        58.0310         0.9500         1.0900       0.386230         2.1840
       4750.00        11.3440       106.1250        56.6250         0.9570         0.8550       0.379880         2.2130
       4750.50        11.1480       105.5620        56.3440         0.9560         0.8180       0.385740         2.1950
       4751.00        10.8440       105.0620        56.9060         0.9590         0.8840       0.394530         2.2090
       4751.50        10.4690       105.3750        59.0620         0.9580         0.7550       0.401370         2.1990
       4752.00        10.3050       103.9380        59.9690         0.9630         0.8390       0.367680         2.2190
       4752.50        10.2730       104.6880        58.6560         0.9820         0.9040       0.319820         2.2320
       4753.00        10.2110       104.5620        57.6250         1.0380         0.9220       0.299320         2.2540
       4753.50        10.2030       103.0000        57.2500         1.0830         0.9320       0.316410         2.2930
       4754.00        10.2110       100.0000        58.8440         1.1260         0.8980       0.327150         2.3160
       4754.50        10.3750        98.6880        58.2500         1.1410         0.7590       0.328610         2.3090
       4755.00        10.3750        97.3120        58.9690         1.1470         0.9660       0.315430         2.2170
       4755.50        10.4220        99.6250        59.5620         1.1670         0.8690       0.322270         2.1460
       4756.00         9.5620       101.5620        58.8750         1.1730         0.6560       0.321290         2.1150
       4756.50         9.2270       103.6880        60.6560         1.1710         0.7940       0.333500         2.1210
       4757.00         9.2970       103.5000        62.8120         1.1670         0.9380       0.348630         2.1390
       4757.50        10.2340       103.5000        62.1880         1.1610         0.8600       0.347660         2.1560
       4758.00        11.0700       102.9380        58.6880         1.1550         1.0510       0.336430         2.2090
       4758.50        11.2270       102.7500        56.4380         1.1640         0.9220       0.326660         2.2270
       4759.00        11.4770       101.4380        57.8120         1.1940         1.0070       0.338380         2.2620
       4759.50        11.6170       100.3120        54.7190         1.2130         1.1520       0.333980         2.2830
       4760.00        11.7030        99.7500        52.0000         1.2310         1.4280       0.343750         2.3140
       4760.50        11.7890       100.1250        52.7190         1.2290         1.8380       0.349120         2.3320
       4761.00        11.8670       100.2500        55.9380         1.1980         1.9210       0.357910         2.3300
       4761.50        11.9770       101.2500        57.5940         1.1700         1.8660       0.355470         2.3550
       4762.00        12.1170       103.0620        59.2190         1.1270         1.9470       0.365230         2.3750
       4762.50        12.1640       104.8120        57.7810         1.0780         1.6320       0.383300         2.3960
       4763.00        12.1410       107.8750        58.8440         1.0400         1.5590       0.391600         2.3980
       4763.50        12.1170       108.4380        58.0940         0.9810         1.4880       0.377930         2.3910
       4764.00        12.0700       108.9380        61.6560         0.8890         1.3490       0.377440         2.3870
       4764.50        12.1410       112.2500        62.0310         0.8370         1.2470       0.367680         2.3870
       4765.00        12.1560       113.0000        64.1880         0.8060         1.1790       0.386720         2.3930
       4765.50        12.1560       114.0000        64.1250         0.7550         1.2330       0.372560         2.3980
       4766.00        12.1640       114.2500        62.9690         0.7220         1.2290       0.399900         2.3930
       4766.50        12.1800       113.5000        60.0940         0.7200         1.1060       0.389650         2.3870
       4767.00        12.2030       110.6250        58.3750         0.7280         1.0930       0.400880         2.3830
       4767.50        12.1800       109.1250        59.0940         0.7360         1.1610       0.373540         2.3910
       4768.00        12.2030       107.8750        57.9060         0.7530         1.3270       0.375980         2.3960
       4768.50        12.1950       107.7500        60.2500         0.7620         1.5300       0.373050         2.3980
       4769.00        12.1880       108.2500        62.4060         0.7730         1.5410       0.375980         2.4080
       4769.50        12.1950       109.5000        61.2500         0.8030         1.4410       0.370120         2.4120
       4770.00        12.1640       109.5000        58.4380         0.8310         1.3840       0.380860         2.4200
       4770.50        12.1950       109.7500        55.5940         0.8320         1.2530       0.397950         2.4240
       4771.00        12.1950       109.8750        56.6250         0.8150         1.2720       0.384770         2.4160
       4771.50        12.1880       111.3750        58.2810         0.7980         1.3350       0.385740         2.3980
       4772.00        12.2190       111.2500        58.8120         0.7840         1.3340       0.386230         2.3790
       4772.50        12.2110       110.6250        60.6560         0.7760         1.1210       0.412110         2.3690
       4773.00        12.1720       111.6250        61.5310         0.7720         1.1370       0.420900         2.3630
       4773.50        12.1880       111.7500        62.2500         0.7730         1.1900       0.419430         2.3770
       4774.00        12.1720       110.3750        58.9690         0.7760         1.3370       0.430180         2.3930
       4774.50        12.1410       110.2500        58.7190         0.7960         1.3400       0.424800         2.3960
       4775.00        12.1560       109.7500        57.0620         0.8370         1.3010       0.421390         2.3930
       4775.50        12.1560       109.0000        57.8750         0.8950         1.3710       0.402340         2.3850
