~Version Information Block
VERS .                 2.00:  CWLS LOG ASCII STANDARD - VERSION 2.00
WRAP .                   NO:  One line per depth step
~Well Information Block
#MNEM.UNIT        Data Type   Information
#---------- ----------------  -----------
STRT .FT             890.00:  START DEPTH
STOP .FT            4968.50:  STOP DEPTH
STEP .FT               0.50:  STEP
NULL .              -999.25:  NULL VALUE
COMP .                     :  COMPANY
WELL .                 UO-1:  WELL
FLD  .                     :  FIELD
LOC  .                     :  LOCATION
CTRY .                     :  COUNTRY
STAT .                     :  STATE
CNTY .                     :  COUNTY
SRVC .                     :  SERVICE COMPANY
DATE .                     :  DATE
API  .                     :  API NUMBER
UWI  .                     :  UNIQUE WELL ID
~Curve Information Block
#MNEM.UNIT         API CODE   Curve Description
#---------- ----------------  -----------------
DEPTH.FT                   :  DEPTH CURVE
CALI .IN                   :  
DT   .US/F                 :  
GR   .GAPI                 :  
ILD  .OHMM                 :  
MSFL .OHMM                 :  
NPHI_LS.V/V                  :  
RHOB .G/C3                 :  
~Parameter Information Block
#MNEM.UNIT            Value   Description
#---------- ----------------  -----------
PROJECT.     petro@kponwjlx001:  
SET  .                 WIRE:  
~Other Information Block
# 
~A       DEPTH           CALI             DT             GR            ILD           MSFL        NPHI_LS           RHOB 
# ...
       2330.50        12.6250       142.8750        41.5000         0.9470         0.9000       0.430180         2.0330
       2331.00        12.6250       141.7500        40.1250         0.9560         0.7210       0.433590         2.0490
       2331.50        12.4690       133.1250        35.3440         0.9590         0.9180       0.401370         2.1190
       2332.00        12.4840       119.1880        30.5780         0.9570         1.5590       0.365720         2.1780
       2332.50        12.5620       111.5000        28.5940         0.9810         1.6720       0.335450         2.1840
       2333.00        12.5940       111.5000        26.1250         1.0610         2.0450       0.356930         2.1800
       2333.50        12.5550       113.1250        26.6410         1.2020         1.4990       0.342770         2.1620
       2334.00        12.4690       112.8750        24.4060         1.3540         1.6630       0.338870         2.1840
       2334.50        12.3980       115.0000        27.2190         1.3720         1.7730       0.338380         2.1840
       2335.00        12.1800       113.5000        29.2500         1.2480         1.6600       0.347170         2.1910
       2335.50        11.8520       120.0620        36.4690         1.0820         1.4700       0.386230         2.1890
       2336.00        11.5000       135.2500        44.0000         0.9010         1.2910       0.418460         2.1660
       2336.50        11.3120       146.7500        54.7810         0.7920         0.8320       0.462400         2.0920
       2337.00        11.3440       158.6250        59.8120         0.6920         0.7520       0.461910         2.0350
       2337.50        11.4690       168.7500        64.0000         0.6220         0.7720       0.450200         1.9950
       2338.00        11.5550       167.5000        65.5620         0.5670         0.7760       0.466800         2.0080
       2338.50        11.5860       169.8750        64.1880         0.5210         0.7070       0.493160         2.0080
       2339.00        11.7030       169.0000        63.4060         0.4980         0.6720       0.493160         2.0160
       2339.50        11.7110       169.3750        60.5000         0.4890         0.7160       0.460450         2.0100
       2340.00        11.7030       169.2500        61.5310         0.4900         0.7240       0.440920         2.0060
       2340.50        11.7110       169.6250        63.3750         0.4960         0.7490       0.444340         2.0060
       2341.00        11.6480       168.6250        63.5000         0.5060         0.7490       0.464360         1.9990
       2341.50        11.6480       169.1250        64.1880         0.5150         0.7140       0.467290         1.9890
       2342.00        11.6410       169.6250        61.2810         0.5200         0.7090       0.479000         1.9710
       2342.50        11.7030       171.1250        63.3750         0.5270         0.7120       0.467770         1.9680
       2343.00        11.7890       170.7500        62.3750         0.5300         0.7270       0.479490         1.9750
       2343.50        11.7890       170.3750        62.1560         0.5360         0.7470       0.488280         1.9830
       2344.00        11.7270       169.1250        60.8120         0.5390         0.6620       0.500000         1.9970
       2344.50        11.7270       169.2500        60.3750         0.5420         0.6630       0.495120         1.9830
       2345.00        11.7890       168.8750        58.5000         0.5450         0.6550       0.497070         1.9700
       2345.50        11.8120       168.0000        58.1250         0.5440         0.6530       0.481450         1.9550
       2346.00        11.8050       167.7500        61.2500         0.5420         0.6740       0.473140         1.9620
       2346.50        11.8050       167.5000        64.3750         0.5390         0.6940       0.444340         1.9600
       2347.00        11.7660       167.3750        64.7500         0.5360         0.6700       0.457520         1.9680
       2347.50        11.7340       165.1250        61.3750         0.5340         0.6880       0.455080         1.9830
       2348.00        11.7110       163.5000        60.6880         0.5350         0.6620       0.492190         2.0140
       2348.50        11.7110       161.3750        59.1560         0.5380         0.6760       0.463380         2.0290
       2349.00        11.7030       160.2500        57.7810         0.5440         0.7030       0.475100         2.0270
       2349.50        11.7110       157.7500        56.3750         0.5550         0.6910       0.441410         2.0250
       2350.00        11.6480       157.0000        57.0000         0.5590         0.7030       0.469730         2.0390
       2350.50        11.6560       156.8750        59.2500         0.5610         0.7060       0.499020         2.0510
       2351.00        11.6250       157.6250        61.2810         0.5600         0.7140       0.491700         2.0510
       2351.50        11.5940       160.7500        59.2500         0.5570         0.6800       0.481450         2.0270
       2352.00        11.6330       163.0000        56.9690         0.5550         0.6390       0.449220         2.0060
       2352.50        11.7110       161.6250        55.5310         0.5440         0.6540       0.463870         1.9870
       2353.00        11.7890       163.6250        58.3120         0.5380         0.7180       0.459470         1.9680
       2353.50        11.8120       163.0000        58.6250         0.5430         0.6340       0.468260         1.9690
       2354.00        11.8360       161.5000        57.5000         0.5650         0.6430       0.462400         1.9750
       2354.50        11.8980       159.3750        51.6560         0.6040         0.6960       0.488770         1.9830
       2355.00        12.0860       144.1250        48.0000         0.6700         0.7060       0.452640         2.0180
       2355.50        12.2190       129.7500        39.1880         0.7140         0.8160       0.404790         2.0900
       2356.00        12.3980       122.1250        37.8120         0.7200         1.2200       0.361330         2.1640
       2356.50        12.5620       122.5000        41.3750         0.7200         2.2400       0.374020         2.1330
       2357.00        12.7270       133.5000        48.0940         0.7270         0.9590       0.434570         2.0510
       2357.50        12.5860       148.0000        52.8440         0.7300         0.5840       0.459470         1.9860
       2358.00        12.2810       154.1250        52.9060         0.7250         0.6050       0.479490         1.9410
       2358.50        12.1800       154.6250        55.1880         0.6770         0.7180       0.468750         1.9400
       2359.00        11.7890       154.1250        53.9380         0.6090         0.6750       0.470210         1.9330
       2359.50        11.8120       154.7500        52.9060         0.5470         0.5820       0.475100         1.9470
       2360.00        11.8830       158.5000        51.0620         0.5130         0.6510       0.467770         1.9480
       2360.50        12.0310       159.1250        53.6250         0.4900         0.6810       0.471190         1.9490
       2361.00        12.0700       159.8750        55.9060         0.4860         0.7230       0.477540         1.9320
       2361.50        12.0780       161.8750        55.2500         0.5030         0.7280       0.504390         1.9350
       2362.00        12.0860       156.7500        50.2810         0.5410         0.6940       0.530760         1.9530
       2362.50        12.1720       145.3750        45.5000         0.6100         0.6970       0.509770         2.0180
       2363.00        12.2890       128.5000        36.5940         0.7000         0.7900       0.430180         2.1170
       2363.50        12.4690       115.7500        27.9690         0.7970         1.7590       0.340820         2.2270
