~Version Information Block
VERS .                 2.00:  CWLS LOG ASCII STANDARD - VERSION 2.00
WRAP .                   NO:  One line per depth step
~Well Information Block
#MNEM.UNIT        Data Type   Information
#---------- ----------------  -----------
STRT .FT             140.00:  START DEPTH
STOP .FT            5317.50:  STOP DEPTH
STEP .FT               0.50:  STEP
NULL .              -999.25:  NULL VALUE
COMP .                     :  COMPANY
WELL .                UVA-1:  WELL
FLD  .                     :  FIELD
LOC  .                     :  LOCATION
CTRY .                     :  COUNTRY
STAT .                     :  STATE
CNTY .                     :  COUNTY
SRVC .                     :  SERVICE COMPANY
DATE .                     :  DATE
API  .                     :  API NUMBER
UWI  .                     :  UNIQUE WELL ID
~Curve Information Block
#MNEM.UNIT         API CODE   Curve Description
#---------- ----------------  -----------------
DEPTH.FT                   :  DEPTH CURVE
CALI .IN                   :  
DT   .US/F                 :  
GR   .GAPI                 :  
ILD  .OHMM                 :  
MSFL .OHMM                 :  
NPHI_LS.V/V                  :  
RHOB .G/C3                 :  
~Parameter Information Block
#MNEM.UNIT            Value   Description
#---------- ----------------  -----------
PROJECT.     petro@kponwjlx001:  
SET  .                 WIRE:  
~Other Information Block
# 
~A       DEPTH           CALI             DT             GR            ILD           MSFL        NPHI_LS           RHOB 
# ...
       2016.00        17.9500       177.3870        63.8000         0.4980         0.6550       0.544000         1.7900
       2016.50        17.9000       177.7380        65.1000         0.4980         0.6140       0.557000         1.7660
       2017.00        17.6500       178.9390        64.2000         0.5030         0.5550       0.533000         1.7590
       2017.50        17.8000       179.2890        59.6000         0.4980         0.5060       0.502000         1.7650
       2018.00        18.2000       180.3900        58.0000         0.4980         0.5010       0.512000         1.7580
       2018.50        18.0500       182.6430        59.0000         0.4980         0.5250       0.521000         1.7420
       2019.00        18.0000       184.2440        61.2000         0.4930         0.5400       0.527000         1.7230
       2019.50        18.1000       185.3450        60.0000         0.4930         0.5550       0.517000         1.7350
       2020.00        18.0500       186.4460        59.6000         0.4840         0.5550       0.523000         1.7550
       2020.50        17.7000       187.6480        59.0000         0.4800         0.5650       0.522000         1.7620
       2021.00        17.9000       188.9490        59.2000         0.4840         0.5920       0.519000         1.7760
       2021.50        17.9500       190.0000        59.0000         0.4840         0.5810       0.512000         1.8000
       2022.00        17.7500       189.6500        58.3000         0.4840         0.5810       0.512000         1.7930
       2022.50        17.7000       189.3990        58.4000         0.4890         0.5010       0.504000         1.7750
       2023.00        17.8500       189.1490        60.8000         0.4890         0.4130       0.492000         1.7780
       2023.50        18.2500       189.1490        62.4000         0.4930         0.4210       0.503000         1.7750
       2024.00        19.2500       188.5490        63.6000         0.4980         0.4290       0.527000         1.7780
       2024.50        19.3500       187.8480        60.4000         0.4980         0.4530       0.564000         1.7740
       2025.00        19.4000       188.3980        59.8000         0.4980         0.4790       0.571000         1.7270
       2025.50        19.5000       187.0970        61.0000         0.4930         0.4700       0.547000         1.7220
       2026.00        19.3000       187.3970        61.6000         0.4930         0.4490       0.514000         1.7290
       2026.50        19.0000       185.8460        62.0000         0.4930         0.4330       0.528000         1.7310
       2027.00        18.9000       185.1950        63.6000         0.4930         0.4410       0.562000         1.7440
       2027.50        19.0000       184.9950        65.6000         0.4930         0.4850       0.551000         1.7470
       2028.00        18.6500       185.4950        64.8000         0.4890         0.5300       0.531000         1.7220
       2028.50        18.6000       185.3950        64.2000         0.4840         0.5440       0.539000         1.6870
       2029.00        18.9000       185.8960        63.2000         0.4890         0.5350       0.529000         1.6620
       2029.50        19.3000       185.8960        64.0000         0.4840         0.5440       0.537000         1.6390
       2030.00        19.1500       185.7460        66.7000         0.4800         0.5860       0.538000         1.6260
       2030.50        18.8000       186.1460        64.8000         0.4760         0.5650       0.534000         1.6580
       2031.00        18.1500       186.6470        63.0000         0.4710         0.5250       0.528000         1.6430
       2031.50        17.6500       186.6470        63.2000         0.4760         0.5500       0.532000         1.6410
       2032.00        17.3000       186.1460        63.7000         0.4760         0.5810       0.570000         1.6510
       2032.50        17.9500       185.7460        61.7000         0.4800         0.5400       0.565000         1.6750
       2033.00        18.2000       185.6460        62.8000         0.4760         0.5300       0.579000         1.6740
       2033.50        18.0500       184.6450        63.6000         0.4760         0.5860       0.567000         1.6480
       2034.00        18.0000       185.1450        60.5000         0.4800         0.6430       0.536000         1.6340
       2034.50        17.6000       184.2440        56.5000         0.4840         0.6140       0.549000         1.6610
       2035.00        16.9000       182.6430        59.2000         0.4840         0.6030       0.578000         1.6870
       2035.50        17.0000       182.8930        60.9000         0.4930         0.5920       0.557000         1.7330
       2036.00        17.4000       182.3920        59.6000         0.4840         0.6030       0.543000         1.7780
       2036.50        18.1000       181.7420        61.4000         0.4840         0.6190       0.564000         1.8020
       2037.00        18.4000       180.6910        64.0000         0.4800         0.6140       0.554000         1.7750
       2037.50        18.4000       179.2390        64.9000         0.4760         0.6030       0.558000         1.7330
       2038.00        18.4500       177.1870        65.6000         0.4760         0.6030       0.547000         1.6890
       2038.50        18.4500       177.3870        66.0000         0.4760         0.5860       0.548000         1.6570
       2039.00        19.1000       177.3370        65.3000         0.4840         0.5700       0.570000         1.6240
       2039.50        19.5000       177.3870        67.4000         0.4840         0.5350       0.579000         1.6020
       2040.00        19.5000       176.2860        68.4000         0.4980         0.5300       0.564000         1.6000
       2040.50        19.5000       174.9350        66.0000         0.5030         0.5810       0.583000         1.6090
       2041.00        20.0000       173.6840        65.0000         0.5030         0.5970       0.585000         1.6100
       2041.50        20.3000       174.1840        66.0000         0.5120         0.5810       0.592000         1.6210
       2042.00        20.3000       173.9340        65.2000         0.5170         0.5700       0.583000         1.6340
       2042.50        20.6500       174.1840        65.3000         0.5260         0.5750       0.545000         1.6630
       2043.00        20.5500       175.2350        65.2000         0.5260         0.5500       0.516000         1.6810
       2043.50        20.5000       175.4850        66.9000         0.5260         0.5810       0.522000         1.6510
       2044.00        20.8000       175.4350        66.0000         0.5120         0.5750       0.530000         1.6540
       2044.50        21.6500       176.6870        65.2000         0.5030         0.4570       0.500000         1.6450
       2045.00        22.0000       178.8890        63.3000         0.4930         0.3600       0.497000         1.6080
       2045.50        21.8000       178.8890        61.2000         0.4800         0.3080       0.527000         1.5510
       2046.00        22.2500       179.4890        60.4000         0.4760         0.2810       0.538000         1.5110
       2046.50        22.1000       180.5410        62.5000         0.4710         0.2810       0.526000         1.5020
       2047.00        21.7500       181.1910        60.4000         0.4670         0.3160       0.545000         1.5030
       2047.50        21.1000       182.1920        59.8000         0.4630         0.3980       0.546000         1.5040
       2048.00        20.4000       183.5440        60.8000         0.4630         0.5250       0.556000         1.5060
       2048.50        20.3000       182.6430        59.7000         0.4590         0.5550       0.567000         1.5240
       2049.00        20.9000       182.6930        55.8000         0.4540         0.4880       0.604000         1.5480
