~Version Information Block
VERS .                 2.00:  CWLS LOG ASCII STANDARD - VERSION 2.00
WRAP .                   NO:  One line per depth step
~Well Information Block
#MNEM.UNIT        Data Type   Information
#---------- ----------------  -----------
STRT .FT             140.00:  START DEPTH
STOP .FT            5317.50:  STOP DEPTH
STEP .FT               0.50:  STEP
NULL .              -999.25:  NULL VALUE
COMP .                     :  COMPANY
WELL .                UVA-1:  WELL
FLD  .                     :  FIELD
LOC  .                     :  LOCATION
CTRY .                     :  COUNTRY
STAT .                     :  STATE
CNTY .                     :  COUNTY
SRVC .                     :  SERVICE COMPANY
DATE .                     :  DATE
API  .                     :  API NUMBER
UWI  .                     :  UNIQUE WELL ID
~Curve Information Block
#MNEM.UNIT         API CODE   Curve Description
#---------- ----------------  -----------------
DEPTH.FT                   :  DEPTH CURVE
CALI .IN                   :  
DT   .US/F                 :  
GR   .GAPI                 :  
ILD  .OHMM                 :  
MSFL .OHMM                 :  
NPHI_LS.V/V                  :  
RHOB .G/C3                 :  
~Parameter Information Block
#MNEM.UNIT            Value   Description
#---------- ----------------  -----------
PROJECT.     petro@kponwjlx001:  
SET  .                 WIRE:  
~Other Information Block
# 
~A       DEPTH           CALI             DT             GR            ILD           MSFL        NPHI_LS           RHOB 
# ...
       2920.50        21.8000       135.8790        74.3000         0.7310         0.2630       0.422000         2.1980
       2921.00        21.8000       137.7370        76.7850         0.7370         0.2630       0.426000         2.1840
       2921.50        21.8000       141.7580        74.7740         0.7470         0.2630       0.403000         2.1720
       2922.00        21.8000       143.6150        77.2600         0.7470         0.2630       0.411000         2.1730
       2922.50        21.8000       143.3090        77.8840         0.7470         0.2630       0.406000         2.1770
       2923.00        21.8000       143.0020        79.7500         0.7480         0.2630       0.409000         2.1820
       2923.50        21.8000       143.3130        83.7850         0.7480         0.2630       0.436000         2.1940
       2924.00        21.8000       145.1710        83.9440         0.7370         0.2630       0.441000         2.1690
       2924.50        21.8000       146.4100        81.3140         0.7270         0.2630       0.444000         2.1690
       2925.00        21.8000       146.4120        83.1780         0.7270         0.2630       0.449000         2.1580
       2925.50        21.8000       145.7960        84.5790         0.7320         0.2630       0.447000         2.1560
       2926.00        21.8000       144.8720        82.8780         0.7530         0.2630       0.452000         2.1570
       2926.50        21.8000       143.3280        83.8130         0.7590         0.2630       0.444000         2.1890
       2927.00        21.8000       144.5680        81.3370         0.7700         0.2630       0.421000         2.1930
       2927.50        21.8000       146.1160        80.2560         0.7700         0.2630       0.418000         2.1640
       2928.00        21.8000       148.9010        78.2460         0.7590         0.2630       0.428000         2.1760
       2928.50        21.8000       151.9950        71.1180         0.7540         0.2630       0.442000         2.1580
       2929.00        21.8000       155.3980        71.7430         0.7430         0.2630       0.446000         2.1170
       2929.50        21.8000       157.2540        75.3140         0.7270         0.2630       0.448000         2.1330
       2930.00        21.8000       158.8030        79.6600         0.7130         0.2630       0.449000         2.1470
       2930.50        21.8000       159.7320        82.9210         0.6920         0.2630       0.451000         2.1090
       2931.00        21.8000       160.0440        82.3040         0.6820         0.2630       0.444000         2.0960
       2931.50        21.8000       160.0470        80.9130         0.6720         0.2630       0.453000         2.0920
       2932.00        21.8000       160.6680        82.9340         0.6580         0.2630       0.451000         2.1180
       2932.50        21.8000       161.9070        84.1790         0.6440         0.2630       0.445000         2.1450
       2933.00        21.8000       162.2190        80.9280         0.6310         0.2630       0.451000         2.1540
       2933.50        21.8000       161.9120        80.7770         0.6310         0.2630       0.453000         2.1320
       2934.00        21.8000       160.0600        78.9220         0.6350         0.2630       0.449000         2.1380
       2934.50        21.8000       157.5890        79.3920         0.6350         0.2630       0.445000         2.1470
       2935.00        21.8000       156.9730        80.9460         0.6450         0.2630       0.449000         2.1580
       2935.50        21.8000       159.4490        83.7420         0.6590         0.2630       0.455000         2.1610
       2936.00        21.8000       158.2150        84.0560         0.6680         0.2630       0.471000         2.1520
       2936.50        21.8000       156.9810        79.8760         0.6780         0.2630       0.483000         2.1440
       2937.00        21.8000       158.8390        77.5540         0.6830         0.2630       0.472000         2.1600
       2937.50        21.8000       158.2230        79.1090         0.6880         0.2630       0.448000         2.1620
       2938.00        21.8000       157.9160        81.5930         0.6880         0.2630       0.455000         2.1430
       2938.50        21.8000       158.2280        79.7380         0.6980         0.2630       0.467000         2.1320
       2939.00        21.8000       156.9940        80.9830         0.6980         0.2630       0.474000         2.1190
       2939.50        21.8000       158.8520        80.0580         0.7030         0.2630       0.468000         2.0960
       2940.00        21.8000       160.7090        78.0460         0.7090         0.2630       0.453000         2.0850
       2940.50        21.8000       161.0210        79.2920         0.7140         0.2630       0.468000         2.0930
       2941.00        21.8000       160.7140        77.4370         0.7350         0.2630       0.474000         2.0890
       2941.50        21.8000       158.5530        75.8910         0.7620         0.2630       0.475000         2.1040
       2942.00        21.8000       156.3910        75.5850         0.7900         0.2630       0.471000         2.0660
       2942.50        21.8000       152.0660        74.1940         0.8010         0.2630       0.452000         2.0620
       2943.00        21.8000       148.3590        76.3700         0.7950         0.2630       0.440000         2.1070
       2943.50        21.8000       148.3620        76.6840         0.7730         0.2630       0.429000         2.1390
       2944.00        21.8000       151.1460        77.1540         0.7510         0.2630       0.425000         2.1440
       2944.50        21.8000       156.0950        77.7780         0.7300         0.2630       0.436000         2.1550
       2945.00        21.8000       160.7340        75.9220         0.6990         0.2630       0.465000         2.1500
       2945.50        21.8000       164.1370        79.0290         0.6750         0.2630       0.478000         2.1140
       2946.00        21.8000       163.8300        82.9090         0.6320         0.2630       0.444000         2.0770
       2946.50        21.8000       163.2150        83.5340         0.5890         0.2630       0.437000         2.0720
       2947.00        21.8000       161.9800        81.9880         0.5640         0.2630       0.449000         2.0760
       2947.50        21.8000       163.5290        80.1330         0.5440         0.2630       0.463000         2.0810
       2948.00        21.8000       165.6950        77.8120         0.5320         0.2630       0.481000         2.0640
       2948.50        21.8000       165.6980        73.3200         0.5560         0.2630       0.487000         2.0550
       2949.00        21.8000       164.1550        70.6890         0.5850         0.2630       0.507000         2.0400
       2949.50        21.8000       156.1210        72.2450         0.6190         0.2630       0.502000         2.0530
       2950.00        21.8000       152.1050        76.3880         0.6500         0.2630       0.509000         2.0260
       2950.50        21.8000       148.3980        77.3670         0.6740         0.2630       0.482000         2.0290
       2951.00        21.8000       144.3820        74.1150         0.6990         0.2630       0.459000         2.0530
       2951.50        21.8000       144.0750        75.0480         0.7190         0.2630       0.468000         2.1030
       2952.00        21.8000       145.9500        71.9500         0.7510         0.2630       0.453000         2.1380
       2952.50        21.8000       150.2620        73.1940         0.7780         0.2630       0.462000         2.1250
       2953.00        21.8000       151.8110        75.6770         0.8120         0.2630       0.443000         2.0850
       2953.50        21.8000       153.3590        78.6260         0.8540         0.2630       0.448000         2.0880
