~Version Information Block
VERS .                 2.00:  CWLS LOG ASCII STANDARD - VERSION 2.00
WRAP .                   NO:  One line per depth step
~Well Information Block
#MNEM.UNIT        Data Type   Information
#---------- ----------------  -----------
STRT .FT             140.00:  START DEPTH
STOP .FT            5317.50:  STOP DEPTH
STEP .FT               0.50:  STEP
NULL .              -999.25:  NULL VALUE
COMP .                     :  COMPANY
WELL .                UVA-1:  WELL
FLD  .                     :  FIELD
LOC  .                     :  LOCATION
CTRY .                     :  COUNTRY
STAT .                     :  STATE
CNTY .                     :  COUNTY
SRVC .                     :  SERVICE COMPANY
DATE .                     :  DATE
API  .                     :  API NUMBER
UWI  .                     :  UNIQUE WELL ID
~Curve Information Block
#MNEM.UNIT         API CODE   Curve Description
#---------- ----------------  -----------------
DEPTH.FT                   :  DEPTH CURVE
CALI .IN                   :  
DT   .US/F                 :  
GR   .GAPI                 :  
ILD  .OHMM                 :  
MSFL .OHMM                 :  
NPHI_LS.V/V                  :  
RHOB .G/C3                 :  
~Parameter Information Block
#MNEM.UNIT            Value   Description
#---------- ----------------  -----------
PROJECT.     petro@kponwjlx001:  
SET  .                 WIRE:  
~Other Information Block
# 
~A       DEPTH           CALI             DT             GR            ILD           MSFL        NPHI_LS           RHOB 
# ...
       2317.50        18.0000       135.5460        55.4000         0.8180         1.6000       0.448000         1.8450
       2318.00        17.9000       148.6590        56.4000         0.8400         0.9820       0.485000         1.7690
       2318.50        18.1000       152.2120        56.0000         0.8630         0.8390       0.502000         1.7510
       2319.00        18.0000       151.9620        52.4000         0.8710         0.8870       0.505000         1.7750
       2319.50        18.0000       144.3540        50.4000         0.9210         0.6790       0.490000         1.8010
       2320.00        17.9000       139.9000        46.2000         0.9640         0.6140       0.497000         1.8180
       2320.50        17.7500       126.8370        42.6000         1.0190         1.0960       0.495000         1.8470
       2321.00        17.9000       118.3780        40.8000         1.0960         1.8200       0.460000         1.9200
       2321.50        17.9000       116.7770        39.1000         1.1800         1.7060       0.427000         2.0290
       2322.00        17.9500       118.0280        36.9000         1.2350         1.5850       0.394000         2.0960
       2322.50        18.0500       118.4280        36.8000         1.2580         1.6750       0.387000         2.1270
       2323.00        18.1000       119.2290        37.1000         1.2350         1.7860       0.373000         2.1480
       2323.50        18.1000       119.3790        35.2000         1.2350         1.8370       0.385000         2.1490
       2324.00        18.1000       119.7300        34.2000         1.1900         1.8370       0.399000         2.1670
       2324.50        18.1000       120.4800        33.5000         1.1580         1.8200       0.397000         2.1690
       2325.00        17.9000       121.2310        33.9000         1.1480         1.7700       0.379000         2.1780
       2325.50        17.7500       123.9840        34.5000         1.1370         1.6290       0.381000         2.1690
       2326.00        17.8000       122.1320        36.4000         1.1370         1.5420       0.391000         2.1530
       2326.50        18.0000       121.2310        37.0000         1.1370         1.6140       0.399000         2.1600
       2327.00        18.0000       121.9820        36.5000         1.1370         1.7380       0.419000         2.1710
       2327.50        18.0500       118.8790        34.0000         1.1270         1.6750       0.448000         2.1410
       2328.00        18.1000       120.7810        33.6000         1.1060         1.6750       0.445000         2.1370
       2328.50        18.1000       120.6810        36.9000         1.0660         1.7540       0.431000         2.1430
       2329.00        18.2500       120.9810        39.1000         1.0280         1.6750       0.411000         2.1310
       2329.50        18.2000       127.9880        38.7000         1.0090         1.3430       0.397000         2.1170
       2330.00        18.2500       128.4380        39.9000         1.0090         0.9380       0.418000         2.1050
       2330.50        18.1000       130.4900        39.7000         1.0370         0.9380       0.429000         2.0870
       2331.00        18.0000       133.1930        38.1000         1.0660         1.3430       0.441000         2.0480
       2331.50        18.0000       128.9890        37.6000         1.0660         1.5280       0.468000         2.0180
       2332.00        18.0500       123.9840        36.4000         1.0370         1.3930       0.494000         2.0970
       2332.50        17.9500       122.6830        37.8000         0.9460         1.5850       0.499000         2.1260
       2333.00        17.8500       113.5740        37.2000         0.8170         1.8370       0.486000         2.0890
       2333.50        18.0000       117.6780        39.5000         0.7250         1.8030       0.454000         2.0340
       2334.00        18.5000       130.8410        42.8000         0.6500         1.4190       0.439000         1.9840
       2334.50        19.6500       144.6050        47.2000         0.5930         0.8630       0.442000         1.9450
       2335.00        20.3500       144.6050        47.2000         0.5930         0.5860       0.466000         1.8730
       2335.50        19.9000       165.7260        53.2000         0.5610         0.5400       0.509000         1.7900
       2336.00        18.8000       169.5300        54.1000         0.5360         0.5250       0.544000         1.7710
       2336.50        18.4000       170.1800        53.4000         0.5410         0.5200       0.550000         1.8270
       2337.00        18.2000       166.1260        53.4000         0.5710         0.5860       0.491000         1.8680
       2337.50        18.0500       153.6140        50.0000         0.6320         0.8390       0.451000         1.9140
       2338.00        18.0500       137.9980        45.4000         0.7120         1.3430       0.428000         1.9910
       2338.50        17.8000       124.3840        42.4000         0.8250         2.1090       0.416000         2.0810
       2339.00        17.8500       108.7690        39.4000         0.9040         2.7800       0.425000         2.1280
       2339.50        18.0000       108.0680        36.8000         1.0370         2.2490       0.451000         2.1280
       2340.00        18.4000       119.9800        37.7000         1.1060         1.2470       0.454000         2.0980
       2340.50        18.5000       131.1910        41.3000         1.0660         0.7450       0.454000         2.0300
       2341.00        18.0000       133.5940        43.2000         0.9730         0.9820       0.445000         1.9420
       2341.50        18.0500       136.9470        42.8000         0.8880         1.5280       0.457000         1.9200
       2342.00        18.2000       136.7970        41.6000         0.8320         1.2590       0.476000         1.9420
       2342.50        18.2000       138.5990        40.6000         0.8170         0.9040       0.492000         1.9500
       2343.00        18.2000       146.3060        42.2000         0.8250         0.9550       0.496000         1.9060
       2343.50        18.0500       143.6540        42.6000         0.8250         1.2590       0.473000         1.9040
       2344.00        18.0000       135.1950        40.1000         0.8250         1.5850       0.463000         1.9720
       2344.50        18.0000       133.2430        40.0000         0.8560         1.5560       0.452000         2.0420
       2345.00        17.8500       135.7960        39.8000         0.9210         1.1590       0.458000         2.0690
       2345.50        17.8500       139.1990        38.8000         0.9910         0.8950       0.458000         2.0730
       2346.00        17.7000       132.5930        39.3000         1.0660         1.0960       0.451000         2.0590
       2346.50        17.8000       129.6900        41.2000         1.1160         1.6290       0.442000         2.0560
       2347.00        18.0000       116.1760        39.6000         1.1480         1.5700       0.450000         2.0380
       2347.50        17.9000       111.2710        37.0000         1.1800         1.5420       0.443000         2.0580
       2348.00        17.9000       116.9270        33.5000         1.2460         1.5700       0.443000         2.1000
       2348.50        17.9000       116.0260        33.4000         1.2690         1.6140       0.432000         2.0740
       2349.00        18.0000       120.4800        36.5000         1.2460         1.6750       0.432000         2.0600
       2349.50        18.0500       125.9360        37.3000         1.2120         1.5560       0.449000         2.0800
       2350.00        18.1000       129.7400        39.3000         1.0960         1.3550       0.487000         2.0570
       2350.50        18.0500       131.4910        43.0000         0.9380         1.4060       0.499000         2.0420
