~Version Information Block
VERS .                 2.00:  CWLS LOG ASCII STANDARD - VERSION 2.00
WRAP .                   NO:  One line per depth step
~Well Information Block
#MNEM.UNIT        Data Type   Information
#---------- ----------------  -----------
STRT .FT             140.00:  START DEPTH
STOP .FT            5317.50:  STOP DEPTH
STEP .FT               0.50:  STEP
NULL .              -999.25:  NULL VALUE
COMP .                     :  COMPANY
WELL .                UVA-1:  WELL
FLD  .                     :  FIELD
LOC  .                     :  LOCATION
CTRY .                     :  COUNTRY
STAT .                     :  STATE
CNTY .                     :  COUNTY
SRVC .                     :  SERVICE COMPANY
DATE .                     :  DATE
API  .                     :  API NUMBER
UWI  .                     :  UNIQUE WELL ID
~Curve Information Block
#MNEM.UNIT         API CODE   Curve Description
#---------- ----------------  -----------------
DEPTH.FT                   :  DEPTH CURVE
CALI .IN                   :  
DT   .US/F                 :  
GR   .GAPI                 :  
ILD  .OHMM                 :  
MSFL .OHMM                 :  
NPHI_LS.V/V                  :  
RHOB .G/C3                 :  
~Parameter Information Block
#MNEM.UNIT            Value   Description
#---------- ----------------  -----------
PROJECT.     petro@kponwjlx001:  
SET  .                 WIRE:  
~Other Information Block
# 
~A       DEPTH           CALI             DT             GR            ILD           MSFL        NPHI_LS           RHOB 
# ...
       3490.00        21.8000       110.7750        66.1690         1.0470         0.2630       0.438000         2.0140
       3490.50        21.8000       107.9980        55.6280         1.0620         0.2630       0.408000         2.0180
       3491.00        21.8000       111.3950        51.5980         1.0770         0.2630       0.370000         2.1240
       3491.50        21.8000       118.8040        49.4300         1.1090         0.2630       0.377000         2.2060
       3492.00        21.8000       123.4340        51.1360         1.1170         0.2630       0.389000         2.2030
       3492.50        21.8000       122.2010        52.9980         1.0850         0.2630       0.371000         2.1620
       3493.00        21.8000       120.6590        56.1010         1.0390         0.2630       0.351000         2.1360
       3493.50        21.8000       118.5000        58.5830         1.0030         0.2630       0.348000         2.1520
       3494.00        21.8000       116.3410        59.8250         0.9740         0.2630       0.352000         2.1710
       3494.50        21.8000       114.4910        63.2370         0.9740         0.2630       0.335000         2.1820
       3495.00        21.8000       113.5660        64.6340         0.9810         0.2630       0.348000         2.1930
       3495.50        21.8000       119.1230        66.4960         1.0030         0.2630       0.369000         2.2190
       3496.00        21.8000       124.6800        68.6680         1.0470         0.2630       0.385000         2.2270
       3496.50        21.8000       126.2240        73.4760         1.1170         0.2630       0.397000         2.2210
       3497.00        21.8000       121.5960        75.6470         1.1830         0.2630       0.407000         2.2200
       3497.50        21.8000       114.1900        69.6030         1.2440         0.2630       0.417000         2.2380
       3498.00        21.8000       107.4020        63.0930         1.2710         0.2630       0.385000         2.2300
       3498.50        21.8000       104.6250        58.1330         1.2810         0.2630       0.363000         2.2370
       3499.00        21.8000       104.3180        57.8240         1.2900         0.2630       0.353000         2.2650
       3499.50        21.8000       104.3190        56.8960         1.2990         0.2630       0.343000         2.2260
       3500.00        21.8000       104.9380        52.5580         1.2990         0.2630       0.337000         2.2550
       3500.50        21.8000       106.2120        50.6990         1.2870         0.2630       0.342000         2.2240
       3501.00        21.8000       106.5270        49.1500         1.2600         0.2630       0.346000         2.1940
       3501.50        21.8000       106.8430        49.4620         1.2240         0.2630       0.351000         2.1730
       3502.00        21.8000       106.5410        50.0840         1.1890         0.2630       0.356000         2.1790
       3502.50        21.8000       106.2390        51.0160         1.1630         0.2630       0.360000         2.2000
       3503.00        21.8000       105.5530        51.6370         1.1380         0.2630       0.352000         2.1910
       3503.50        21.8000       105.0190        50.3990         1.1370         0.2630       0.336000         2.1730
       3504.00        21.8000       104.4090        49.3150         1.1290         0.2630       0.334000         2.1770
       3504.50        21.8000       104.4180        47.9210         1.1370         0.2630       0.347000         2.1710
       3505.00        21.8000       104.4250        47.6120         1.1370         0.2630       0.368000         2.1630
       3505.50        21.8000       104.4330        49.3190         1.1450         0.2630       0.360000         2.1740
       3506.00        21.8000       104.4400        50.7160         1.1530         0.2630       0.364000         2.1820
       3506.50        21.8000       104.4470        51.9580         1.1780         0.2630       0.341000         2.1850
       3507.00        21.8000       104.4540        51.1840         1.1860         0.2630       0.330000         2.1900
       3507.50        21.8000       104.4620        49.1700         1.1950         0.2630       0.327000         2.1950
       3508.00        21.8000       104.4690        49.6370         1.1940         0.2630       0.334000         2.2020
       3508.50        21.8000       104.4750        51.1890         1.1940         0.2630       0.325000         2.2040
       3509.00        21.8000       104.4840        52.7410         1.2020         0.2630       0.319000         2.1910
       3509.50        21.8000       104.4910        54.7580         1.1940         0.2630       0.337000         2.1690
       3510.00        21.8000       105.1160        56.1550         1.2020         0.2630       0.352000         2.1760
       3510.50        21.8000       105.1230        56.9310         1.1990         0.2630       0.360000         2.1890
       3511.00        21.8000       105.1300        53.5220         1.1930         0.2630       0.337000         2.1970
       3511.50        21.8000       104.8290        53.2140         1.1930         0.2630       0.327000         2.1860
       3512.00        21.8000       104.5240        52.1300         1.1920         0.2630       0.322000         2.1670
       3512.50        21.8000       105.7680        54.1470         1.1920         0.2630       0.331000         2.1760
       3513.00        21.8000       106.3920        53.6830         1.2000         0.2630       0.341000         2.1880
       3513.50        21.8000       105.1640        52.7550         1.2000         0.2630       0.344000         2.1970
       3514.00        21.8000       105.7900        54.7720         1.2000         0.2630       0.350000         2.1910
       3514.50        21.8000       106.4140        54.4630         1.2000         0.2630       0.356000         2.1670
       3515.00        21.8000       106.7300        55.3950         1.1990         0.2630       0.367000         2.1830
       3515.50        21.8000       107.0460        57.4120         1.1990         0.2630       0.353000         2.1860
       3516.00        21.8000       106.1280        58.3440         1.1990         0.2630       0.347000         2.1810
       3516.50        21.8000       104.5920        55.0890         1.1990         0.2630       0.360000         2.1910
       3517.00        21.8000       104.2890        56.1760         1.2070         0.2630       0.348000         2.1940
       3517.50        21.8000       104.2980        54.9380         1.2160         0.2630       0.339000         2.1780
       3518.00        21.8000       104.3050        52.6130         1.2330         0.2630       0.338000         2.1730
       3518.50        21.8000       106.4730        56.0260         1.2330         0.2630       0.359000         2.1790
       3519.00        21.8000       108.3320        57.4230         1.2320         0.2630       0.370000         2.1950
       3519.50        21.8000       108.9560        55.8740         1.2500         0.2630       0.358000         2.1980
       3520.00        21.8000       108.3450        54.7900         1.3140         0.2630       0.326000         2.2090
       3520.50        21.8000       108.0450        55.1020         1.4220         0.2630       0.324000         2.2160
       3521.00        21.8000       106.2010        58.2060         1.5500         0.2630       0.320000         2.2240
       3521.50        21.8000       101.2700        57.4300         1.6180         0.2630       0.314000         2.2310
       3522.00        21.8000        96.9560        58.9820         1.6170         0.2630       0.300000         2.2470
       3522.50        21.8000        93.5670        58.5180         1.5940         0.2630       0.291000         2.2710
       3523.00        21.8000        96.0440        61.6210         1.4940         0.2630       0.284000         2.2740
