~Version Information Block
VERS .                 2.00:  CWLS LOG ASCII STANDARD - VERSION 2.00
WRAP .                   NO:  One line per depth step
~Well Information Block
#MNEM.UNIT        Data Type   Information
#---------- ----------------  -----------
STRT .FT             140.00:  START DEPTH
STOP .FT            5317.50:  STOP DEPTH
STEP .FT               0.50:  STEP
NULL .              -999.25:  NULL VALUE
COMP .                     :  COMPANY
WELL .                UVA-1:  WELL
FLD  .                     :  FIELD
LOC  .                     :  LOCATION
CTRY .                     :  COUNTRY
STAT .                     :  STATE
CNTY .                     :  COUNTY
SRVC .                     :  SERVICE COMPANY
DATE .                     :  DATE
API  .                     :  API NUMBER
UWI  .                     :  UNIQUE WELL ID
~Curve Information Block
#MNEM.UNIT         API CODE   Curve Description
#---------- ----------------  -----------------
DEPTH.FT                   :  DEPTH CURVE
CALI .IN                   :  
DT   .US/F                 :  
GR   .GAPI                 :  
ILD  .OHMM                 :  
MSFL .OHMM                 :  
NPHI_LS.V/V                  :  
RHOB .G/C3                 :  
~Parameter Information Block
#MNEM.UNIT            Value   Description
#---------- ----------------  -----------
PROJECT.     petro@kponwjlx001:  
SET  .                 WIRE:  
~Other Information Block
# 
~A       DEPTH           CALI             DT             GR            ILD           MSFL        NPHI_LS           RHOB 
# ...
       3188.50        21.8000       134.4260        72.2670         1.0100         0.2630       0.382000         2.1550
       3189.00        21.8000       133.2010        69.1650         1.0390         0.2630       0.399000         2.1110
       3189.50        21.8000       130.7410        70.2490         1.0620         0.2630       0.390000         2.1020
       3190.00        21.8000       120.5520        68.2330         1.0920         0.2630       0.373000         2.1460
       3190.50        21.8000       115.9270        67.7670         1.1000         0.2630       0.380000         2.1430
       3191.00        21.8000       117.7940        68.5420         1.0920         0.2630       0.406000         2.1260
       3191.50        21.8000       123.3710        66.6800         1.0680         0.2630       0.417000         2.0940
       3192.00        21.8000       134.5110        67.9200         1.0300         0.2630       0.435000         2.1190
       3192.50        21.8000       144.7240        71.3300         0.9790         0.2630       0.451000         2.1380
       3193.00        21.8000       148.1380        75.0500         0.9310         0.2630       0.446000         2.1440
       3193.50        21.8000       147.8380        77.0650         0.8790         0.2630       0.450000         2.1410
       3194.00        21.8000       146.3050        80.1650         0.8230         0.2630       0.441000         2.1280
       3194.50        21.8000       144.7720        80.6290         0.7720         0.2630       0.437000         2.1420
       3195.00        21.8000       143.5450        81.0940         0.7340         0.2630       0.443000         2.1440
       3195.50        21.8000       144.4870        82.9530         0.6970         0.2630       0.434000         2.1380
       3196.00        21.8000       146.0450        80.6270         0.6770         0.2630       0.448000         2.1470
       3196.50        21.8000       146.9840        81.5560         0.6550         0.2630       0.445000         2.1400
       3197.00        21.8000       146.9970        83.2610         0.6350         0.2630       0.439000         2.1440
       3197.50        21.8000       146.6970        82.4850         0.6170         0.2630       0.451000         2.1470
       3198.00        21.8000       144.5480        80.6240         0.6160         0.2630       0.447000         2.1440
       3198.50        21.8000       144.5600        81.3980         0.6160         0.2630       0.435000         2.1350
       3199.00        21.8000       144.5730        80.9330         0.6380         0.2630       0.443000         2.1440
       3199.50        21.8000       144.5850        79.6910         0.6710         0.2630       0.446000         2.1300
       3200.00        21.8000       143.9760        80.1560         0.7350         0.2630       0.439000         2.1370
       3200.50        21.8000       140.6080        77.5230         0.7730         0.2630       0.434000         2.1400
       3201.00        21.8000       134.1180        74.2710         0.8180         0.2630       0.415000         2.1310
       3201.50        21.8000       124.5410        76.2910         0.8980         0.2630       0.419000         2.1430
       3202.00        21.8000       121.7550        76.1400         0.9650         0.2630       0.384000         2.1720
       3202.50        21.8000       120.2030        73.3530         1.0150         0.2630       0.368000         2.1870
       3203.00        21.8000       120.8110        71.9600         1.0670         0.2630       0.355000         2.2210
       3203.50        21.8000       132.2220        78.0110         1.0980         0.2630       0.356000         2.2190
       3204.00        21.8000       136.8450        80.6510         1.1060         0.2630       0.374000         2.1820
       3204.50        21.8000       136.5260        80.3440         1.0740         0.2630       0.397000         2.1600
       3205.00        21.8000       135.2830        82.9840         1.0000         0.2630       0.424000         2.1460
       3205.50        21.8000       135.5830        82.6780         0.8910         0.2630       0.406000         2.1180
       3206.00        21.8000       138.6600        81.4420         0.8470         0.2630       0.399000         2.1270
       3206.50        21.8000       141.7380        79.8950         0.8170         0.2630       0.428000         2.1430
       3207.00        21.8000       145.7420        78.3490         0.7940         0.2630       0.449000         2.1180
       3207.50        21.8000       146.9690        78.8170         0.7710         0.2630       0.445000         2.1120
       3208.00        21.8000       141.7120        78.2010         0.7550         0.2630       0.452000         2.1350
       3208.50        21.8000       136.4560        75.7250         0.7490         0.2630       0.467000         2.1460
       3209.00        21.8000       133.0520        73.5570         0.7540         0.2630       0.447000         2.1210
       3209.50        21.8000       131.5020        74.0270         0.7760         0.2630       0.428000         2.1530
       3210.00        21.8000       130.5680        76.5110         0.8340         0.2630       0.421000         2.1710
       3210.50        21.8000       132.4110        74.1890         0.8900         0.2630       0.414000         2.1570
       3211.00        21.8000       133.0210        75.4340         0.9420         0.2630       0.409000         2.1440
       3211.50        21.8000       130.2330        72.3370         0.9910         0.2630       0.414000         2.1380
       3212.00        21.8000       129.9150        72.6510         1.0340         0.2630       0.406000         2.1390
       3212.50        21.8000       130.5240        71.2580         1.0340         0.2630       0.415000         2.1470
       3213.00        21.8000       131.1340        72.6580         1.0120         0.2630       0.419000         2.1520
       3213.50        21.8000       130.5060        70.3370         0.9900         0.2630       0.441000         2.1570
       3214.00        21.8000       130.8060        69.4100         0.9480         0.2630       0.446000         2.1340
       3214.50        21.8000       131.7250        75.6160         0.9150         0.2630       0.414000         2.1140
       3215.00        21.8000       137.2700        73.7590         0.8800         0.2630       0.415000         2.0720
       3215.50        21.8000       145.9040        71.1270         0.8390         0.2630       0.410000         2.0550
       3216.00        21.8000       149.9070        72.6820         0.8140         0.2630       0.423000         2.0170
       3216.50        21.8000       152.0590        72.3750         0.7750         0.2630       0.433000         1.9790
       3217.00        21.8000       152.9780        73.3090         0.7470         0.2630       0.442000         1.9580
       3217.50        21.8000       149.5720        73.1580         0.7210         0.2630       0.449000         1.9010
       3218.00        21.8000       151.4160        75.0220         0.6950         0.2630       0.445000         1.9140
       3218.50        21.8000       150.1720        77.0420         0.6800         0.2630       0.447000         1.9910
       3219.00        21.8000       147.6950        77.6640         0.6660         0.2630       0.466000         1.9990
       3219.50        21.8000       148.3030        74.8780         0.6610         0.2630       0.469000         1.9930
       3220.00        21.8000       150.1460        73.7970         0.6660         0.2630       0.453000         1.9900
       3220.50        21.8000       150.1370        75.8160         0.6660         0.2630       0.455000         2.0070
       3221.00        21.8000       148.5850        77.8360         0.6650         0.2630       0.447000         2.0040
       3221.50        21.8000       146.4160        76.9090         0.6650         0.2630       0.439000         2.0070
