~Version Information Block
VERS .                 2.00:  CWLS LOG ASCII STANDARD - VERSION 2.00
WRAP .                   NO:  One line per depth step
~Well Information Block
#MNEM.UNIT        Data Type   Information
#---------- ----------------  -----------
STRT .FT             140.00:  START DEPTH
STOP .FT            5317.50:  STOP DEPTH
STEP .FT               0.50:  STEP
NULL .              -999.25:  NULL VALUE
COMP .                     :  COMPANY
WELL .                UVA-1:  WELL
FLD  .                     :  FIELD
LOC  .                     :  LOCATION
CTRY .                     :  COUNTRY
STAT .                     :  STATE
CNTY .                     :  COUNTY
SRVC .                     :  SERVICE COMPANY
DATE .                     :  DATE
API  .                     :  API NUMBER
UWI  .                     :  UNIQUE WELL ID
~Curve Information Block
#MNEM.UNIT         API CODE   Curve Description
#---------- ----------------  -----------------
DEPTH.FT                   :  DEPTH CURVE
CALI .IN                   :  
DT   .US/F                 :  
GR   .GAPI                 :  
ILD  .OHMM                 :  
MSFL .OHMM                 :  
NPHI_LS.V/V                  :  
RHOB .G/C3                 :  
~Parameter Information Block
#MNEM.UNIT            Value   Description
#---------- ----------------  -----------
PROJECT.     petro@kponwjlx001:  
SET  .                 WIRE:  
~Other Information Block
# 
~A       DEPTH           CALI             DT             GR            ILD           MSFL        NPHI_LS           RHOB 
# ...
       1446.50        18.6500       172.6830        57.2000         0.7320         0.7800       0.499000         1.8900
       1447.00        18.2000       173.8840        58.2000         0.7190         0.7450       0.518000         1.8940
       1447.50        18.0500       175.2350        58.1000         0.7060         0.7110       0.523000         1.8810
       1448.00        17.9000       175.6860        58.1000         0.6870         0.7310       0.539000         1.8730
       1448.50        17.7500       176.3360        57.6000         0.6740         0.7450       0.567000         1.8700
       1449.00        17.8000       177.2370        60.2000         0.6680         0.7310       0.590000         1.8730
       1449.50        17.7500       177.8880        64.0000         0.6740         0.7450       0.598000         1.8710
       1450.00        17.7500       177.7380        62.4000         0.6930         0.7660       0.563000         1.8740
       1450.50        17.7500       177.1370        61.8000         0.7120         0.7450       0.520000         1.8780
       1451.00        18.0000       175.5860        60.3000         0.7320         0.7800       0.494000         1.8940
       1451.50        18.2000       174.4340        58.6000         0.7590         0.7800       0.477000         1.8990
       1452.00        17.9000       173.3830        59.5000         0.7810         0.7940       0.460000         1.9010
       1452.50        17.9000       172.8330        57.8000         0.7950         0.7940       0.446000         1.9010
       1453.00        17.8000       172.3820        57.4000         0.8100         0.8240       0.427000         1.9000
       1453.50        17.7500       171.6820        54.8000         0.8170         0.8550       0.433000         1.9020
       1454.00        17.6000       172.2820        54.0000         0.8020         0.7940       0.459000         1.8970
       1454.50        17.6000       172.7330        55.2000         0.7810         0.7590       0.469000         1.9180
       1455.00        17.4500       173.8840        53.4000         0.7660         0.7380       0.471000         1.9100
       1455.50        17.6000       174.4340        51.3000         0.7320         0.7110       0.449000         1.8960
       1456.00        17.8000       176.0360        51.7000         0.7060         0.7240       0.432000         1.8930
       1456.50        18.0000       176.9870        51.9000         0.6800         0.7240       0.398000         1.8810
       1457.00        18.0000       178.1880        53.1000         0.6620         0.6920       0.404000         1.8770
       1457.50        18.4000       180.1400        56.4000         0.6440         0.6610       0.432000         1.8770
       1458.00        18.7500       181.7420        58.6000         0.6210         0.6310       0.471000         1.8770
       1458.50        19.0000       182.4420        59.4000         0.5930         0.6310       0.496000         1.8450
       1459.00        18.6500       183.7940        60.8000         0.5660         0.6190       0.504000         1.8320
       1459.50        18.0000       183.9440        63.4000         0.5510         0.6310       0.495000         1.8320
       1460.00        17.8500       183.5940        63.2000         0.5360         0.6610       0.504000         1.8340
       1460.50        17.9000       181.7920        64.6000         0.5360         0.6610       0.519000         1.8410
       1461.00        17.9000       181.4410        63.7000         0.5360         0.6670       0.520000         1.8460
       1461.50        18.0000       181.2410        62.0000         0.5510         0.6850       0.536000         1.8340
       1462.00        18.0000       180.7910        62.7000         0.5710         0.6790       0.538000         1.8420
       1462.50        17.9500       181.1910        58.2000         0.5930         0.6730       0.515000         1.8720
       1463.00        18.0500       180.2400        54.6000         0.6320         0.6730       0.500000         1.8750
       1463.50        18.1000       178.6390        54.0000         0.6680         0.7050       0.496000         1.8820
       1464.00        18.1000       177.1370        56.9000         0.6990         0.7380       0.487000         1.8860
       1464.50        18.0000       175.9360        56.8000         0.7250         0.7180       0.502000         1.8810
       1465.00        18.0000       174.7850        55.8000         0.7390         0.6850       0.506000         1.8770
       1465.50        18.1000       174.0340        56.0000         0.7390         0.6670       0.481000         1.8710
       1466.00        18.1000       173.1830        56.8000         0.7320         0.6790       0.473000         1.8800
       1466.50        18.1000       172.8330        56.0000         0.7190         0.6920       0.473000         1.9010
       1467.00        18.2500       170.8810        53.2000         0.6990         0.6920       0.473000         1.9130
       1467.50        18.4000       170.6310        55.3000         0.6870         0.7110       0.485000         1.9080
       1468.00        18.2000       169.9300        55.4000         0.6680         0.7240       0.492000         1.9050
       1468.50        18.1000       168.2780        54.9000         0.6620         0.7050       0.507000         1.8970
       1469.00        18.1000       167.6280        53.7000         0.6500         0.6730       0.507000         1.9130
       1469.50        18.1000       167.4770        54.4000         0.6440         0.6310       0.481000         1.9400
       1470.00        18.1000       166.9770        54.6000         0.6440         0.6670       0.495000         1.9270
       1470.50        18.1000       167.7780        53.4000         0.6380         0.6980       0.512000         1.9140
       1471.00        17.9000       167.2270        53.0000         0.6320         0.6850       0.508000         1.8850
       1471.50        17.8000       166.7270        53.0000         0.6260         0.7050       0.522000         1.8820
       1472.00        17.7000       165.3750        54.8000         0.6260         0.7240       0.541000         1.8860
       1472.50        17.6000       165.2250        54.5000         0.6260         0.7450       0.537000         1.8880
       1473.00        17.6000       164.7250        53.8000         0.6260         0.7730       0.533000         1.9020
       1473.50        17.6000       163.4730        52.1000         0.6210         0.7590       0.525000         1.9020
       1474.00        17.5000       164.9750        55.4000         0.6090         0.7660       0.532000         1.9060
       1474.50        17.4500       166.1260        55.3000         0.6040         0.7590       0.543000         1.9120
       1475.00        17.4000       163.2230        55.6000         0.5930         0.7310       0.534000         1.9060
       1475.50        17.6000       163.9240        56.4000         0.5930         0.7110       0.519000         1.8880
       1476.00        17.6500       164.3740        55.4000         0.5930         0.6920       0.485000         1.8650
       1476.50        17.7000       165.1250        53.4000         0.5820         0.6610       0.482000         1.8460
       1477.00        17.6000       165.6760        51.6000         0.5930         0.6430       0.492000         1.8190
       1477.50        17.6000       164.2740        53.8000         0.5930         0.6080       0.493000         1.7790
       1478.00        17.3000       163.9240        55.1000         0.6090         0.6250       0.530000         1.7660
       1478.50        17.2000       164.9250        57.8000         0.6260         0.6310       0.549000         1.7660
       1479.00        17.3000       165.9760        59.2000         0.6380         0.6030       0.550000         1.7610
       1479.50        17.4500       168.1780        60.8000         0.6500         0.6310       0.543000         1.7630
