~Version Information Block
VERS .                 2.00:  CWLS LOG ASCII STANDARD - VERSION 2.00
WRAP .                   NO:  One line per depth step
~Well Information Block
#MNEM.UNIT        Data Type   Information
#---------- ----------------  -----------
STRT .FT             140.00:  START DEPTH
STOP .FT            5317.50:  STOP DEPTH
STEP .FT               0.50:  STEP
NULL .              -999.25:  NULL VALUE
COMP .                     :  COMPANY
WELL .                UVA-1:  WELL
FLD  .                     :  FIELD
LOC  .                     :  LOCATION
CTRY .                     :  COUNTRY
STAT .                     :  STATE
CNTY .                     :  COUNTY
SRVC .                     :  SERVICE COMPANY
DATE .                     :  DATE
API  .                     :  API NUMBER
UWI  .                     :  UNIQUE WELL ID
~Curve Information Block
#MNEM.UNIT         API CODE   Curve Description
#---------- ----------------  -----------------
DEPTH.FT                   :  DEPTH CURVE
CALI .IN                   :  
DT   .US/F                 :  
GR   .GAPI                 :  
ILD  .OHMM                 :  
MSFL .OHMM                 :  
NPHI_LS.V/V                  :  
RHOB .G/C3                 :  
~Parameter Information Block
#MNEM.UNIT            Value   Description
#---------- ----------------  -----------
PROJECT.     petro@kponwjlx001:  
SET  .                 WIRE:  
~Other Information Block
# 
~A       DEPTH           CALI             DT             GR            ILD           MSFL        NPHI_LS           RHOB 
# ...
       3791.50        21.8000       121.1420        70.6060         0.9840         0.2630       0.376000         2.2160
       3792.00        21.8000       117.1390        70.9170         1.1860         0.2630       0.372000         2.2280
       3792.50        21.8000       110.9750        66.1120         1.3790         0.2630       0.364000         2.2170
       3793.00        21.8000        98.0210        51.0740         1.7860         0.2630       0.350000         2.2240
       3793.50        21.8000        90.6210        46.8890         2.1990         0.2630       0.330000         2.2620
       3794.00        21.8000        81.3710        44.7190         3.4090         0.2630       0.305000         2.3050
       3794.50        21.8000        76.1330        43.1690         4.1390         0.2630       0.265000         2.4140
       3795.00        21.8000        72.7470        41.3090         4.9180         0.2630       0.247000         2.4710
       3795.50        21.8000        69.3620        40.6900         5.1340         0.2630       0.216000         2.5170
       3796.00        21.8000        67.8270        41.9310         4.0480         0.2630       0.201000         2.5450
       3796.50        21.8000        72.1580        43.3270         3.2390         0.2630       0.188000         2.5530
       3797.00        21.8000        84.2040        42.5530         2.3260         0.2630       0.197000         2.5480
       3797.50        21.8000        97.7930        45.1890         1.8610         0.2630       0.216000         2.5120
       3798.00        21.8000       105.5180        50.6160         1.3470         0.2630       0.264000         2.4600
       3798.50        21.8000       113.5520        52.1670         1.2000         0.2630       0.300000         2.3560
       3799.00        21.8000       114.1790        50.6180         1.0930         0.2630       0.336000         2.2330
       3799.50        21.8000       113.8790        48.2930         0.9600         0.2630       0.340000         2.1850
       3800.00        21.8000       112.3440        45.3480         0.9000         0.2630       0.344000         2.1540
       3800.50        21.8000       111.4690        47.5230         0.8740         0.2630       0.340000         2.1510
       3801.00        21.8000       110.5570        51.2480         0.8610         0.2630       0.334000         2.1750
       3801.50        21.8000       109.6470        52.4920         0.8990         0.2630       0.323000         2.1980
       3802.00        21.8000       109.6670        54.3560         0.9800         0.2630       0.319000         2.2020
       3802.50        21.8000       110.6100        59.0120         1.0610         0.2630       0.325000         2.1840
       3803.00        21.8000       109.3920        59.9450         1.1640         0.2630       0.296000         2.2050
       3803.50        21.8000       104.4700        59.0190         1.3250         0.2630       0.300000         2.1880
       3804.00        21.8000        94.6100        61.8140         1.3930         0.2630       0.312000         2.1760
       3804.50        21.8000        89.3800        60.7320         1.4130         0.2630       0.317000         2.2320
       3805.00        21.8000        90.3220        60.4250         1.4130         0.2630       0.284000         2.2820
       3805.50        21.8000        97.1290        63.0660         1.4230         0.2630       0.279000         2.3100
       3806.00        21.8000       105.1700        62.1390         1.4430         0.2630       0.289000         2.3280
       3806.50        21.8000       108.2730        62.9180         1.4320         0.2630       0.337000         2.2910
       3807.00        21.8000       110.1380        68.9690         1.3620         0.2630       0.352000         2.2230
       3807.50        21.8000       110.4640        70.5230         1.2490         0.2630       0.353000         2.1600
       3808.00        21.8000       110.4800        69.7520         1.1130         0.2630       0.358000         2.1400
       3808.50        21.8000       113.5830        69.9100         1.0360         0.2630       0.370000         2.1430
       3809.00        21.8000       120.3900        70.6900         0.9850         0.2630       0.387000         2.1290
       3809.50        21.8000       127.1970        69.9180         0.9560         0.2630       0.404000         2.0520
       3810.00        21.8000       132.7690        70.5420         0.9420         0.2630       0.427000         1.9970
       3810.50        21.8000       130.3160        73.1820         0.9290         0.2630       0.444000         1.8480
       3811.00        21.8000       121.3820        75.6660         0.9290         0.2630       0.456000         1.7750
       3811.50        21.8000       119.8520        76.1350         0.9290         0.2630       0.457000         1.7850
       3812.00        21.8000       121.4120        76.9130         0.9290         0.2630       0.443000         1.9170
       3812.50        21.8000       118.6540        77.3820         0.9350         0.2630       0.413000         1.9220
       3813.00        21.8000       121.4490        80.1780         0.9490         0.2630       0.416000         1.9050
       3813.50        21.8000       119.9220        77.3910         0.9690         0.2630       0.422000         1.8880
       3814.00        21.8000       120.8650        78.6350         0.9760         0.2630       0.408000         1.8880
       3814.50        21.8000       125.1990        78.3290         0.9760         0.2630       0.416000         1.8500
       3815.00        21.8000       122.7460        80.6580         0.9760         0.2630       0.427000         1.8630
       3815.50        21.8000       127.0870        79.1110         0.9650         0.2630       0.451000         1.8410
       3816.00        21.8000       125.2520        80.2000         0.9480         0.2630       0.469000         1.7970
       3816.50        21.8000       120.9470        76.4840         0.9320         0.2630       0.461000         1.8190
       3817.00        21.8000       123.4330        74.9370         0.9200         0.2630       0.476000         1.8150
       3817.50        21.8000       122.8320        76.1820         0.9170         0.2630       0.455000         1.8010
       3818.00        21.8000       121.9200        78.8210         0.9140         0.2630       0.443000         1.7680
       3818.50        21.8000       126.8780        78.0500         0.9130         0.2630       0.432000         1.7430
       3819.00        21.8000       127.2000        78.2080         0.9070         0.2630       0.440000         1.7840
       3819.50        21.8000       124.7510        80.5370         0.9060         0.2630       0.426000         1.8040
       3820.00        21.8000       126.6190        78.9910         0.9060         0.2630       0.431000         1.8160
       3820.50        21.8000       128.4840        77.2880         0.9060         0.2630       0.446000         1.8940
       3821.00        21.8000       125.7230        78.9980         0.9000         0.2630       0.449000         1.9150
       3821.50        21.8000       125.1260        81.1730         0.8990         0.2630       0.424000         2.0070
       3822.00        21.8000       123.2900        82.8820         0.8930         0.2630       0.430000         2.0210
       3822.50        21.8000       125.1590        81.9560         0.8860         0.2630       0.425000         2.0320
       3823.00        21.8000       131.0400        81.8040         0.8800         0.2630       0.418000         2.0360
       3823.50        21.8000       131.6730        81.9630         0.8670         0.2630       0.404000         1.9950
       3824.00        21.8000       129.5290        81.0360         0.8480         0.2630       0.392000         1.9940
       3824.50        21.8000       125.5340        81.9700         0.8300         0.2630       0.387000         2.0050
