~Version Information Block
VERS .                 2.00:  CWLS LOG ASCII STANDARD - VERSION 2.00
WRAP .                   NO:  One line per depth step
~Well Information Block
#MNEM.UNIT        Data Type   Information
#---------- ----------------  -----------
STRT .FT             140.00:  START DEPTH
STOP .FT            5317.50:  STOP DEPTH
STEP .FT               0.50:  STEP
NULL .              -999.25:  NULL VALUE
COMP .                     :  COMPANY
WELL .                UVA-1:  WELL
FLD  .                     :  FIELD
LOC  .                     :  LOCATION
CTRY .                     :  COUNTRY
STAT .                     :  STATE
CNTY .                     :  COUNTY
SRVC .                     :  SERVICE COMPANY
DATE .                     :  DATE
API  .                     :  API NUMBER
UWI  .                     :  UNIQUE WELL ID
~Curve Information Block
#MNEM.UNIT         API CODE   Curve Description
#---------- ----------------  -----------------
DEPTH.FT                   :  DEPTH CURVE
CALI .IN                   :  
DT   .US/F                 :  
GR   .GAPI                 :  
ILD  .OHMM                 :  
MSFL .OHMM                 :  
NPHI_LS.V/V                  :  
RHOB .G/C3                 :  
~Parameter Information Block
#MNEM.UNIT            Value   Description
#---------- ----------------  -----------
PROJECT.     petro@kponwjlx001:  
SET  .                 WIRE:  
~Other Information Block
# 
~A       DEPTH           CALI             DT             GR            ILD           MSFL        NPHI_LS           RHOB 
# ...
        843.50      -999.2500      -999.2500        40.9310      -999.2500      -999.2500    -999.250000      -999.2500
        844.00      -999.2500      -999.2500        41.1260      -999.2500      -999.2500    -999.250000      -999.2500
        844.50      -999.2500      -999.2500        39.8140      -999.2500      -999.2500    -999.250000      -999.2500
        845.00      -999.2500      -999.2500        40.7050      -999.2500      -999.2500    -999.250000      -999.2500
        845.50      -999.2500      -999.2500        40.4540      -999.2500      -999.2500    -999.250000      -999.2500
        846.00      -999.2500      -999.2500        38.9580      -999.2500      -999.2500    -999.250000      -999.2500
        846.50      -999.2500      -999.2500        37.8270      -999.2500      -999.2500    -999.250000      -999.2500
        847.00      -999.2500      -999.2500        37.6190      -999.2500      -999.2500    -999.250000      -999.2500
        847.50      -999.2500      -999.2500        37.2360      -999.2500      -999.2500    -999.250000      -999.2500
        848.00      -999.2500      -999.2500        39.3490      -999.2500      -999.2500    -999.250000      -999.2500
        848.50      -999.2500      -999.2500        42.0200      -999.2500      -999.2500    -999.250000      -999.2500
        849.00      -999.2500      -999.2500        46.8390      -999.2500      -999.2500    -999.250000      -999.2500
        849.50      -999.2500      -999.2500        48.3500      -999.2500      -999.2500    -999.250000      -999.2500
        850.00        22.4500      -999.2500        47.5930      -999.2500         0.2940    -999.250000      -999.2500
        850.50        22.4000      -999.2500        46.6610      -999.2500         0.3080    -999.250000      -999.2500
        851.00        22.4000       202.0620        46.6630         0.4340         0.3080       0.575000         1.4950
        851.50        22.4000       200.6110        46.8340         0.5560         0.3160       0.560000         1.4990
        852.00        22.2000       200.7110        47.0170         0.6680         0.3160       0.524000         1.4990
        852.50        21.7500       200.1600        50.1470         0.6990         0.3050       0.505000         1.5130
        853.00        21.2500       199.9100        52.0280         0.7320         0.3280       0.521000         1.5230
        853.50        20.8000       200.0100        53.1860         0.7460         0.4090       0.541000         1.5390
        854.00        20.4000       199.6100        53.6000         0.7810         0.5550       0.555000         1.5600
        854.50        20.0500       199.7600        53.6240         0.8100         0.6490       0.530000         1.5990
        855.00        19.8500       200.4100        54.6410         0.8630         0.6430       0.519000         1.6250
        855.50        19.6500       199.0090        56.3540         0.8960         0.5920       0.523000         1.6580
        856.00        19.3500       198.1080        57.7390         0.9210         0.5010       0.570000         1.6840
        856.50        19.2000       197.6580        58.2580         0.9210         0.5150       0.574000         1.6870
        857.00        19.0000       196.3560        62.4020         0.9120         0.5810       0.569000         1.6850
        857.50        18.9000       196.8070        63.2710         0.8960         0.6080       0.556000         1.6930
        858.00        18.8500       196.9570        64.4790         0.8710         0.6140       0.568000         1.6970
        858.50        18.8500       197.4070        66.1670         0.8560         0.6310       0.563000         1.7030
        859.00        18.9500       197.4070        70.0680         0.8480         0.6550       0.539000         1.7030
        859.50        19.1000       197.4070        72.4100         0.8400         0.6430       0.554000         1.7050
        860.00        19.0000       197.4070        72.3530         0.8400         0.6730       0.565000         1.7180
        860.50        19.0000       197.0070        73.8000         0.8320         0.6730       0.555000         1.7230
        861.00        19.0000       197.1570        71.2000         0.8320         0.6920       0.552000         1.7370
        861.50        19.1000       197.2070        72.1000         0.8320         0.6790       0.569000         1.7630
        862.00        19.2000       196.6070        73.2000         0.8320         0.6790       0.560000         1.7810
        862.50        19.0500       197.2070        73.4000         0.8250         0.6610       0.564000         1.7870
        863.00        19.0000       197.6580        74.3000         0.8170         0.5700       0.550000         1.7690
        863.50        19.2000       196.7070        74.4000         0.8020         0.5110       0.534000         1.7460
        864.00        19.6000       196.7070        74.0000         0.8020         0.5440       0.501000         1.7340
        864.50        19.8500       196.6570        72.9000         0.8020         0.6140       0.498000         1.7220
        865.00        20.2000       196.6070        73.7000         0.7950         0.6610       0.518000         1.7300
        865.50        20.6000       196.6570        74.2000         0.7950         0.7240       0.528000         1.7360
        866.00        20.8500       196.9570        76.4000         0.7810         0.7450       0.528000         1.7230
        866.50        21.0000       197.1570        75.4000         0.7810         0.7310       0.510000         1.7140
        867.00        21.1000       196.6070        74.4000         0.7730         0.7310       0.490000         1.6890
        867.50        21.1000       196.8570        72.0000         0.7730         0.7310       0.505000         1.6840
        868.00        21.0000       197.0570        71.2000         0.7730         0.7050       0.519000         1.6860
        868.50        20.9000       197.2070        73.2000         0.7730         0.6610       0.522000         1.6740
        869.00        20.8000       197.6580        71.2000         0.7730         0.6430       0.530000         1.6700
        869.50         8.0000       197.4070        71.8000         0.7810         0.6550       0.553000         1.6630
        870.00        20.8000       197.4070        70.5000         0.7810         0.6610       0.556000         1.6700
        870.50        20.8000       197.6580        69.0000         0.7810         0.6790       0.562000         1.6760
        871.00        20.9000       197.9080        69.2000         0.7810         0.7240       0.563000         1.6780
        871.50        21.0000       198.2080        71.5000         0.7810         0.7310       0.557000         1.6910
        872.00        21.1000       198.2080        71.7000         0.7810         0.6790       0.568000         1.6900
        872.50        21.2500       198.5090        70.6000         0.7810         0.6790       0.601000         1.6950
        873.00        21.2500       198.6590        68.7000         0.7730         0.7240       0.583000         1.6900
        873.50        21.3000       198.9590        69.3000         0.7730         0.7590       0.529000         1.6870
        874.00        21.2500       199.2090        72.2000         0.7730         0.6920       0.492000         1.6950
        874.50        21.2000       199.1090        73.6000         0.7730         0.6610       0.466000         1.7050
        875.00        21.3000       199.2090        74.8000         0.7730         0.6550       0.489000         1.7040
        875.50        21.3000       199.1590        75.3000         0.7730         0.5810       0.503000         1.6990
        876.00        21.2000       199.1090        76.4000         0.7730         0.5440       0.495000         1.6970
        876.50        21.1500       199.2090        74.6000         0.7730         0.5860       0.518000         1.6980
