~Version Information Block
VERS .                 2.00:  CWLS LOG ASCII STANDARD - VERSION 2.00
WRAP .                   NO:  One line per depth step
~Well Information Block
#MNEM.UNIT        Data Type   Information
#---------- ----------------  -----------
STRT .FT             140.00:  START DEPTH
STOP .FT            5317.50:  STOP DEPTH
STEP .FT               0.50:  STEP
NULL .              -999.25:  NULL VALUE
COMP .                     :  COMPANY
WELL .                UVA-1:  WELL
FLD  .                     :  FIELD
LOC  .                     :  LOCATION
CTRY .                     :  COUNTRY
STAT .                     :  STATE
CNTY .                     :  COUNTY
SRVC .                     :  SERVICE COMPANY
DATE .                     :  DATE
API  .                     :  API NUMBER
UWI  .                     :  UNIQUE WELL ID
~Curve Information Block
#MNEM.UNIT         API CODE   Curve Description
#---------- ----------------  -----------------
DEPTH.FT                   :  DEPTH CURVE
CALI .IN                   :  
DT   .US/F                 :  
GR   .GAPI                 :  
ILD  .OHMM                 :  
MSFL .OHMM                 :  
NPHI_LS.V/V                  :  
RHOB .G/C3                 :  
~Parameter Information Block
#MNEM.UNIT            Value   Description
#---------- ----------------  -----------
PROJECT.     petro@kponwjlx001:  
SET  .                 WIRE:  
~Other Information Block
# 
~A       DEPTH           CALI             DT             GR            ILD           MSFL        NPHI_LS           RHOB 
# ...
       4093.00        21.8000       108.8740        52.5690         0.9190         0.2630       0.338000         2.1940
       4093.50        21.8000       109.4920        47.3060         0.9250         0.2630       0.347000         2.1610
       4094.00        21.8000       111.3450        42.1970         0.8920         0.2630       0.343000         2.1470
       4094.50        21.8000       111.9630        42.0420         0.8670         0.2630       0.331000         2.1430
       4095.00        21.8000       110.4210        42.1970         0.8790         0.2630       0.319000         2.1600
       4095.50        21.8000       111.9660        40.0300         0.9050         0.2630       0.314000         2.1560
       4096.00        21.8000       110.1150        39.8750         0.9520         0.2630       0.320000         2.1580
       4096.50        21.8000       100.5480        40.9590         1.0380         0.2630       0.317000         2.2310
       4097.00        21.8000        93.7590        41.4240         1.1070         0.2630       0.288000         2.2890
       4097.50        21.8000        80.1800        42.0430         1.1900         0.2630       0.243000         2.3590
       4098.00        21.8000        67.8350        40.6500         1.2160         0.2630       0.233000         2.3750
       4098.50        21.8000        65.0580        43.2820         1.1230         0.2630       0.242000         2.3520
       4099.00        21.8000        73.0840        43.4360         1.0910         0.2630       0.279000         2.3000
       4099.50        21.8000       109.8140        47.7710         1.0990         0.2630       0.387000         2.1230
       4100.00        21.8000       123.0860        51.1760         1.0530         0.2630       0.433000         2.0350
       4100.50        21.8000       129.6590        61.8400         0.9050         0.2630       0.480000         1.8180
       4101.00        21.8000       127.8050        66.1730         0.7840         0.2630       0.423000         1.8690
       4101.50        21.8000       117.0010        68.6480         0.7140         0.2630       0.411000         1.9840
       4102.00        21.8000       116.0740        70.3490         0.6880         0.2630       0.423000         1.9720
       4102.50        21.8000       119.7750        71.2760         0.6780         0.2630       0.428000         1.9520
       4103.00        21.8000       118.5390        72.5120         0.6780         0.2630       0.433000         1.9320
       4103.50        21.8000       116.6860        70.9630         0.6930         0.2630       0.455000         1.9410
       4104.00        21.8000       117.9180        69.7220         0.7080         0.2630       0.459000         1.9330
       4104.50        21.8000       120.0770        68.9470         0.7130         0.2630       0.469000         1.9580
       4105.00        21.8000       119.7670        70.1840         0.7080         0.2630       0.472000         1.9800
       4105.50        21.8000       121.9260        67.7040         0.6980         0.2630       0.438000         1.9760
       4106.00        21.8000       119.1460        65.3810         0.6780         0.2630       0.426000         1.9670
       4106.50        21.8000       120.9960        65.9990         0.6730         0.2630       0.445000         2.0180
       4107.00        21.8000       118.8340        64.2940         0.7080         0.2630       0.442000         2.0260
       4107.50        21.8000       117.9070        67.5430         0.7390         0.2630       0.412000         1.9980
       4108.00        21.8000       116.6700        69.2440         0.8480         0.2630       0.376000         1.9730
       4108.50        21.8000       110.1870        66.6110         1.0600         0.2630       0.369000         1.9310
       4109.00        21.8000        98.7660        63.5130         1.1890         0.2630       0.377000         1.9150
       4109.50        21.8000        87.6530        56.7000         1.4130         0.2630       0.354000         2.0460
       4110.00        21.8000        82.0950        48.6490         1.9260         0.2630       0.335000         2.1090
       4110.50        21.8000        79.0070        42.1450         2.2570         0.2630       0.282000         2.3990
       4111.00        21.8000        84.5610        33.9390         2.6440         0.2630       0.271000         2.3640
       4111.50        21.8000        86.7200        33.0080         3.1890         0.2630       0.278000         2.3710
       4112.00        21.8000        85.4840        34.7090         3.7630         0.2630       0.270000         2.3440
       4112.50        21.8000        87.0250        35.4820         3.5010         0.2630       0.282000         2.3530
       4113.00        21.8000        84.2460        37.8020         2.7210         0.2630       0.285000         2.3230
       4113.50        21.8000        79.6140        38.4200         1.8180         0.2630       0.282000         2.2920
       4114.00        21.8000        85.7850        37.1800         1.4750         0.2630       0.290000         2.2540
       4114.50        21.8000       103.0680        41.5120         1.2680         0.2630       0.307000         2.1710
       4115.00        21.8000       114.4860        49.5600         1.1060         0.2630       0.332000         1.9680
       4115.50        21.8000       122.2000        54.5110         0.9170         0.2630       0.383000         1.7710
       4116.00        21.8000       129.2970        56.5220         0.8060         0.2630       0.416000         1.7370
       4116.50        21.8000       128.3700        60.0800         0.7080         0.2630       0.429000         1.7830
       4117.00        21.8000       125.2820        59.3050         0.6400         0.2630       0.431000         1.8010
       4117.50        21.8000       126.5140        58.2190         0.6130         0.2630       0.422000         1.9050
       4118.00        21.8000       126.8220        59.1460         0.6130         0.2630       0.443000         2.0200
       4118.50        21.8000       124.0420        60.3830         0.6350         0.2630       0.459000         2.0710
       4119.00        21.8000       124.0400        61.3100         0.6630         0.2630       0.469000         2.0960
       4119.50        21.8000       122.1870        62.2370         0.6880         0.2630       0.446000         2.1550
       4120.00        21.8000       116.6300        61.4610         0.6920         0.2630       0.388000         2.1700
       4120.50        21.8000       111.3810        61.3050         0.6920         0.2630       0.376000         2.2350
       4121.00        21.8000       109.8360        60.0640         0.6870         0.2630       0.358000         2.2550
       4121.50        21.8000       115.3900        61.9200         0.6820         0.2630       0.363000         2.2940
       4122.00        21.8000       122.1780        70.5870         0.6630         0.2630       0.388000         2.3050
       4122.50        21.8000       124.0290        71.5140         0.6300         0.2630       0.401000         2.2960
       4123.00        21.8000       121.8660        72.4410         0.5990         0.2630       0.420000         2.2910
       4123.50        21.8000       123.0990        73.3680         0.5730         0.2630       0.434000         2.2540
       4124.00        21.8000       124.0240        70.5800         0.5460         0.2630       0.446000         2.2650
       4124.50        21.8000       122.7870        69.4950         0.5230         0.2630       0.459000         2.2580
       4125.00        21.8000       126.4890        69.9580         0.5080         0.2630       0.468000         2.1920
       4125.50        21.8000       128.3390        69.3370         0.5040         0.2630       0.470000         2.2030
       4126.00        21.8000       130.1890        67.6320         0.5150         0.2630       0.449000         2.2240
