~Version Information Block
VERS .                 2.00:  CWLS LOG ASCII STANDARD - VERSION 2.00
WRAP .                   NO:  One line per depth step
~Well Information Block
#MNEM.UNIT        Data Type   Information
#---------- ----------------  -----------
STRT .FT             140.00:  START DEPTH
STOP .FT            5317.50:  STOP DEPTH
STEP .FT               0.50:  STEP
NULL .              -999.25:  NULL VALUE
COMP .                     :  COMPANY
WELL .                UVA-1:  WELL
FLD  .                     :  FIELD
LOC  .                     :  LOCATION
CTRY .                     :  COUNTRY
STAT .                     :  STATE
CNTY .                     :  COUNTY
SRVC .                     :  SERVICE COMPANY
DATE .                     :  DATE
API  .                     :  API NUMBER
UWI  .                     :  UNIQUE WELL ID
~Curve Information Block
#MNEM.UNIT         API CODE   Curve Description
#---------- ----------------  -----------------
DEPTH.FT                   :  DEPTH CURVE
CALI .IN                   :  
DT   .US/F                 :  
GR   .GAPI                 :  
ILD  .OHMM                 :  
MSFL .OHMM                 :  
NPHI_LS.V/V                  :  
RHOB .G/C3                 :  
~Parameter Information Block
#MNEM.UNIT            Value   Description
#---------- ----------------  -----------
PROJECT.     petro@kponwjlx001:  
SET  .                 WIRE:  
~Other Information Block
# 
~A       DEPTH           CALI             DT             GR            ILD           MSFL        NPHI_LS           RHOB 
# ...
       5265.50         7.3180        61.8080        51.3000         1.7700         0.5490       0.323000         2.1730
       5266.00         7.2730        65.8930        49.6000         1.8540         0.5440       0.307000         2.2520
       5266.50         7.2730        70.7930        48.5000         1.9950         0.5390       0.294000         2.2550
       5267.00         7.2270        75.6930        46.8000         2.1680         0.5390       0.269000         2.2710
       5267.50         7.2730        75.7660        47.7000         2.3120         0.5390       0.244000         2.3620
       5268.00         7.2730        75.8380        48.0000         2.3990         0.5340       0.228000         2.3760
       5268.50         7.2730        75.9110        47.8000         2.3990         0.5340       0.209000         2.3300
       5269.00         7.2730        75.9840        47.8000         2.3770         0.5340       0.200000         2.3230
       5269.50         7.3180        76.0560        47.8000         2.3990         0.5290       0.203000         2.2810
       5270.00         7.3640        76.1290        48.0000         2.4660         0.5190       0.215000         2.2630
       5270.50         7.3180        76.2020        48.0000         2.5590         0.5150       0.237000         2.2410
       5271.00         7.3180        76.2740        48.0000         2.6790         0.5150       0.266000         2.2030
       5271.50         7.3640        76.3470        47.8000         2.7290         0.5170       0.279000         2.1950
       5272.00         7.3640        76.4190        48.0000         2.7290         0.5190       0.285000         2.2070
       5272.50         7.3640        76.4920        48.0000         2.8050         0.5390       0.272000         2.2550
       5273.00         7.4090        76.5020        48.0000         2.9650         0.5490       0.251000         2.3070
       5273.50         7.4090        76.5120        47.8000         3.1050         0.5640       0.222000         2.3410
       5274.00         7.4550        76.5210        48.0000         3.2210         0.5640       0.190000         2.3790
       5274.50         7.4090        76.5310        47.8000         3.2510         0.5750       0.176000         2.3930
       5275.00         7.4090        76.5410        48.0000         3.2210         0.5750       0.169000         2.4250
       5275.50         7.4550        76.5510        48.0000         3.1920         0.5860       0.160000         2.4100
       5276.00         7.5450        76.5610        48.0000         2.9650         0.5960       0.163000         2.3990
       5276.50         7.5450        76.5700        48.0000         2.6550         0.6080       0.182000         2.3650
       5277.00         7.4550        76.5800        47.8000         2.3330         0.6190       0.212000         2.3410
       5277.50         7.4550        76.5900        48.0000         2.1680         0.6300       0.221000         2.3020
       5278.00         7.5000        76.6000        47.8000         2.0510         0.6480       0.225000         2.2900
       5278.50         7.4550        76.6090        47.7000         1.9770         0.6540       0.228000         2.2660
       5279.00         7.5000        76.6800        47.7000         1.9230         0.6600       0.232000         2.2620
       5279.50         7.5450        76.7500        47.8000         1.8710         0.6660       0.239000         2.2780
       5280.00         7.5450        76.8200        47.8000         1.8710         0.6980       0.243000         2.3000
       5280.50         7.5450        76.8900        47.8000         1.8710         0.7240       0.218000         2.2940
       5281.00         7.5450        76.9600        47.8000         1.9590         0.7370       0.219000         2.3060
       5281.50         7.6360        77.0310        48.0000         2.0320         0.7720       0.220000         2.3280
       5282.00         7.6360        77.1010        48.0000         2.1480         0.8090       0.201000         2.3210
       5282.50         7.5910        77.1710        47.7000         2.2080         0.8240       0.202000         2.3140
       5283.00         7.6360        77.2410        48.0000         2.2700         0.8550       0.212000         2.3160
       5283.50         7.6820        77.3120        48.0000         2.3120         0.8950       0.211000         2.3180
       5284.00         7.6360        77.2120        48.0000         2.3770         0.9290       0.210000         2.3240
       5284.50         7.6820        77.1130        47.7000         2.4210         0.9820       0.215000         2.3320
       5285.00         7.6820        77.0130        47.8000         2.4890         1.0380       0.210000         2.3440
       5285.50         7.6820        76.9140        47.8000         2.5120         1.1270       0.205000         2.3340
       5286.00         7.6360        76.8150        48.0000         2.5120         1.3310       0.208000         2.3230
       5286.50         7.6820        76.7150        47.8000         2.4890         1.6310       0.213000         2.3330
       5287.00         7.6360        76.6160        47.7000         2.4660         1.9080       0.218000         2.3430
       5287.50         7.6820        76.5170        48.0000         2.5120         2.0730       0.219000         2.3210
       5288.00         7.6820        76.4170        47.7000         2.5590         2.1310       0.212000         2.3330
       5288.50         7.6820        76.3180        47.7000         2.6300         2.0540       0.211000         2.3770
       5289.00         7.6820        76.2190        47.8000         2.6790         2.0350       0.216000         2.3970
       5289.50         7.6820        76.1190        47.7000         2.6790         2.0170       0.207000         2.3950
       5290.00         7.6360        76.0200        48.0000         2.7800         1.9980       0.205000         2.3830
       5290.50      -999.2500      -999.2500      -999.2500      -999.2500      -999.2500       0.210000      -999.2500
       5291.00      -999.2500      -999.2500      -999.2500      -999.2500      -999.2500       0.210000      -999.2500
       5291.50      -999.2500      -999.2500      -999.2500      -999.2500      -999.2500       0.209000      -999.2500
       5292.00      -999.2500      -999.2500      -999.2500      -999.2500      -999.2500       0.205000      -999.2500
       5292.50      -999.2500      -999.2500      -999.2500      -999.2500      -999.2500       0.197000      -999.2500
       5293.00      -999.2500      -999.2500      -999.2500      -999.2500      -999.2500       0.192000      -999.2500
       5293.50      -999.2500      -999.2500      -999.2500      -999.2500      -999.2500       0.191000      -999.2500
       5294.00      -999.2500      -999.2500      -999.2500      -999.2500      -999.2500       0.187000      -999.2500
       5294.50      -999.2500      -999.2500      -999.2500      -999.2500      -999.2500       0.174000      -999.2500
       5295.00      -999.2500      -999.2500      -999.2500      -999.2500      -999.2500       0.175000      -999.2500
       5295.50      -999.2500      -999.2500      -999.2500      -999.2500      -999.2500       0.193000      -999.2500
       5296.00      -999.2500      -999.2500      -999.2500      -999.2500      -999.2500       0.220000      -999.2500
       5296.50      -999.2500      -999.2500      -999.2500      -999.2500      -999.2500       0.225000      -999.2500
       5297.00      -999.2500      -999.2500      -999.2500      -999.2500      -999.2500       0.226000      -999.2500
       5297.50      -999.2500      -999.2500      -999.2500      -999.2500      -999.2500       0.222000      -999.2500
       5298.00      -999.2500      -999.2500      -999.2500      -999.2500      -999.2500       0.212000      -999.2500
       5298.50      -999.2500      -999.2500      -999.2500      -999.2500      -999.2500       0.198000      -999.2500
