~Version Information Block
VERS .                 2.00:  CWLS LOG ASCII STANDARD - VERSION 2.00
WRAP .                   NO:  One line per depth step
~Well Information Block
#MNEM.UNIT        Data Type   Information
#---------- ----------------  -----------
STRT .FT             140.00:  START DEPTH
STOP .FT            5317.50:  STOP DEPTH
STEP .FT               0.50:  STEP
NULL .              -999.25:  NULL VALUE
COMP .                     :  COMPANY
WELL .                UVA-1:  WELL
FLD  .                     :  FIELD
LOC  .                     :  LOCATION
CTRY .                     :  COUNTRY
STAT .                     :  STATE
CNTY .                     :  COUNTY
SRVC .                     :  SERVICE COMPANY
DATE .                     :  DATE
API  .                     :  API NUMBER
UWI  .                     :  UNIQUE WELL ID
~Curve Information Block
#MNEM.UNIT         API CODE   Curve Description
#---------- ----------------  -----------------
DEPTH.FT                   :  DEPTH CURVE
CALI .IN                   :  
DT   .US/F                 :  
GR   .GAPI                 :  
ILD  .OHMM                 :  
MSFL .OHMM                 :  
NPHI_LS.V/V                  :  
RHOB .G/C3                 :  
~Parameter Information Block
#MNEM.UNIT            Value   Description
#---------- ----------------  -----------
PROJECT.     petro@kponwjlx001:  
SET  .                 WIRE:  
~Other Information Block
# 
~A       DEPTH           CALI             DT             GR            ILD           MSFL        NPHI_LS           RHOB 
# ...
       4964.00        21.8000        73.7360        45.4890         1.3520         0.2630       0.365000         1.9310
       4964.50        21.8000        76.8140        46.2670         1.3310         0.2630       0.365000         1.9240
       4965.00        21.8000        81.1230        45.3430         1.2910         0.2630       0.364000         1.9270
       4965.50        21.8000       102.9710        47.9770         1.2520         0.2630       0.360000         1.9130
       4966.00        21.8000       107.5880        51.0740         1.2240         0.2630       0.353000         1.9160
       4966.50        21.8000       122.3590        51.5430         1.1960         0.2630       0.332000         1.9260
       4967.00        21.8000       150.9760        50.1570         1.1870         0.2630       0.297000         1.9140
       4967.50        21.8000       141.1310        51.0900         1.1860         0.2630       0.298000         1.9210
       4968.00        21.8000       153.1330        51.4030         1.1860         0.2630       0.298000         1.9140
       4968.50        21.8000       175.5960        50.1720         1.1770         0.2630       0.298000         1.9180
       4969.00        21.8000       166.3660        54.9690         1.1760         0.2630       0.298000         1.9240
       4969.50        21.8000       176.5220        57.2930         1.1760         0.2630       0.298000         1.9110
       4970.00        21.8000       127.6000        57.9150         1.1660         0.2630       0.299000         1.8910
       4970.50        21.8000       155.9100        57.7650         1.1660         0.2630       0.299000         1.8890
       4971.00        21.8000       171.9110        56.8440         1.1740         0.2630       0.299000         1.8900
       4971.50        21.8000       116.8360        56.0760         1.1740         0.2630       0.299000         1.8900
       4972.00        21.8000       130.6830        55.3080         1.1730         0.2630       0.299000         1.8900
       4972.50        21.8000       123.6070        56.7040         1.1910         0.2630       0.300000         1.8900
       4973.00        21.8000       173.7630        55.4730         1.2080         0.2630       0.300000         1.8910
       4973.50        21.8000       132.8420        57.4880         1.2260         0.2630       0.300000         1.8910
       4974.00        21.8000       158.6890        58.7300         1.2250         0.2630       0.300000         1.8910
       4974.50        21.8000       141.1520        56.8800         1.2250         0.2630       0.301000         1.8910
       4975.00        21.8000       139.0000        54.7220         1.2240         0.2630       0.301000         1.8920
       4975.50        21.8000       159.6170        55.3450         1.2150         0.2630       0.301000         1.8920
       4976.00        21.8000       174.3880        54.7320         1.2050         0.2630       0.301000         1.8920
       4976.50        21.8000       148.2360        52.8830         1.2040         0.2630       0.301000         1.8930
       4977.00        21.8000       174.3910        53.3520         1.1860         0.2630       0.302000         1.8930
       4977.50        21.8000       173.7770        52.4300         1.1860         0.2630       0.302000         1.8930
       4978.00        21.8000       171.3170        50.7350         1.1940         0.2630       0.302000         1.8930
       4978.50        21.8000       165.1650        48.2670         1.2030         0.2630       0.302000         1.8940
       4979.00        21.8000       161.7820        48.5810         1.2200         0.2630       0.302000         1.8940
       4979.50        21.8000       157.7830        50.1310         1.2380         0.2630       0.303000         1.8940
       4980.00        21.8000       149.7850        49.2090         1.2380         0.2630       0.303000         1.8940
       4980.50        21.8000       151.3250        50.7610         1.2190         0.2630       0.303000         1.8950
       4981.00        21.8000       148.5570        49.5300         1.0890         0.2630       0.303000         1.8950
       4981.50        21.8000       134.0970        47.3710         1.0250         0.2630       0.303000         1.8950
       4982.00        21.8000       112.8680        46.6020         0.9940         0.2630       0.304000         1.8950
       4982.50        21.8000       110.4080        50.3180         0.9940         0.2630       0.304000         1.8960
       4983.00        21.8000       108.8710        49.8590         0.9930         0.2630       0.449000         1.8960
       4983.50        21.8000       106.7180        49.7090         0.9930         0.2630       0.449000         1.8960
       4984.00        21.8000       100.8740        50.4880         0.9930         0.2630       0.449000         1.8970
       4984.50        21.8000        80.2600        49.8750         0.9850         0.2630       0.448000         1.8970
       4985.00        21.8000        71.3390        48.7970         0.9840         0.2630       0.448000         1.8970
       4985.50        21.8000        69.8020        49.7310         0.9840         0.2630       0.448000         1.8970
       4986.00        21.8000        72.5720        51.1270         0.9910         0.2630       0.448000         1.8980
       4986.50        21.8000        71.0350        52.3690         0.9900         0.2630       0.448000         1.8980
       4987.00        21.8000        69.1910        51.6010         0.9900         0.2630       0.448000         1.8980
       4987.50        21.8000        67.9620        50.0600         0.9900         0.2630       0.448000         1.8980
       4988.00        21.8000        68.2710        48.9840         0.9890         0.2630       0.448000         1.8990
       4988.50        21.8000        69.8110        47.7520         1.0040         0.2630       0.448000         1.8990
       4989.00        21.8000        68.8890        49.6120         1.0080         0.2630       0.448000         1.8990
       4989.50        21.8000        69.5060        46.5270         1.0170         0.2630       0.448000         1.9000
       4990.00        21.8000        67.3540        46.5320         1.0250         0.2630       0.448000         1.9000
       4990.50        21.8000        72.2790        48.2380         1.0340         0.2630       0.448000         1.9000
       4991.00        21.8000        73.8190        48.3960         1.0430         0.2630       0.448000         1.9000
       4991.50        21.8000        74.1280        47.4730         1.0520         0.2630       0.448000         1.9010
       4992.00        21.8000        73.5140        48.5610         1.0610         0.2630       0.448000         1.9010
       4992.50        21.8000        69.8230        50.1120         1.0690         0.2630       0.448000         1.9010
       4993.00        21.8000        67.9780        48.1080         1.0780         0.2630       0.447000         1.9010
       4993.50        21.8000        68.5960        49.5050         1.0870         0.2630       0.446000         1.9020
       4994.00        21.8000        75.9820        50.9000         1.0950         0.2630       0.435000         1.9510
       4994.50        21.8000        68.9060        49.0500         1.1040         0.2630       0.418000         2.1800
       4995.00        21.8000        66.4460        50.9110         1.1130         0.2630       0.413000         2.2310
       4995.50        21.8000        79.6790        51.2240         1.1220         0.2630       0.418000         2.4860
       4996.00        21.8000        82.7570        49.5310         1.1300         0.2630       0.414000         2.5090
       4996.50        21.8000        76.9130        48.6090         1.1390         0.2630       0.410000         2.5710
       4997.00        21.8000        66.1450        48.3040         1.1480         0.2630       0.398000         2.4850
