~Version Information Block
VERS .                 2.00:  CWLS LOG ASCII STANDARD - VERSION 2.00
WRAP .                   NO:  One line per depth step
~Well Information Block
#MNEM.UNIT        Data Type   Information
#---------- ----------------  -----------
STRT .FT             140.00:  START DEPTH
STOP .FT            5317.50:  STOP DEPTH
STEP .FT               0.50:  STEP
NULL .              -999.25:  NULL VALUE
COMP .                     :  COMPANY
WELL .                UVA-1:  WELL
FLD  .                     :  FIELD
LOC  .                     :  LOCATION
CTRY .                     :  COUNTRY
STAT .                     :  STATE
CNTY .                     :  COUNTY
SRVC .                     :  SERVICE COMPANY
DATE .                     :  DATE
API  .                     :  API NUMBER
UWI  .                     :  UNIQUE WELL ID
~Curve Information Block
#MNEM.UNIT         API CODE   Curve Description
#---------- ----------------  -----------------
DEPTH.FT                   :  DEPTH CURVE
CALI .IN                   :  
DT   .US/F                 :  
GR   .GAPI                 :  
ILD  .OHMM                 :  
MSFL .OHMM                 :  
NPHI_LS.V/V                  :  
RHOB .G/C3                 :  
~Parameter Information Block
#MNEM.UNIT            Value   Description
#---------- ----------------  -----------
PROJECT.     petro@kponwjlx001:  
SET  .                 WIRE:  
~Other Information Block
# 
~A       DEPTH           CALI             DT             GR            ILD           MSFL        NPHI_LS           RHOB 
# ...
       4394.50        21.8000       113.8560        76.3080         0.8640         0.2630       0.389000         2.0060
       4395.00        21.8000       111.0820        75.6870         0.8640         0.2630       0.395000         1.9910
       4395.50        21.8000       109.8510        77.3870         0.8580         0.2630       0.388000         1.9900
       4396.00        21.8000       109.2360        79.3980         0.8570         0.2630       0.378000         2.0420
       4396.50        21.8000       110.7820        75.5260         0.8570         0.2630       0.370000         2.0310
       4397.00        21.8000       112.3290        75.2140         0.8510         0.2630       0.362000         1.9720
       4397.50        21.8000       113.8750        76.6050         0.8450         0.2630       0.361000         1.9580
       4398.00        21.8000       111.4090        74.7450         0.8390         0.2630       0.371000         1.9420
       4398.50        21.8000       112.3370        76.2910         0.8320         0.2630       0.388000         1.9340
       4399.00        21.8000       112.0310        75.6700         0.8320         0.2630       0.403000         1.9390
       4399.50        21.8000       112.0350        77.2160         0.8320         0.2630       0.410000         1.9510
       4400.00        21.8000       112.4900        72.8790         0.8380         0.2630       0.418000         1.9070
       4400.50        21.8000       112.3820        72.0590         0.8300         0.2630       0.431000         1.8670
       4401.00        21.8000       110.2270        72.5230         0.8360         0.2630       0.439000         1.8510
       4401.50        21.8000       112.3950        72.5220         0.8480         0.2630       0.436000         1.8570
       4402.00        21.8000       111.1670        70.6650         0.8610         0.2630       0.437000         1.9310
       4402.50        21.8000       110.2470        69.4260         0.8670         0.2630       0.452000         1.9380
       4403.00        21.8000       110.8700        73.2960         0.8670         0.2630       0.427000         1.9180
       4403.50        21.8000       113.9630        74.0700         0.8670         0.2630       0.426000         1.9230
       4404.00        21.8000       115.5120        76.8560         0.8670         0.2630       0.411000         1.9000
       4404.50        21.8000       115.5180        75.7720         0.8670         0.2630       0.400000         1.8940
       4405.00        21.8000       113.3630        73.1400         0.8540         0.2630       0.424000         1.8460
       4405.50        21.8000       111.2090        72.3660         0.8520         0.2630       0.447000         1.8310
       4406.00        21.8000       110.9050        73.2940         0.8420         0.2630       0.444000         1.9000
       4406.50        21.8000       111.2210        74.6870         0.8360         0.2630       0.457000         1.9850
       4407.00        21.8000       112.1530        76.7000         0.8300         0.2630       0.446000         2.0290
       4407.50        21.8000       113.3940        76.3900         0.8300         0.2630       0.422000         2.0850
       4408.00        21.8000       113.0910        77.4730         0.8240         0.2630       0.408000         2.0960
       4408.50        21.8000       112.1710        79.9500         0.8240         0.2630       0.397000         2.0980
       4409.00        21.8000       110.6340        78.4010         0.8240         0.2630       0.390000         2.1770
       4409.50        21.8000       110.6400        77.7820         0.8310         0.2630       0.391000         2.1900
       4410.00        21.8000       110.9550        81.3420         0.8420         0.2630       0.408000         2.1750
       4410.50        21.8000       109.4180        82.4250         0.8600         0.2630       0.413000         2.1810
       4411.00        21.8000       108.8050        80.8770         0.8790         0.2630       0.393000         2.2010
       4411.50        21.8000       110.6630        79.6390         0.9070         0.2630       0.383000         2.2070
       4412.00        21.8000       109.1260        82.7340         0.9240         0.2630       0.379000         2.1660
       4412.50        21.8000       106.9720        81.8050         0.9440         0.2630       0.389000         2.1840
       4413.00        21.8000       105.4340        82.5790         0.9720         0.2630       0.397000         2.1650
       4413.50        21.8000       104.5150        79.0190         1.0000         0.2630       0.400000         2.1470
       4414.00        21.8000       103.5930        78.0900         1.0150         0.2630       0.375000         2.1750
       4414.50        21.8000       103.2910        81.1850         1.0290         0.2630       0.334000         2.1970
       4415.00        21.8000       102.6800        81.1850         1.0290         0.2630       0.330000         2.2220
       4415.50        21.8000       102.9960        82.4230         1.0220         0.2630       0.333000         2.2540
       4416.00        21.8000       103.9280        80.5650         1.0210         0.2630       0.328000         2.2780
       4416.50        21.8000       105.1680        78.7070         1.0070         0.2630       0.313000         2.2790
       4417.00        21.8000       106.1000        80.1000         0.9860         0.2630       0.305000         2.2630
       4417.50        21.8000       107.0320        79.7910         0.9720         0.2630       0.316000         2.2770
       4418.00        21.8000       108.2730        82.4220         0.9500         0.2630       0.347000         2.2510
       4418.50        21.8000       109.5130        83.1960         0.9310         0.2630       0.339000         2.2290
       4419.00        21.8000       110.2180        83.1960         0.9100         0.2630       0.345000         2.1500
       4419.50        21.8000       110.7600        81.8020         0.8910         0.2630       0.396000         2.1390
       4420.00        21.8000       111.0750        77.6220         0.8720         0.2630       0.408000         2.1180
       4420.50        21.8000       111.3900        75.9190         0.8600         0.2630       0.402000         2.0880
       4421.00        21.8000       111.3960        77.3120         0.8540         0.2630       0.391000         2.0950
       4421.50        21.8000       111.7100        74.9900         0.8540         0.2630       0.349000         2.1170
       4422.00        21.8000       112.6420        74.6800         0.8470         0.2630       0.337000         2.0740
       4422.50        21.8000       110.7960        74.9900         0.8470         0.2630       0.333000         2.0570
       4423.00        21.8000       108.6420        72.9770         0.8410         0.2630       0.333000         2.0540
       4423.50        21.8000       109.5740        73.1320         0.8410         0.2630       0.340000         2.0800
       4424.00        21.8000       111.7410        72.0480         0.8380         0.2630       0.357000         2.0600
       4424.50        21.8000       109.8950        71.2730         0.8350         0.2630       0.363000         2.0390
       4425.00        21.8000       109.5910        71.5830         0.8290         0.2630       0.368000         2.0700
       4425.50        21.8000       112.3760        72.8210         0.8290         0.2630       0.377000         2.0820
       4426.00        21.8000       111.7650        73.5950         0.8350         0.2630       0.394000         2.0440
       4426.50        21.8000       109.9190        74.3680         0.8410         0.2630       0.392000         2.0190
       4427.00        21.8000       110.8510        76.8450         0.8470         0.2630       0.383000         2.0050
       4427.50        21.8000       111.1660        77.0000         0.8650         0.2630       0.386000         2.0190
