~Version Information Block
VERS .                 2.00:  CWLS LOG ASCII STANDARD - VERSION 2.00
WRAP .                   NO:  One line per depth step
~Well Information Block
#MNEM.UNIT        Data Type   Information
#---------- ----------------  -----------
STRT .FT             140.00:  START DEPTH
STOP .FT            5317.50:  STOP DEPTH
STEP .FT               0.50:  STEP
NULL .              -999.25:  NULL VALUE
COMP .                     :  COMPANY
WELL .                UVA-1:  WELL
FLD  .                     :  FIELD
LOC  .                     :  LOCATION
CTRY .                     :  COUNTRY
STAT .                     :  STATE
CNTY .                     :  COUNTY
SRVC .                     :  SERVICE COMPANY
DATE .                     :  DATE
API  .                     :  API NUMBER
UWI  .                     :  UNIQUE WELL ID
~Curve Information Block
#MNEM.UNIT         API CODE   Curve Description
#---------- ----------------  -----------------
DEPTH.FT                   :  DEPTH CURVE
CALI .IN                   :  
DT   .US/F                 :  
GR   .GAPI                 :  
ILD  .OHMM                 :  
MSFL .OHMM                 :  
NPHI_LS.V/V                  :  
RHOB .G/C3                 :  
~Parameter Information Block
#MNEM.UNIT            Value   Description
#---------- ----------------  -----------
PROJECT.     petro@kponwjlx001:  
SET  .                 WIRE:  
~Other Information Block
# 
~A       DEPTH           CALI             DT             GR            ILD           MSFL        NPHI_LS           RHOB 
# ...
       4662.50        21.8000       108.1140        53.1360         1.0810         0.2630       0.344000         2.2100
       4663.00        21.8000       108.7470        55.9190         1.0730         0.2630       0.350000         2.2030
       4663.50        21.8000       108.4540        56.2270         1.0650         0.2630       0.347000         2.2190
       4664.00        21.8000       107.8520        54.3670         1.0570         0.2630       0.338000         2.1850
       4664.50        21.8000       107.5520        52.1980         1.0500         0.2630       0.330000         2.2060
       4665.00        21.8000       106.9530        54.5180         1.0490         0.2630       0.327000         2.1860
       4665.50        21.8000       106.6600        53.4320         1.0500         0.2630       0.346000         2.1780
       4666.00        21.8000       107.2930        56.5250         1.0570         0.2630       0.361000         2.1980
       4666.50        21.8000       109.4680        55.1300         1.0720         0.2630       0.375000         2.2020
       4667.00        21.8000       110.1010        56.5210         1.0870         0.2630       0.352000         2.2140
       4667.50        21.8000       108.2650        53.8880         1.0950         0.2630       0.356000         2.1810
       4668.00        21.8000       107.6600        56.8260         1.1190         0.2630       0.364000         2.1980
       4668.50        21.8000       109.2210        57.4440         1.1270         0.2630       0.340000         2.1870
       4669.00        21.8000       108.0020        55.8930         1.1350         0.2630       0.337000         2.2030
       4669.50        21.8000       106.1650        54.8790         1.1350         0.2630       0.355000         2.2190
       4670.00        21.8000       105.2520        53.5670         1.1180         0.2630       0.340000         2.2210
       4670.50        21.8000       106.5050        51.5520         1.0940         0.2630       0.346000         2.2240
       4671.00        21.8000       107.1370        49.0730         1.0710         0.2630       0.339000         2.2130
       4671.50        21.8000       105.6090        48.4520         1.0480         0.2630       0.324000         2.1910
       4672.00        21.8000       101.6130        48.4500         1.0400         0.2630       0.320000         2.1840
       4672.50        21.8000        96.3810        47.6740         1.0250         0.2630       0.335000         2.1800
       4673.00        21.8000        92.3840        46.5880         1.0100         0.2630       0.327000         2.1980
       4673.50        21.8000        92.3990        47.8240         1.0100         0.2630       0.324000         2.1950
       4674.00        21.8000        98.2790        48.7510         1.0170         0.2630       0.355000         2.2290
       4674.50        21.8000       101.9980        47.0460         1.0470         0.2630       0.371000         2.2410
       4675.00        21.8000       106.6430        48.2820         1.0850         0.2630       0.356000         2.2700
       4675.50        21.8000       106.9640        47.6610         1.1170         0.2630       0.337000         2.2150
       4676.00        21.8000       105.1300        46.2650         1.1330         0.2630       0.338000         2.1940
       4676.50        21.8000       101.1330        47.5020         1.1320         0.2630       0.344000         2.1790
       4677.00        21.8000        99.9110        45.3330         1.1160         0.2630       0.341000         2.1870
       4677.50        21.8000        99.6180        45.7950         1.0840         0.2630       0.328000         2.1940
       4678.00        21.8000        99.9450        41.9230         1.0530         0.2630       0.321000         2.1770
       4678.50        21.8000       106.1330        45.4810         1.0610         0.2630       0.302000         2.1920
       4679.00        21.8000       107.0740        45.9430         1.0530         0.2630       0.291000         2.1830
       4679.50        21.8000       106.7780        48.1080         1.0380         0.2630       0.304000         2.1800
       4680.00        21.8000       106.7960        47.6410         0.9120         0.2630       0.322000         2.1480
       4680.50        21.8000       106.8110        49.3420         0.8730         0.2630       0.338000         2.1500
       4681.00        21.8000       107.1350        53.3650         0.8480         0.2630       0.348000         2.1670
       4681.50        21.8000       110.2370        62.0310         0.8240         0.2630       0.353000         2.1890
       4682.00        21.8000       113.6470        66.5180         0.8010         0.2630       0.345000         2.1850
       4682.50        21.8000       115.5150        73.0180         0.7780         0.2630       0.364000         2.2080
       4683.00        21.8000       116.1470        71.6220         0.7610         0.2630       0.356000         2.2760
       4683.50        21.8000       115.5450        70.3820         0.7450         0.2630       0.367000         2.2980
       4684.00        21.8000       116.7950        70.5350         0.7450         0.2630       0.384000         2.2760
       4684.50        21.8000       117.7330        69.4490         0.7450         0.2630       0.392000         2.2260
       4685.00        21.8000       115.2830        70.9940         0.7440         0.2630       0.377000         2.1760
       4685.50        21.8000       112.8290        72.3850         0.7500         0.2630       0.368000         2.1490
       4686.00        21.8000       110.6810        71.3000         0.7550         0.2630       0.379000         2.1530
       4686.50        21.8000       108.8440        66.8080         0.7600         0.2630       0.372000         2.1630
       4687.00        21.8000       108.8600        66.0330         0.7660         0.2630       0.383000         2.1020
       4687.50        21.8000       110.7270        69.4360         0.7660         0.2630       0.356000         2.1200
       4688.00        21.8000       113.8280        68.3500         0.7710         0.2630       0.345000         2.1930
       4688.50        21.8000       115.6960        63.8590         0.7770         0.2630       0.351000         2.1630
       4689.00        21.8000       114.4760        65.2490         0.7900         0.2630       0.374000         2.1260
       4689.50        21.8000       110.7880        66.3310         0.8110         0.2630       0.397000         2.0950
       4690.00        21.8000       107.7170        64.4710         0.8240         0.2630       0.409000         1.9990
       4690.50        21.8000       107.1120        64.3140         0.8390         0.2630       0.419000         1.9620
       4691.00        21.8000       108.3650        64.1580         0.8640         0.2630       0.422000         1.9540
       4691.50        21.8000       104.6770        65.3940         0.8830         0.2630       0.394000         1.9520
       4692.00        21.8000       115.4940        58.5800         0.9020         0.2630       0.403000         1.9630
       4692.50        21.8000       114.5840        58.2680         0.9350         0.2630       0.395000         1.9810
       4693.00        21.8000       116.4510        58.5760         0.9760         0.2630       0.382000         1.9710
       4693.50        21.8000       114.5150        59.1930         0.9980         0.2630       0.387000         1.9500
       4694.00        21.8000       104.7530        60.8930         1.0050         0.2630       0.389000         1.9340
       4694.50        21.8000       101.9910        63.5230         0.9900         0.2630       0.387000         1.8890
       4695.00        21.8000       102.6230        64.6040         0.9620         0.2630       0.365000         1.9500
       4695.50        21.8000       105.4160        62.8990         0.9480         0.2630       0.356000         1.9750
