~Version Information Block
VERS .                 2.00:  CWLS LOG ASCII STANDARD - VERSION 2.00
WRAP .                   NO:  One line per depth step
~Well Information Block
#MNEM.UNIT        Data Type   Information
#---------- ----------------  -----------
STRT .FT             140.00:  START DEPTH
STOP .FT            5317.50:  STOP DEPTH
STEP .FT               0.50:  STEP
NULL .              -999.25:  NULL VALUE
COMP .                     :  COMPANY
WELL .                UVA-1:  WELL
FLD  .                     :  FIELD
LOC  .                     :  LOCATION
CTRY .                     :  COUNTRY
STAT .                     :  STATE
CNTY .                     :  COUNTY
SRVC .                     :  SERVICE COMPANY
DATE .                     :  DATE
API  .                     :  API NUMBER
UWI  .                     :  UNIQUE WELL ID
~Curve Information Block
#MNEM.UNIT         API CODE   Curve Description
#---------- ----------------  -----------------
DEPTH.FT                   :  DEPTH CURVE
CALI .IN                   :  
DT   .US/F                 :  
GR   .GAPI                 :  
ILD  .OHMM                 :  
MSFL .OHMM                 :  
NPHI_LS.V/V                  :  
RHOB .G/C3                 :  
~Parameter Information Block
#MNEM.UNIT            Value   Description
#---------- ----------------  -----------
PROJECT.     petro@kponwjlx001:  
SET  .                 WIRE:  
~Other Information Block
# 
~A       DEPTH           CALI             DT             GR            ILD           MSFL        NPHI_LS           RHOB 
# ...
       1714.50        18.1500       181.3410        56.2000         0.6040         0.6790       0.527000         1.7230
       1715.00        18.0000       181.1410        59.8000         0.5980         0.6140       0.541000         1.7610
       1715.50        18.0000       181.4910        58.2000         0.5930         0.5550       0.524000         1.7860
       1716.00        17.8000       180.9910        56.4000         0.5820         0.5440       0.488000         1.8140
       1716.50        17.6000       180.6910        57.0000         0.5870         0.5650       0.503000         1.8410
       1717.00        17.7000       180.4400        55.4000         0.5930         0.5200       0.512000         1.8100
       1717.50        18.0000       179.8400        56.1000         0.6150         0.5400       0.513000         1.8060
       1718.00        18.6000       180.9410        54.6000         0.6320         0.5810       0.484000         1.7950
       1718.50        18.7000       182.6930        54.5000         0.6500         0.5300       0.481000         1.7850
       1719.00        18.6500       183.0430        53.0000         0.6680         0.5400       0.502000         1.7870
       1719.50        18.8500       183.5440        52.2000         0.6740         0.5700       0.522000         1.7850
       1720.00        18.9000       182.0920        52.0000         0.6800         0.5700       0.522000         1.7510
       1720.50        18.7000       180.1900        54.4000         0.6800         0.5920       0.527000         1.7100
       1721.00        18.4000       179.0390        56.6000         0.6870         0.6730       0.536000         1.6790
       1721.50        17.8000       178.6890        57.6000         0.6870         0.6490       0.536000         1.6950
       1722.00        18.0000       179.3390        57.7000         0.6870         0.5500       0.545000         1.7270
       1722.50        19.0000       178.9890        58.2000         0.6870         0.5110       0.541000         1.7350
       1723.00        19.4000       178.8890        57.8000         0.6800         0.6190       0.539000         1.7660
       1723.50        19.6000       177.7880        58.8000         0.6740         0.6550       0.512000         1.7850
       1724.00        19.9000       176.1860        59.8000         0.6800         0.6030       0.519000         1.8120
       1724.50        20.0500       175.6860        58.4000         0.6870         0.6250       0.522000         1.8310
       1725.00        19.7000       174.6350        59.4000         0.6870         0.6250       0.529000         1.8310
       1725.50        19.1000       171.6820        59.2000         0.6800         0.6370       0.518000         1.8390
       1726.00        18.7500       171.7320        60.0000         0.6740         0.6370       0.504000         1.8450
       1726.50        19.3000       168.0780        61.0000         0.6500         0.5550       0.495000         1.8710
       1727.00        19.7000       166.9770        64.5000         0.6440         0.6140       0.498000         1.8710
       1727.50        19.2000       166.9270        64.8000         0.6260         0.6730       0.490000         1.8510
       1728.00        18.4500       165.6760        64.9000         0.5930         0.5860       0.478000         1.8140
       1728.50        18.0000       167.2270        64.6000         0.5770         0.5860       0.495000         1.7810
       1729.00        18.0000       169.1290        62.6000         0.5560         0.6730       0.499000         1.7550
       1729.50        17.9000       171.9320        60.8000         0.5410         0.7450       0.506000         1.7450
       1730.00        18.0000       173.1330        64.1000         0.5510         0.7730       0.520000         1.7220
       1730.50        17.8500       173.1830        64.4000         0.5710         0.7310       0.503000         1.6740
       1731.00        17.7000       174.6850        61.8000         0.5820         0.6550       0.496000         1.6430
       1731.50        17.9000       173.8840        63.2000         0.6090         0.5860       0.516000         1.6250
       1732.00        17.9000       176.2360        64.6000         0.6260         0.4790       0.528000         1.5830
       1732.50        17.9000       176.0360        60.8000         0.6500         0.4450       0.530000         1.5160
       1733.00        18.0500       173.8840        60.2000         0.6870         0.5060       0.534000         1.5270
       1733.50        17.9500       173.4330        59.6000         0.7120         0.6310       0.517000         1.5760
       1734.00        18.1000       171.2310        57.8000         0.7190         0.7050       0.524000         1.5840
       1734.50        18.2500       168.7290        60.1000         0.7120         0.7450       0.518000         1.5940
       1735.00        18.0000       167.4770        60.0000         0.6990         0.7450       0.514000         1.6110
       1735.50        17.9000       167.6780        61.8000         0.6870         0.7110       0.494000         1.6070
       1736.00        18.1500       167.2270        63.0000         0.6680         0.6490       0.493000         1.6000
       1736.50        18.2000       169.3290        62.5000         0.6620         0.6310       0.482000         1.6110
       1737.00        18.4000       171.0310        61.9000         0.6500         0.6140       0.487000         1.6620
       1737.50        18.6000       170.1800        60.8000         0.6380         0.5350       0.518000         1.7380
       1738.00        18.5500       170.7810        62.6000         0.6380         0.5550       0.531000         1.7910
       1738.50        18.4000       170.2800        62.2000         0.6380         0.6730       0.525000         1.8260
       1739.00        18.0000       170.2800        61.3000         0.6440         0.6920       0.527000         1.8150
       1739.50        18.0500       170.7810        61.6000         0.6620         0.6790       0.522000         1.7790
       1740.00        18.4500       171.2310        62.6000         0.6680         0.6610       0.527000         1.7360
       1740.50        18.5500       170.4800        61.8000         0.6740         0.6790       0.514000         1.6980
       1741.00        18.4000       169.4790        62.6000         0.6870         0.6550       0.508000         1.6780
       1741.50        18.2500       169.3790        62.0000         0.6930         0.6140       0.506000         1.6690
       1742.00        18.3000       168.0280        63.0000         0.6990         0.6550       0.498000         1.7150
       1742.50        18.4000       167.6780        63.8000         0.6930         0.7450       0.503000         1.8060
       1743.00        18.1500       168.0280        62.9000         0.6870         0.7660       0.498000         1.8760
       1743.50        18.0500       168.0280        63.6000         0.6800         0.7800       0.481000         1.8960
       1744.00        18.0500       167.9280        65.6000         0.6740         0.7940       0.490000         1.8850
       1744.50        18.2000       167.2270        63.2000         0.6680         0.7800       0.500000         1.8730
       1745.00        18.2000       166.7770        64.0000         0.6680         0.7660       0.490000         1.8430
       1745.50        18.1500       166.5270        60.8000         0.6680         0.7380       0.485000         1.8340
       1746.00        18.2000       167.1770        59.0000         0.6680         0.7110       0.498000         1.7980
       1746.50        18.4500       169.4790        57.6000         0.6740         0.6920       0.508000         1.7510
       1747.00        19.1000       170.0300        60.4000         0.6740         0.6610       0.522000         1.7540
       1747.50        19.2500       170.8810        61.6000         0.6800         0.7310       0.524000         1.7590
