~Version Information Block
VERS .                 2.00:  CWLS LOG ASCII STANDARD - VERSION 2.00
WRAP .                   NO:  One line per depth step
~Well Information Block
#MNEM.UNIT        Data Type   Information
#---------- ----------------  -----------
STRT .FT             140.00:  START DEPTH
STOP .FT            5317.50:  STOP DEPTH
STEP .FT               0.50:  STEP
NULL .              -999.25:  NULL VALUE
COMP .                     :  COMPANY
WELL .                UVA-1:  WELL
FLD  .                     :  FIELD
LOC  .                     :  LOCATION
CTRY .                     :  COUNTRY
STAT .                     :  STATE
CNTY .                     :  COUNTY
SRVC .                     :  SERVICE COMPANY
DATE .                     :  DATE
API  .                     :  API NUMBER
UWI  .                     :  UNIQUE WELL ID
~Curve Information Block
#MNEM.UNIT         API CODE   Curve Description
#---------- ----------------  -----------------
DEPTH.FT                   :  DEPTH CURVE
CALI .IN                   :  
DT   .US/F                 :  
GR   .GAPI                 :  
ILD  .OHMM                 :  
MSFL .OHMM                 :  
NPHI_LS.V/V                  :  
RHOB .G/C3                 :  
~Parameter Information Block
#MNEM.UNIT            Value   Description
#---------- ----------------  -----------
PROJECT.     petro@kponwjlx001:  
SET  .                 WIRE:  
~Other Information Block
# 
~A       DEPTH           CALI             DT             GR            ILD           MSFL        NPHI_LS           RHOB 
# ...
       1145.00        21.0500       199.9600        57.6000         0.5820         0.6310       0.565000         1.6790
       1145.50        21.0000       200.1600        55.0000         0.5820         0.6140       0.594000         1.6580
       1146.00        20.8000       200.4100        54.0000         0.5930         0.6250       0.541000         1.6660
       1146.50        20.7000       200.3600        54.0000         0.5930         0.6430       0.519000         1.6630
       1147.00        20.8000       200.4600        55.6000         0.5930         0.6430       0.543000         1.6540
       1147.50        20.8000       200.8110        56.8000         0.5930         0.6550       0.527000         1.6590
       1148.00        20.8000       200.7110        57.6000         0.5930         0.6670       0.524000         1.6890
       1148.50        20.6000       200.7110        58.2000         0.5930         0.6610       0.559000         1.6870
       1149.00        20.8000       200.7110        59.4000         0.5930         0.6610       0.568000         1.6690
       1149.50        20.9000       201.2610        57.5000         0.5930         0.6310       0.568000         1.6380
       1150.00        20.9500       201.4110        57.4000         0.5930         0.6140       0.553000         1.6200
       1150.50        21.1000       201.2110        58.4000         0.5980         0.6080       0.566000         1.6220
       1151.00        21.1000       201.4110        60.0000         0.5980         0.6080       0.571000         1.6240
       1151.50        20.9000       201.2110        60.0000         0.5980         0.5970       0.581000         1.6300
       1152.00        20.8500       201.1110        58.6000         0.5980         0.6190       0.592000         1.6300
       1152.50        20.8000       200.9610        57.3000         0.6090         0.6250       0.582000         1.6260
       1153.00        20.8000       201.2110        54.8000         0.6090         0.6370       0.592000         1.6310
       1153.50        20.8000       200.6110        52.2000         0.6150         0.6310       0.547000         1.6460
       1154.00        20.9500       201.3610        52.4000         0.6150         0.6250       0.524000         1.6610
       1154.50        21.5000       202.0120        53.4000         0.6150         0.6370       0.486000         1.6770
       1155.00        21.6500       201.9120        54.2000         0.6150         0.6730       0.474000         1.6970
       1155.50        21.9000       201.4110        54.5000         0.6150         0.6610       0.487000         1.7100
       1156.00        22.0000       201.4610        53.4000         0.6150         0.6370       0.489000         1.7170
       1156.50        21.6000       201.2110        54.4000         0.6150         0.6550       0.508000         1.6970
       1157.00        21.4000       201.4610        51.0000         0.6090         0.6430       0.519000         1.6880
       1157.50        20.8000       201.0110        50.7000         0.6090         0.6310       0.511000         1.6590
       1158.00        20.3000       200.9610        53.2000         0.6090         0.6190       0.507000         1.6470
       1158.50        20.1000       201.2110        54.4000         0.6150         0.6030       0.522000         1.6390
       1159.00        19.9000       201.6620        54.5000         0.6210         0.6250       0.560000         1.6590
       1159.50        20.0000       201.4610        54.2000         0.6260         0.6080       0.583000         1.6760
       1160.00        19.9000       201.4110        52.8000         0.6380         0.5440       0.562000         1.6810
       1160.50        19.7000       201.4610        51.9000         0.6320         0.5010       0.558000         1.6810
       1161.00        20.0000       201.7620        52.0000         0.6260         0.4660       0.533000         1.6950
       1161.50        20.4500       201.2110        50.8000         0.6210         0.5350       0.543000         1.7180
       1162.00        20.7000       201.2610        49.7000         0.6150         0.5970       0.554000         1.7500
       1162.50        20.8000       201.4610        51.7000         0.5980         0.5350       0.556000         1.7610
       1163.00        20.5000       201.4110        52.1000         0.5820         0.4700       0.550000         1.7270
       1163.50        20.5000       201.4610        51.7000         0.5710         0.4660       0.560000         1.6970
       1164.00        20.5000       201.4110        53.6000         0.5560         0.4790       0.550000         1.6790
       1164.50        20.3000       201.1110        53.3000         0.5560         0.5060       0.552000         1.6780
       1165.00        20.1000       201.2110        52.6000         0.5560         0.5010       0.535000         1.6900
       1165.50        19.9000       201.4110        54.1000         0.5610         0.4490       0.510000         1.6970
       1166.00        19.9000       201.2110        56.2000         0.5770         0.4250       0.495000         1.7040
       1166.50        20.0500       201.7620        55.8000         0.5820         0.4660       0.506000         1.7180
       1167.00        19.8000       202.0120        54.4000         0.5870         0.5300       0.522000         1.7210
       1167.50        19.2000       201.8620        50.4000         0.5980         0.5810       0.527000         1.7300
       1168.00        18.8500       201.9120        50.7000         0.6090         0.5860       0.515000         1.7420
       1168.50        18.7000       201.9120        53.4000         0.6150         0.5700       0.506000         1.7420
       1169.00        18.4500       201.8120        52.2000         0.6210         0.5860       0.506000         1.7470
       1169.50        18.1000       202.1120        50.5000         0.6150         0.6250       0.515000         1.7500
       1170.00        18.1000       201.9120        52.6000         0.6090         0.5860       0.515000         1.7380
       1170.50        18.0000       201.6620        54.8000         0.6040         0.5810       0.520000         1.7340
       1171.00        17.9000       201.4110        53.0000         0.5980         0.5920       0.520000         1.7350
       1171.50        17.7500       201.4110        52.5000         0.5930         0.5550       0.528000         1.7350
       1172.00        17.4000       200.7110        54.8000         0.5930         0.5300       0.521000         1.7230
       1172.50        17.4000       200.5610        57.7000         0.5930         0.5010       0.519000         1.7030
       1173.00        17.9000       200.9610        56.1000         0.5820         0.5060       0.543000         1.6820
       1173.50        17.6000       200.6610        54.8000         0.5930         0.5400       0.568000         1.6700
       1174.00        18.4000       200.6110        52.1000         0.5930         0.5650       0.551000         1.6650
       1174.50        19.3500       200.3600        52.6000         0.5930         0.5550       0.518000         1.6480
       1175.00        18.6000       199.9100        52.2000         0.5930         0.6190       0.517000         1.6310
       1175.50        17.8000       199.5600        52.6000         0.5930         0.6790       0.515000         1.6180
       1176.00        17.6000       199.2090        52.6000         0.5930         0.6310       0.533000         1.6160
       1176.50        17.6000       198.6590        55.6000         0.5930         0.5860       0.546000         1.6580
       1177.00        17.4500       198.4580        54.4000         0.5820         0.6080       0.571000         1.6950
       1177.50        17.9000       198.1580        54.4000         0.5820         0.6140       0.576000         1.7070
       1178.00        17.5000       197.7580        57.0000         0.5770         0.6140       0.554000         1.7020
