~Version Information Block
VERS .                 2.00:  CWLS LOG ASCII STANDARD - VERSION 2.00
WRAP .                   NO:  One line per depth step
~Well Information Block
#MNEM.UNIT        Data Type   Information
#---------- ----------------  -----------
STRT .FT             140.00:  START DEPTH
STOP .FT            5317.50:  STOP DEPTH
STEP .FT               0.50:  STEP
NULL .              -999.25:  NULL VALUE
COMP .                     :  COMPANY
WELL .                UVA-1:  WELL
FLD  .                     :  FIELD
LOC  .                     :  LOCATION
CTRY .                     :  COUNTRY
STAT .                     :  STATE
CNTY .                     :  COUNTY
SRVC .                     :  SERVICE COMPANY
DATE .                     :  DATE
API  .                     :  API NUMBER
UWI  .                     :  UNIQUE WELL ID
~Curve Information Block
#MNEM.UNIT         API CODE   Curve Description
#---------- ----------------  -----------------
DEPTH.FT                   :  DEPTH CURVE
CALI .IN                   :  
DT   .US/F                 :  
GR   .GAPI                 :  
ILD  .OHMM                 :  
MSFL .OHMM                 :  
NPHI_LS.V/V                  :  
RHOB .G/C3                 :  
~Parameter Information Block
#MNEM.UNIT            Value   Description
#---------- ----------------  -----------
PROJECT.     petro@kponwjlx001:  
SET  .                 WIRE:  
~Other Information Block
# 
~A       DEPTH           CALI             DT             GR            ILD           MSFL        NPHI_LS           RHOB 
# ...
       2619.00        18.6000       154.5140        60.5000         0.6440         0.6250       0.452000         1.9760
       2619.50        18.8000       154.4640        59.5000         0.6440         0.6430       0.464000         1.9770
       2620.00        18.8000       154.2140        61.5000         0.6380         0.6370       0.473000         1.9620
       2620.50        18.4000       154.5650        62.4000         0.6380         0.6250       0.483000         1.9500
       2621.00        18.2000       154.9650        65.0000         0.6380         0.5920       0.471000         1.9340
       2621.50        18.4000       155.7160        63.0000         0.6320         0.5550       0.473000         1.9330
       2622.00        18.2500       155.4650        63.8000         0.6320         0.5440       0.486000         1.9100
       2622.50        18.4000       155.5160        65.6000         0.6260         0.5550       0.463000         1.8970
       2623.00        18.4000       154.5650        64.0000         0.6260         0.5920       0.471000         1.8930
       2623.50        18.6000       153.2130        62.8000         0.6320         0.6230       0.493000         1.8630
       2624.00        18.4000       154.2140        63.6000         0.6380         0.6550       0.518000         1.8270
       2624.50        18.2000       153.4130        61.6000         0.6380         0.6080       0.510000         1.8120
       2625.00        18.2000       152.7130        62.4000         0.6440         0.5550       0.506000         1.8290
       2625.50        18.0000       152.5130        61.6000         0.6440         0.5500       0.502000         1.8570
       2626.00        18.0500       152.4120        64.0000         0.6500         0.6030       0.501000         1.8700
       2626.50        18.0500       152.8130        61.6000         0.6500         0.6250       0.491000         1.8770
       2627.00        18.0500       154.1640        60.0000         0.6500         0.6310       0.483000         1.8970
       2627.50        18.1000       155.0150        62.1000         0.6500         0.6250       0.487000         1.9420
       2628.00        18.1000       154.9150        58.8000         0.6500         0.6310       0.500000         1.9490
       2628.50        18.2000       156.3160        57.8000         0.6440         0.6610       0.501000         1.9330
       2629.00        18.2000       156.5670        58.0000         0.6380         0.6850       0.501000         1.9260
       2629.50        18.2000       156.9670        60.6000         0.6320         0.6790       0.500000         1.9290
       2630.00        18.2000       157.4670        62.8000         0.6260         0.6490       0.501000         1.9100
       2630.50        18.3000       158.0180        61.0000         0.6150         0.6370       0.541000         1.8950
       2631.00        18.4500       157.9680        60.8000         0.6090         0.6790       0.552000         1.8570
       2631.50        18.4000       159.0190        62.9000         0.5980         0.6610       0.519000         1.8210
       2632.00        18.3000       161.7220        61.4000         0.5930         0.5970       0.539000         1.8000
       2632.50        18.4000       162.9230        60.6000         0.5820         0.5920       0.543000         1.8120
       2633.00        18.4000       162.5230        61.7000         0.5710         0.5970       0.521000         1.8300
       2633.50        18.2000       161.7720        62.0000         0.5560         0.6190       0.505000         1.8490
       2634.00        18.4500       159.8200        62.4000         0.5410         0.6250       0.492000         1.8410
       2634.50        18.7000       160.7710        61.0000         0.5310         0.6550       0.480000         1.8500
       2635.00        18.7000       162.4220        59.2000         0.5360         0.6250       0.476000         1.8770
       2635.50        18.5000       161.9220        57.3000         0.5510         0.5920       0.479000         1.8810
       2636.00        18.2000       159.1190        58.8000         0.5930         0.6730       0.496000         1.8810
       2636.50        17.9500       165.6760        57.3000         0.6380         0.6550       0.483000         1.8820
       2637.00        17.9000       162.6730        56.6000         0.6990         0.5810       0.461000         1.9060
       2637.50        17.7500       163.7740        52.9000         0.8020         0.6850       0.449000         1.9480
       2638.00        17.5000       163.5240        47.0000         0.9210         0.9170       0.445000         1.9690
       2638.50        17.6500       156.6670        39.7000         1.0960         1.1480       0.415000         2.0010
       2639.00        17.7000       145.4050        34.8000         1.3540         1.2710       0.399000         2.0460
       2639.50        17.7500       134.8950        33.2000         1.6260         1.5280       0.375000         2.0910
       2640.00        17.9000       121.8820        33.5000         1.8490         1.9410       0.366000         2.1370
       2640.50        17.9000       113.1730        33.9000         1.8490         2.2080       0.383000         2.1690
       2641.00        18.0000       103.9640        34.4000         1.6560         2.3770       0.389000         2.1890
       2641.50        18.1000       113.1730        38.5000         1.3660         2.6300       0.407000         2.1960
       2642.00        18.3000       123.7340        43.8000         1.1480         2.6550       0.431000         2.1430
       2642.50        18.7000       137.2970        49.6000         0.9910         1.6290       0.462000         2.0800
       2643.00        19.2500       156.0160        53.2000         0.8560         0.7310       0.481000         1.9700
       2643.50        19.1000       171.4310        58.2000         0.7520         0.4790       0.483000         1.8390
       2644.00        19.2000       175.2350        60.8000         0.6620         0.4920       0.500000         1.7290
       2644.50        19.3500       178.7390        60.0000         0.5930         0.5810       0.507000         1.7130
       2645.00        19.4000       177.7380        57.7000         0.5610         0.6490       0.503000         1.7820
       2645.50        19.2000       176.6870        58.5000         0.5510         0.6610       0.508000         1.8080
       2646.00        19.0500       176.5370        60.1000         0.5510         0.6980       0.488000         1.8340
       2646.50        18.7000       180.1900        62.4000         0.5610         0.7110       0.482000         1.8930
       2647.00        18.2500       180.1900        63.6000         0.5770         0.6550       0.490000         1.9100
       2647.50        18.0000       180.2400        65.6000         0.5820         0.6190       0.509000         1.8950
       2648.00        17.9000       180.0400        64.7000         0.5930         0.6730       0.523000         1.9140
       2648.50        17.8500       179.7400        64.0000         0.5930         0.6920       0.543000         1.9010
       2649.00        17.6500       178.9390        61.6000         0.5980         0.7240       0.576000         1.8940
       2649.50        18.2000       178.9390        61.0000         0.5980         0.7110       0.562000         1.9170
       2650.00        18.2500       179.2390        58.6000         0.5980         0.6920       0.504000         1.9130
       2650.50        18.0000       179.4390        60.4000         0.5980         0.7240       0.494000         1.8820
       2651.00        18.0000       179.0390        60.0000         0.6090         0.7380       0.528000         1.8750
       2651.50        18.2000       179.7400        60.0000         0.6090         0.6610       0.544000         1.8960
       2652.00        18.2000       179.9900        59.0000         0.6090         0.6430       0.532000         1.8980
