~Version Information Block
VERS .                 2.00:  CWLS LOG ASCII STANDARD - VERSION 2.00
WRAP .                   NO:  One line per depth step
~Well Information Block
#MNEM.UNIT        Data Type   Information
#---------- ----------------  -----------
STRT .FT             840.00:  START DEPTH
STOP .FT            5812.00:  STOP DEPTH
STEP .FT               0.50:  STEP
NULL .              -999.25:  NULL VALUE
COMP .                     :  COMPANY
WELL .                UXA-1:  WELL
FLD  .                     :  FIELD
LOC  .                     :  LOCATION
CTRY .                     :  COUNTRY
STAT .                     :  STATE
CNTY .                     :  COUNTY
SRVC .                     :  SERVICE COMPANY
DATE .                     :  DATE
API  .                     :  API NUMBER
UWI  .                     :  UNIQUE WELL ID
~Curve Information Block
#MNEM.UNIT         API CODE   Curve Description
#---------- ----------------  -----------------
DEPTH.FT                   :  0       Index
CALI .IN                   :  10      Caliper
DT   .US/F                 :  8       Delta-T (also called Slowness or Interval Transit Time)
GR   .GAPI                 :  7       Gamma Ray
ILD  .OHMM                 :  6       Induction Deep Resistivity
MSFL .OHMM                 :  5       Micro-spherically-focused Resistivity
NPHI_LS.V/V                  :  4       Thermal Neutron Porosity (original Ratio Method) in Selected Lit
RHOB .G/C3                 :  3       Bulk Density
~Parameter Information Block
#MNEM.UNIT            Value   Description
#---------- ----------------  -----------
PROJECT.     petro@kponwjlx001:  
SET  .                 WIRE:  
~Other Information Block
# 
~A       DEPTH           CALI             DT             GR            ILD           MSFL        NPHI_LS           RHOB 
# ...
       5429.50        11.4000       100.3500        80.5791         1.2430         2.1677       0.297300         2.4610
       5430.00        11.4000       102.4000        84.1737         1.2318         2.2080       0.293310         2.4510
       5430.50        11.4000       100.4500        84.1737         1.2207         2.1677       0.294310         2.4520
       5431.00        11.4000        99.9000        83.1752         1.2318         2.4210       0.301100         2.4860
       5431.50        11.4000        99.4000        79.7803         1.2544         3.1333       0.310890         2.5050
       5432.00        11.4000        99.5500        79.8802         1.2889         2.9107       0.305100         2.4800
       5432.50        11.3500        97.3000        80.6790         1.3125         2.5119       0.302100         2.4720
       5433.00        11.3500        97.6000        80.9785         1.3245         3.4356       0.297700         2.4720
       5433.50        11.4000        97.7500        78.0829         1.3245         3.7670       0.302500         2.4690
       5434.00        11.4000        97.4000        78.8817         1.3125         2.9107       0.307290         2.4530
       5434.50        11.4000        97.8000        80.0799         1.2889         2.2490       0.323880         2.4430
       5435.00        11.4000        97.6500        80.7788         1.2658         2.0137       0.342260         2.4450
       5435.50        11.4000        99.5500        78.6820         1.2430         2.0137       0.352050         2.4590
       5436.00        11.4000       100.1000        79.0814         1.2097         2.0137       0.355640         2.4660
       5436.50        11.4000       101.4000        80.6790         1.1772         2.2490       0.343660         2.4500
       5437.00        11.4000       100.9000        85.2721         1.1561         2.4660       0.330070         2.4360
       5437.50        11.4000       101.6500        84.2736         1.1561         2.2909       0.322680         2.4480
       5438.00        11.4000        99.5500        82.3764         1.1457         2.5119       0.318680         2.4640
       5438.50        11.4000        99.4000        82.5761         1.1666         2.9107       0.314890         2.4740
       5439.00        11.4500        99.3500        84.1737         1.1880         2.2909       0.300500         2.4820
       5439.50        11.4500        97.1500        82.3764         1.1988         2.1677       0.298100         2.4770
       5440.00        11.4000        98.6000        80.2796         1.2207         2.8054       0.302700         2.4970
       5440.50        11.4000        96.4500        79.5806         1.2207         2.7040       0.302100         2.4970
       5441.00        11.4500        92.8000        77.8832         1.1880         3.0199       0.300500         2.5050
       5441.50        11.5000        89.4500        76.7848         1.1666         3.6644       0.292910         2.5330
       5442.00        11.5000        90.1500        76.2856         1.1561         2.6061       0.283720         2.5440
       5442.50        11.5000        93.6500        79.5806         1.1353         2.6061       0.293910         2.5330
       5443.00        11.6000        97.9500        83.1752         1.1149         1.8030       0.303900         2.4910
       5443.50        11.6000       101.8000        80.7788         1.1049         1.8030       0.302700         2.4480
       5444.00        11.6500       102.6500        80.1797         1.1049         1.8030       0.311690         2.4270
       5444.50        11.6500       100.6000        81.2781         1.0949         1.8030       0.328270         2.4270
       5445.00        11.6500       100.8500        82.6760         1.0949         1.6144       0.327870         2.4450
       5445.50        11.6500        99.5000        80.9785         1.0949         1.4997       0.310490         2.4430
       5446.00        11.7000        98.6500        81.4778         1.1049         1.4723       0.307690         2.4190
       5446.50        11.7000        99.9000        81.0784         1.1149         1.4454       0.316880         2.4290
       5447.00        11.7000        98.1500        79.6805         1.1353         1.8707       0.318680         2.4430
       5447.50        11.7000       101.6500        82.3764         1.1457         2.0137       0.325870         2.4420
       5448.00        11.7000       100.6000        82.8757         1.1561         1.7539       0.338460         2.4480
       5448.50        11.6500        98.8500        82.4763         1.1561         1.8707       0.325280         2.4600
       5449.00        11.7000        97.5000        81.0784         1.1561         1.7061       0.302100         2.4360
       5449.50        11.7000        96.8500        75.3869         1.1666         2.1677       0.294110         2.4480
       5450.00        11.7000        95.8000        76.0859         1.1772         2.9107       0.298900         2.4890
       5450.50        11.7000        98.1000        78.2826         1.1988         2.4210       0.310890         2.4930
       5451.00        11.7000        99.9000        80.8787         1.1988         1.7061       0.309090         2.4730
       5451.50        11.7500        99.4500        82.0769         1.1988         1.4997       0.318280         2.4730
       5452.00        11.7500        99.1000        80.2796         1.1880         1.9409       0.330670         2.4640
       5452.50        11.8000        99.4500        81.8772         1.1880         2.3551       0.324470         2.4610
       5453.00        11.8000        99.2000        81.6775         1.2097         2.0893       0.318080         2.4560
       5453.50        11.8000        98.4000        82.2766         1.2430         2.2909       0.321480         2.4650
       5454.00        11.8000        97.7500        80.4793         1.2889         2.1677       0.318480         2.4500
       5454.50        11.7500        98.5000        80.9785         1.3245         1.8030       0.302500         2.4570
       5455.00        11.7500        95.8500        81.0784         1.3365         2.1281       0.289910         2.4570
       5455.50        11.8000        94.1500        78.4823         1.3734         2.1677       0.287710         2.4690
       5456.00        11.8000        95.7500        77.9830         1.4113         2.0137       0.277720         2.4610
       5456.50        11.8000        94.9000        78.5821         1.4371         2.1677       0.281320         2.4570
       5457.00        11.8000        96.0500        80.4793         1.4241         2.3335       0.268930         2.4300
       5457.50        11.8500        95.7500        83.2751         1.3859         2.1878       0.270130         2.4210
       5458.00        11.8500        96.2500        82.9755         1.3245         1.9055       0.268730         2.4410
       5458.50        11.8500        97.0500        84.3734         1.2544         1.7701       0.280520         2.4560
       5459.00        11.9000        99.2000        84.8727         1.1988         1.8365       0.285910         2.4770
       5459.50        11.9500       101.5000        83.6745         1.1457         1.6144       0.304100         2.4850
       5460.00        11.9500       102.9000        85.8712         1.0949         1.4454       0.322880         2.4570
       5460.50        11.9500       104.5000        86.4703         1.0464         1.6144       0.326870         2.4690
       5461.00        12.0000       104.9500        86.2706         1.0183         1.8030       0.312890         2.4740
       5461.50        11.9500       104.0000        85.4718         1.0000         1.7378       0.317880         2.4830
       5462.00        11.9500       103.4000        86.2706         0.9910         1.6749       0.317280         2.4850
       5462.50        11.9500       103.4000        83.9740         1.0000         1.5560       0.317280         2.4490
