~Version Information Block
VERS .                 2.00:  CWLS LOG ASCII STANDARD - VERSION 2.00
WRAP .                   NO:  One line per depth step
~Well Information Block
#MNEM.UNIT        Data Type   Information
#---------- ----------------  -----------
STRT .FT             840.00:  START DEPTH
STOP .FT            5812.00:  STOP DEPTH
STEP .FT               0.50:  STEP
NULL .              -999.25:  NULL VALUE
COMP .                     :  COMPANY
WELL .                UXA-1:  WELL
FLD  .                     :  FIELD
LOC  .                     :  LOCATION
CTRY .                     :  COUNTRY
STAT .                     :  STATE
CNTY .                     :  COUNTY
SRVC .                     :  SERVICE COMPANY
DATE .                     :  DATE
API  .                     :  API NUMBER
UWI  .                     :  UNIQUE WELL ID
~Curve Information Block
#MNEM.UNIT         API CODE   Curve Description
#---------- ----------------  -----------------
DEPTH.FT                   :  0       Index
CALI .IN                   :  10      Caliper
DT   .US/F                 :  8       Delta-T (also called Slowness or Interval Transit Time)
GR   .GAPI                 :  7       Gamma Ray
ILD  .OHMM                 :  6       Induction Deep Resistivity
MSFL .OHMM                 :  5       Micro-spherically-focused Resistivity
NPHI_LS.V/V                  :  4       Thermal Neutron Porosity (original Ratio Method) in Selected Lit
RHOB .G/C3                 :  3       Bulk Density
~Parameter Information Block
#MNEM.UNIT            Value   Description
#---------- ----------------  -----------
PROJECT.     petro@kponwjlx001:  
SET  .                 WIRE:  
~Other Information Block
# 
~A       DEPTH           CALI             DT             GR            ILD           MSFL        NPHI_LS           RHOB 
# ...
       2146.50        12.5791       114.2500        37.0815         0.9295         1.3804       0.408180         2.0100
       2147.00        12.3465       118.8000        37.4313         0.9295         1.2246       0.430140         2.0050
       2147.50        12.3233       118.3000        37.7811         0.9295         1.0186       0.453690         1.9810
       2148.00        12.3000       117.0500        37.7811         0.9127         1.0186       0.449500         1.9571
       2148.50        12.3000       116.4500        39.4803         0.8961         1.3428       0.435930         1.9551
       2149.00        12.2535       118.5000        39.9800         0.8880         1.1695       0.432930         1.9561
       2149.50        12.3000       119.7500        41.6791         0.8880         0.8166       0.436130         1.9561
       2150.00        12.3930       122.2000        43.1784         0.9044         0.8710       0.430740         1.9531
       2150.50        12.3930       122.4000        43.5782         0.9380         1.0186       0.437720         1.9451
       2151.00        12.3930       121.6000        44.8775         0.9730         0.9376       0.445110         1.9301
       2151.50        12.4395       114.4000        44.7776         0.9909         0.8954       0.434730         1.9341
       2152.00        12.5791       113.0500        45.6772         1.0092         1.0666       0.430740         1.9681
       2152.50        12.4395       114.0000        43.5782         1.0467         1.1481       0.435930         2.0120
       2153.00        12.4860       111.2500        42.9785         1.0661         1.0471       0.443910         2.0250
       2153.50        12.4395       114.6000        45.3773         1.0957         1.1588       0.438920         1.9920
       2154.00        12.3930       111.6000        46.0770         1.0957         1.4723       0.431540         1.9611
       2154.50        12.4860       109.6000        44.7776         1.0467         1.8880       0.427550         1.9561
       2155.00        12.4860       114.9000        44.1779         1.0467         1.7701       0.438920         1.9701
       2155.50        12.5791       119.4000        42.5787         1.0372         1.6596       0.451900         1.9880
       2156.00        12.5326       122.0000        41.5792         1.0278         1.7865       0.447900         1.9890
       2156.50        12.4860       119.4500        41.5792         1.0278         1.5417       0.436130         1.9970
       2157.00        12.4395       122.4000        40.0800         1.0092         1.2246       0.423150         2.0090
       2157.50        12.3000       119.8000        41.5792         1.0000         1.1588       0.414370         2.0100
       2158.00        12.3465       119.6000        44.7776         0.9909         1.0375       0.410580         2.0250
       2158.50        12.3465       121.3000        45.7771         0.9730         1.0568       0.404990         2.0349
       2159.00        12.3000       120.6000        46.3768         0.9730         1.8880       0.412180         2.0379
       2159.50        12.3000       124.4500        44.9775         0.9641         2.1281       0.427940         2.0279
       2160.00        12.3000       124.1000        45.1774         0.9641         1.1695       0.430540         2.0220
       2160.50        12.3000       127.2000        43.7781         0.9553         0.9550       0.441520         2.0250
       2161.00        12.3465       126.1000        42.9785         0.9380         1.2134       0.453890         2.0399
       2161.50        12.3930       121.1000        40.5797         0.9211         1.2474       0.447500         2.0609
       2162.00        12.4860       119.5000        42.3788         0.8961         1.2246       0.433530         2.0808
       2162.50        12.4860       120.0000        42.5787         0.8640         1.3428       0.405790         2.0858
       2163.00        12.6721       120.5000        45.1774         0.8406         1.5136       0.382830         2.0828
       2163.50        12.7651       122.1000        46.1769         0.8406         1.4997       0.400800         2.1058
       2164.00        12.8581       132.9000        47.6762         0.8483         1.0765       0.423150         2.1078
       2164.50        12.7651       134.8500        50.4748         0.8561         1.0000       0.432730         2.0918
       2165.00        12.7651       134.5500        50.7746         0.8483         1.0666       0.446710         2.0738
       2165.50        12.6721       135.7500        48.3758         0.8483         1.0471       0.449700         2.0738
       2166.00        12.5791       128.5000        45.1774         0.8640         1.2359       0.439120         2.0539
       2166.50        12.5791       124.8000        44.8775         0.9044         1.2246       0.432140         2.0399
       2167.00        12.5791       126.0000        44.8775         0.9730         1.1695       0.437720         2.0469
       2167.50        12.5326       129.5000        44.9775         1.0278         1.4454       0.447500         2.0419
       2168.00        12.6721       127.7000        45.7771         1.0092         1.2359       0.450700         2.0100
       2168.50        12.8116       122.8500        45.7771         0.9295         0.9550       0.445510         1.9780
       2169.00        13.1372       117.4000        45.7771         0.8254         1.0375       0.450500         1.9621
       2169.50        14.0674       122.0000        45.6772         0.7263         1.1376       0.465270         1.9531
       2170.00        15.1837       137.7500        43.2784         0.6449         0.8551       0.518360         1.8892
       2170.50        16.3465       154.7000        44.1779         0.5833         0.5754       0.523950         1.8014
       2171.00        16.7651       170.6000        46.0770         0.5227         0.4365       0.517360         1.7136
       2171.50        16.8116       175.8500        49.5752         0.4642         0.3192       0.520760         1.6936
       2172.00        17.5093       178.1500        51.7741         0.4198         0.3192       0.522550         1.7046
       2172.50        18.3465       181.2000        52.7736         0.4010         0.4613       0.497210         1.7315
       2173.00        18.4860       179.7500        52.4738         0.3938         0.5970       0.490020         1.7864
       2173.50        16.9977       177.9000        52.1739         0.4010         0.6194       0.492810         1.8124
       2174.00        15.8349       178.6500        52.4738         0.4122         0.6138       0.507780         1.8124
       2174.50        14.6256       179.2000        55.5722         0.4236         0.6138       0.501600         1.8164
       2175.00        13.6023       179.6000        57.9710         0.4275         0.5297       0.505590         1.8144
       2175.50        13.2302       176.9000        57.8711         0.4314         0.4966       0.525950         1.7984
       2176.00        14.2535       173.6000        57.2714         0.4314         0.5808       0.536930         1.7744
       2176.50        15.0907       173.3500        56.3718         0.4354         0.6081       0.556090         1.7575
       2177.00        15.0907       176.0000        54.5727         0.4434         0.5970       0.551100         1.7226
       2177.50        16.0674       178.5500        53.9730         0.4557         0.5649       0.563070         1.6906
       2178.00        16.4860       179.3500        54.8726         0.4557         0.5200       0.542910         1.6657
       2178.50        15.6488       177.3500        55.6721         0.4557         0.5105       0.538120         1.6507
       2179.00        15.6953       174.1000        56.9715         0.4557         0.4966       0.554290         1.6587
       2179.50        15.9279       173.4500        58.3708         0.4557         0.5105       0.561480         1.6527
