~Version Information Block
VERS .                 2.00:  CWLS LOG ASCII STANDARD - VERSION 2.00
WRAP .                   NO:  One line per depth step
~Well Information Block
#MNEM.UNIT        Data Type   Information
#---------- ----------------  -----------
STRT .FT             840.00:  START DEPTH
STOP .FT            5812.00:  STOP DEPTH
STEP .FT               0.50:  STEP
NULL .              -999.25:  NULL VALUE
COMP .                     :  COMPANY
WELL .                UXA-1:  WELL
FLD  .                     :  FIELD
LOC  .                     :  LOCATION
CTRY .                     :  COUNTRY
STAT .                     :  STATE
CNTY .                     :  COUNTY
SRVC .                     :  SERVICE COMPANY
DATE .                     :  DATE
API  .                     :  API NUMBER
UWI  .                     :  UNIQUE WELL ID
~Curve Information Block
#MNEM.UNIT         API CODE   Curve Description
#---------- ----------------  -----------------
DEPTH.FT                   :  0       Index
CALI .IN                   :  10      Caliper
DT   .US/F                 :  8       Delta-T (also called Slowness or Interval Transit Time)
GR   .GAPI                 :  7       Gamma Ray
ILD  .OHMM                 :  6       Induction Deep Resistivity
MSFL .OHMM                 :  5       Micro-spherically-focused Resistivity
NPHI_LS.V/V                  :  4       Thermal Neutron Porosity (original Ratio Method) in Selected Lit
RHOB .G/C3                 :  3       Bulk Density
~Parameter Information Block
#MNEM.UNIT            Value   Description
#---------- ----------------  -----------
PROJECT.     petro@kponwjlx001:  
SET  .                 WIRE:  
~Other Information Block
# 
~A       DEPTH           CALI             DT             GR            ILD           MSFL        NPHI_LS           RHOB 
# ...
       5764.50         9.1000        71.4500        27.8582         4.9307         6.7920       0.179020         2.4710
       5765.00         9.1000        70.6500        28.5572         5.1128         5.9703       0.174230         2.4720
       5765.50         9.0000        70.8000        27.9580         5.2538         4.3652       0.179420         2.4480
       5766.00         8.9500        70.1000        25.4618         5.3499         3.9811       0.181820         2.4450
       5766.50         8.9500        70.6000        25.3619         5.3986         4.0551       0.180020         2.4490
       5767.00         8.9000        70.6000        25.1623         5.4478         4.0551       0.171030         2.4510
       5767.50         8.8000        71.8000        23.9641         5.4478         3.2810       0.169430         2.4650
       5768.00         8.7500        71.2000        23.1652         5.2538         3.1623       0.174430         2.4510
       5768.50         8.6500        70.6500        23.9641         4.8863         3.4994       0.184420         2.4330
       5769.00         8.5500        70.4000        23.1652         4.4628         3.3729       0.186410         2.4290
       5769.50         8.5000        71.4500        21.5676         4.1131         3.0761       0.179020         2.4130
       5770.00         8.5500        71.3000        20.5691         3.7909         2.5119       0.190210         2.3910
       5770.50         8.6500        75.3500        20.3694         3.5257         1.9588       0.197000         2.4050
       5771.00         8.7000        75.9000        21.7673         3.1911         2.0137       0.204590         2.4130
       5771.50         8.7000        76.8000        22.3664         2.8621         2.1878       0.209390         2.4110
       5772.00         8.6500        78.3500        22.0669         2.6141         2.0137       0.213990         2.3940
       5772.50         8.6000        78.9000        21.3679         2.3876         2.0137       0.220580         2.3930
       5773.00         8.6000        79.8500        21.6675         2.2408         2.1677       0.222380         2.4030
       5773.50         8.6000        80.4500        22.3664         2.1414         2.2080       0.230570         2.4000
       5774.00         8.5000        82.6000        20.3694         2.1030         1.9055       0.242160         2.3780
       5774.50         8.5000        82.8000        19.1712         2.0466         1.8030       0.241960         2.3600
       5775.00         8.5500        83.0000        19.3709         2.0466         1.9409       0.225970         2.3610
       5775.50         8.6000        82.0000        20.3694         2.0840         1.8030       0.223580         2.3810
       5776.00         8.6000        82.0000        21.2681         2.2205         1.6444       0.222780         2.3850
       5776.50         8.7000        81.4000        21.5676         2.4312         1.8707       0.213990         2.3930
       5777.00         8.8000        80.4000        20.5691         2.6619         2.4434       0.192610         2.4090
       5777.50         8.8500        77.6000        21.4678         2.9145         2.8576       0.179220         2.4400
       5778.00         8.9500        75.0000        23.0654         3.2791         3.2509       0.181220         2.4450
       5778.50         9.1000        72.6000        23.3649         3.7567         4.3652       0.178020         2.4520
       5779.00         9.2000        71.1000        22.4663         4.1131         5.4450       0.182020         2.4610
       5779.50         9.2000        68.5000        22.3664         4.2265         5.7544       0.178220         2.4750
       5780.00         9.2000        70.9500        21.8672         3.9309         5.2481       0.179420         2.4720
       5780.50         9.2500        70.4000        22.0669         3.4311         5.8614       0.190810         2.4570
       5781.00         9.2500        70.0000        23.2651         2.9145         6.6681       0.211590         2.4170
       5781.50         9.2500        76.0000        21.9670         2.5440         3.9084       0.241960         2.4230
       5782.00         9.2000        82.9000        22.5662         2.1806         2.0893       0.278520         2.3890
       5782.50         9.2000        88.6500        22.9655         1.8692         2.0893       0.301300         2.3580
       5783.00         9.2000        94.7000        21.4678         1.5878         2.0512       0.305490         2.3480
       5783.50         9.2500        94.0000        21.1682         1.3610         1.6144       0.298700         2.3520
       5784.00         9.3000        94.0500        21.9670         1.2207         1.5560       0.302100         2.3530
       5784.50         9.3500        95.6000        21.1682         1.1457         1.3183       0.296300         2.3650
       5785.00         9.3500        97.4500        21.0684         1.1353         1.0568       0.301300         2.4090
       5785.50         9.3000       100.3500        19.4708         1.1049         1.0375       0.311690         2.4270
       5786.00         9.2500        99.0000        21.3679         1.0559         1.5560       0.290910         2.4160
       5786.50         9.3000        93.0500        22.3664         1.0091         2.5119       0.266130         2.4180
       5787.00         9.3000        93.3500        23.2651         0.9644         1.8030       0.268930         2.4580
       5787.50         9.2500        91.6500        22.5662         0.9300         1.1695       0.282120         2.4640
       5788.00         9.2000        93.8500        21.9670         0.9051         1.0000       0.292310         2.4160
       5788.50         9.1500        99.6000        22.7658         0.8650         0.7311       0.301500         2.4130
       5789.00         9.1000       100.9000        22.7658         0.8192         0.6427       0.321880         2.4100
       5789.50         9.0500       101.8000        22.7658         0.8045         0.6427       0.335660         2.4090
       5790.00         8.9500       106.6500        22.7658         0.8267         0.5808       0.347850         2.4400
       5790.50         8.9500       106.6000        22.7658         0.8650         0.6486       0.350050         2.4400
       5791.00         9.0000       106.6500        22.7658         0.9732         0.9036       0.329270         2.4500
       5791.50         8.9500       104.2500        22.7658         1.1251         1.5276       0.287710         2.4450
       5792.00         9.0000        92.8000        22.6660         1.3487         5.2481       0.229770         2.4710
       5792.50         8.9000        82.0500        22.7658         1.6168        18.0302       0.156440         2.5130
       5793.00         8.8000        68.9500        22.7658         1.9916        11.8032       0.134660         2.5550
       5793.50         8.7500        61.2500        22.7658         2.5440         4.2855       0.150050         2.5320
       5794.00         8.6000        61.6000        22.7658         2.8882         4.5290       0.168430         2.4810
       5794.50         8.5000        64.9500        22.6660         2.9678         4.6989       0.186410         2.4530
       5795.00         8.4500        69.4500        22.7658         2.7602         3.3113       0.201800         2.4400
       5795.50         8.5000        75.6500        22.7658         2.4312         2.6061       0.221980         2.4050
       5796.00         8.5000        75.8500        22.6660         2.1221         2.5119       0.234960         2.3760
       5796.50         8.5000        74.8500        22.7658         1.9207         2.2699       0.247550         2.3460
       5797.00         8.5500        76.0500        22.7658         1.7864         1.7061       0.243160         2.3490
       5797.50         8.5500        75.4500        22.6660         1.7864         1.6749       0.235560         2.3430
