~Version Information Block
VERS .                 2.00:  CWLS LOG ASCII STANDARD - VERSION 2.00
WRAP .                   NO:  One line per depth step
~Well Information Block
#MNEM.UNIT        Data Type   Information
#---------- ----------------  -----------
STRT .FT             840.00:  START DEPTH
STOP .FT            5812.00:  STOP DEPTH
STEP .FT               0.50:  STEP
NULL .              -999.25:  NULL VALUE
COMP .                     :  COMPANY
WELL .                UXA-1:  WELL
FLD  .                     :  FIELD
LOC  .                     :  LOCATION
CTRY .                     :  COUNTRY
STAT .                     :  STATE
CNTY .                     :  COUNTY
SRVC .                     :  SERVICE COMPANY
DATE .                     :  DATE
API  .                     :  API NUMBER
UWI  .                     :  UNIQUE WELL ID
~Curve Information Block
#MNEM.UNIT         API CODE   Curve Description
#---------- ----------------  -----------------
DEPTH.FT                   :  0       Index
CALI .IN                   :  10      Caliper
DT   .US/F                 :  8       Delta-T (also called Slowness or Interval Transit Time)
GR   .GAPI                 :  7       Gamma Ray
ILD  .OHMM                 :  6       Induction Deep Resistivity
MSFL .OHMM                 :  5       Micro-spherically-focused Resistivity
NPHI_LS.V/V                  :  4       Thermal Neutron Porosity (original Ratio Method) in Selected Lit
RHOB .G/C3                 :  3       Bulk Density
~Parameter Information Block
#MNEM.UNIT            Value   Description
#---------- ----------------  -----------
PROJECT.     petro@kponwjlx001:  
SET  .                 WIRE:  
~Other Information Block
# 
~A       DEPTH           CALI             DT             GR            ILD           MSFL        NPHI_LS           RHOB 
# ...
       3788.00        14.8000       121.7500        79.1000         0.8880         1.1171       0.426400         2.0990
       3788.50        15.1000       122.5000        80.7500         0.8921         1.0569       0.414600         2.1280
       3789.00        15.1500       124.8500        82.4000         0.8961         0.9908       0.404400         2.1490
       3789.50        15.2000       125.3500        83.7000         0.8961         0.8548       0.397800         2.1530
       3790.00        15.4000       123.9000        82.5000         0.8719         0.8318       0.404000         2.1870
       3790.50        14.9500       123.2000        79.6000         0.8640         0.8087       0.423200         2.2120
       3791.00        14.4500       122.2000        78.1000         0.8640         0.8087       0.427000         2.1960
       3791.50        14.1000       123.3000        78.4500         0.8561         0.7375       0.422800         2.1930
       3792.00        14.0500       125.0000        78.8000         0.8561         0.6188       0.414800         2.1950
       3792.50        13.9000       127.4000        81.7000         0.8561         0.6481       0.414800         2.1940
       3793.00        14.0500       126.9000        82.1000         0.8561         0.7375       0.431400         2.1840
       3793.50        14.4000       125.9000        85.3000         0.8483         0.7240       0.439000         2.1820
       3794.00        14.4000       124.1500        83.6000         0.8483         0.7307       0.461800         2.1930
       3794.50        14.1000       125.3000        81.2000         0.8561         0.7307       0.480800         2.1960
       3795.00        14.2000       126.7000        82.0000         0.8561         0.7107       0.495600         2.2170
       3795.50        14.2000       128.2500        80.5000         0.8561         0.7107       0.503200         2.2260
       3796.00        14.3000       128.0000        75.4000         0.8561         0.7042       0.480000         2.2325
       3796.50        14.3000       126.6000        75.7000         0.8483         0.7042       0.466400         2.2390
       3797.00        14.2000       126.1000        76.0000         0.8406         0.7240       0.472400         2.2280
       3797.50        14.2000       126.2900        77.4000         0.8368         0.7240       0.464800         2.2530
       3798.00        14.0000       126.4800        78.2000         0.8330         0.7375       0.441200         2.2440
       3798.50        13.8500       126.6700        78.6000         0.8330         0.7307       0.430000         2.2340
       3799.00        13.8500       126.8600        75.8000         0.8330         0.7652       0.429000         2.2500
       3799.50        13.8500       127.0500        73.0000         0.8406         0.8013       0.436600         2.2420
       3800.00        13.7500       125.6000        71.6000         0.8561         0.7940       0.434600         2.2410
       3800.50        13.6500       126.1500        71.1000         0.8640         0.7940       0.415200         2.2415
       3801.00        13.8000       126.4500        70.0000         0.8640         0.7723       0.397800         2.2420
       3801.50        13.8000       117.8500        70.0000         0.8842         0.7794       0.390600         2.2450
       3802.00        14.0500       117.5000        69.2000         0.9044         0.7582       0.389600         2.2490
       3802.50        13.6500       118.5000        66.8000         0.9730         0.7512       0.389200         2.2430
       3803.00        13.4500       118.2000        66.0000         1.0467         0.8392       0.373000         2.2680
       3803.50        13.3500       118.9000        67.2000         1.1261         0.9374       0.369600         2.2770
       3804.00        13.5000       114.3000        65.4000         1.0957         0.8392       0.387200         2.2700
       3804.50        13.6000       102.1000        62.7000         1.0467         0.7723       0.394600         2.2680
       3805.00        13.8000        94.9000        58.6000         1.0372         1.0000       0.402400         2.2760
       3805.50        14.2000       107.2000        59.2000         1.0278         1.1275       0.398400         2.2920
       3806.00        14.6000       112.1000        60.8000         1.0000         0.8548       0.401800         2.2540
       3806.50        15.1000       125.3500        65.2000         0.9467         0.5643       0.437000         2.2020
       3807.00        14.8000       133.0000        70.7000         0.8719         0.4480       0.464000         2.0810
       3807.50        14.5000       132.8000        72.5000         0.7958         0.4606       0.446600         2.0300
       3808.00        14.9000       134.2000        73.7000         0.7533         0.5388       0.423200         2.0920
       3808.50        14.8500       134.4000        72.7000         0.7397         0.6850       0.426800         2.1340
       3809.00        14.8000       131.8000        74.8000         0.7397         0.6787       0.426300         2.1530
       3809.50        14.6500       128.5000        75.6000         0.7534         0.6541       0.425800         2.1520
       3810.00        14.5000       128.2687        73.3000         0.7672         0.6759       0.424400         2.1660
       3810.50        14.5000       128.0375        74.8000         0.7814         0.6977       0.415400         2.1700
       3811.00        14.5000       127.8062        73.7000         0.7958         0.7173       0.432200         2.1770
       3811.50        14.4000       127.5750        75.4000         0.7958         0.7582       0.441200         2.1970
       3812.00        14.6000       127.3438        76.6000         0.8031         0.7307       0.444000         2.1940
       3812.50        14.7500       127.1125        78.7000         0.8105         0.7512       0.436200         2.1820
       3813.00        14.9000       126.8812        79.7000         0.8105         0.7867       0.413800         2.1630
       3813.50        14.8000       126.6500        77.6000         0.8179         0.8013       0.412400         2.1780
       3814.00        14.9000       125.4000        78.0000         0.8254         0.8163       0.409900         2.1800
       3814.50        15.2500       126.2500        78.8000         0.8330         0.7867       0.407400         2.1700
       3815.00        15.2000       128.4500        74.4000         0.8330         0.7794       0.418000         2.1850
       3815.50        15.2000       128.4500        74.0000         0.8330         0.7723       0.429600         2.1620
       3816.00        15.2000       128.4500        76.6000         0.8254         0.7512       0.432200         2.1540
       3816.50        15.1000       128.4500        76.6000         0.8254         0.7375       0.433000         2.1620
       3817.00        15.2000       128.4500        77.4000         0.8179         0.7794       0.466400         2.1660
       3817.50        15.3000       127.6000        77.5000         0.8105         0.8163       0.416800         2.1810
       3818.00        15.3000       126.9000        75.6000         0.8031         0.7794       0.426600         2.2010
       3818.50        15.4000       128.4000        75.6000         0.7958         0.7512       0.424200         2.1940
       3819.00        15.1000       127.2000        78.0000         0.7814         0.7375       0.412200         2.2020
       3819.50        14.7500       127.5000        78.8000         0.7814         0.7375       0.408200         2.2300
       3820.00        14.8500       128.0000        78.2000         0.7743         0.7375       0.421000         2.2120
       3820.50        15.1000       128.2000        78.3500         0.7672         0.7582       0.421400         2.1810
       3821.00        15.1000       126.9714        78.5000         0.7603         0.7582       0.424400         2.1680
