~Version Information Block
VERS .                 2.00:  CWLS LOG ASCII STANDARD - VERSION 2.00
WRAP .                   NO:  One line per depth step
~Well Information Block
#MNEM.UNIT        Data Type   Information
#---------- ----------------  -----------
STRT .FT             840.00:  START DEPTH
STOP .FT            5812.00:  STOP DEPTH
STEP .FT               0.50:  STEP
NULL .              -999.25:  NULL VALUE
COMP .                     :  COMPANY
WELL .                UXA-1:  WELL
FLD  .                     :  FIELD
LOC  .                     :  LOCATION
CTRY .                     :  COUNTRY
STAT .                     :  STATE
CNTY .                     :  COUNTY
SRVC .                     :  SERVICE COMPANY
DATE .                     :  DATE
API  .                     :  API NUMBER
UWI  .                     :  UNIQUE WELL ID
~Curve Information Block
#MNEM.UNIT         API CODE   Curve Description
#---------- ----------------  -----------------
DEPTH.FT                   :  0       Index
CALI .IN                   :  10      Caliper
DT   .US/F                 :  8       Delta-T (also called Slowness or Interval Transit Time)
GR   .GAPI                 :  7       Gamma Ray
ILD  .OHMM                 :  6       Induction Deep Resistivity
MSFL .OHMM                 :  5       Micro-spherically-focused Resistivity
NPHI_LS.V/V                  :  4       Thermal Neutron Porosity (original Ratio Method) in Selected Lit
RHOB .G/C3                 :  3       Bulk Density
~Parameter Information Block
#MNEM.UNIT            Value   Description
#---------- ----------------  -----------
PROJECT.     petro@kponwjlx001:  
SET  .                 WIRE:  
~Other Information Block
# 
~A       DEPTH           CALI             DT             GR            ILD           MSFL        NPHI_LS           RHOB 
# ...
       1175.00        12.9512       179.8500        59.9700         0.6509         0.6138       0.549700         1.8503
       1175.50        13.0907       179.5000        56.5717         0.6509         0.6982       0.531940         1.8503
       1176.00        13.1837       178.9500        57.1714         0.6509         0.7586       0.504990         1.8593
       1176.50        13.1837       178.3000        60.1699         0.6509         0.7047       0.487220         1.8573
       1177.00        13.1372       179.0000        60.1699         0.6509         0.5970       0.487420         1.8413
       1177.50        12.9977       179.2000        60.1699         0.6449         0.5649       0.496010         1.8174
       1178.00        13.0442       179.2000        60.7696         0.6391         0.6252       0.488220         1.7964
       1178.50        13.0442       179.2000        63.3683         0.6333         0.6792       0.488820         1.8134
       1179.00        13.0442       179.2500        65.1674         0.6275         0.6486       0.476650         1.8333
       1179.50        13.0442       178.8500        64.9675         0.6218         0.6855       0.444710         1.8503
       1180.00        13.0907       179.6500        63.1684         0.6218         0.7178       0.427940         1.8663
       1180.50        13.0442       180.8000        62.6687         0.6161         0.6194       0.453690         1.8703
       1181.00        12.9512       180.9500        62.8686         0.6105         0.5649       0.489420         1.8643
       1181.50        12.8581       182.2000        60.7696         0.5940         0.6310       0.520160         1.8643
       1182.00        12.9512       182.4500        59.2704         0.5833         0.8091       0.523350         1.8523
       1182.50        12.9512       183.1000        62.4688         0.5727         0.9550       0.533730         1.8493
       1183.00        12.8581       184.4000        64.2679         0.5623         0.8551       0.539720         1.8383
       1183.50        13.0442       184.9500        66.0670         0.5572         0.7047       0.544710         1.8243
       1184.00        13.3233       185.8500        65.0675         0.5422         0.6138       0.542320         1.8254
       1184.50        13.4163       186.7500        63.1684         0.5372         0.5649       0.513570         1.8054
       1185.00        13.0907       187.8000        62.3688         0.5275         0.6368       0.495410         1.8004
       1185.50        12.9512       188.6000        64.4678         0.5132         0.6982       0.502200         1.8034
       1186.00        12.7186       188.8000        63.7681         0.5086         0.6368       0.508780         1.8074
       1186.50        12.6721       189.3500        61.5692         0.5039         0.6368       0.504190         1.7994
       1187.00        12.8581       190.3500        61.2694         0.5039         0.7379       0.495210         1.8014
       1187.50        13.0442       190.0500        62.9685         0.4994         0.8166       0.485630         1.8104
       1188.00        13.2302       189.9500        60.7696         0.4948         0.7798       0.506390         1.8124
       1188.50        13.2767       190.2000        60.0700         0.4948         0.6982       0.526950         1.8134
       1189.00        13.0442       189.8500        61.3693         0.4903         0.6486       0.547700         1.8084
       1189.50        13.0442       189.8500        64.0680         0.4948         0.6368       0.540720         1.7984
       1190.00        13.0442       190.0000        65.7671         0.4948         0.6792       0.530540         1.7924
       1190.50        13.0442       189.6000        65.1674         0.4948         0.6792       0.514370         1.7804
       1191.00        12.8116       189.2500        64.1679         0.4994         0.7112       0.518160         1.7864
       1191.50        12.6721       188.4000        65.5672         0.4948         0.9376       0.509780         1.7954
       1192.00        12.7186       187.9000        67.1664         0.4948         0.9908       0.522550         1.7934
       1192.50        12.9977       187.9000        67.9660         0.4903         0.7727       0.533330         1.8074
       1193.00        13.1837       187.7500        66.5667         0.4859         0.6310       0.511380         1.8004
       1193.50        13.1837       187.8000        65.7671         0.4859         0.6792       0.514370         1.8074
       1194.00        13.3233       187.6500        64.9675         0.4859         0.7244       0.520760         1.8114
       1194.50        13.3233       186.9000        67.1664         0.4948         0.6486       0.515170         1.8134
       1195.00        13.3698       186.6500        65.1674         0.5039         0.6546       0.522360         1.8184
       1195.50        13.2767       184.5000        65.2674         0.5179         0.7379       0.536130         1.8094
       1196.00        13.3233       181.6000        64.9675         0.5372         0.7379       0.541920         1.8124
       1196.50        13.3233       179.6500        64.3678         0.5623         0.8017       0.513170         1.8233
       1197.00        13.2302       177.8500        64.4678         0.5995         0.7727       0.484630         1.8523
       1197.50        13.1837       176.1000        61.5692         0.6449         0.6982       0.470660         1.8892
       1198.00        12.9512       173.6000        60.7696         0.6876         0.6918       0.491220         1.9012
       1198.50        12.9512       169.6000        60.7696         0.7263         0.7112       0.512770         1.8942
       1199.00        13.0442       165.0500        59.3703         0.7397         0.8954       0.534330         1.8683
       1199.50        12.9512       164.8500        56.8716         0.7602         1.0568       0.522160         1.8423
       1200.00        12.8581       168.0000        54.9725         0.7672         0.9728       0.478440         1.8643
       1200.50        12.6721       170.0500        56.8716         0.7672         0.9376       0.488220         1.8932
       1201.00        12.4860       171.3000        54.3728         0.7533         0.9908       0.462480         1.8982
       1201.50        12.3000       171.2000        54.3728         0.7465         0.8551       0.450700         1.8922
       1202.00        12.2535       171.4500        57.3713         0.7397         0.7379       0.439920         1.8812
       1202.50        12.2535       172.8000        57.7711         0.7465         0.7379       0.452100         1.8842
       1203.00        12.3000       175.6000        57.9710         0.7533         0.7586       0.464470         1.8822
       1203.50        12.3465       176.0000        59.9700         0.7672         0.8017       0.478640         1.8822
       1204.00        12.4860       176.2000        58.7706         0.7533         0.8954       0.482240         1.8902
       1204.50        12.6721       177.0000        56.9715         0.7397         0.9462       0.490420         1.9072
       1205.00        12.8581       177.9500        54.4728         0.7131         0.9462       0.497010         1.9231
       1205.50        13.1837       178.7500        58.6707         0.6876         0.9462       0.503390         1.9212
       1206.00        13.5093       180.4000        62.5687         0.6509         0.7943       0.522550         1.9012
       1206.50        13.6953       182.0000        63.7681         0.6218         0.6081       0.533730         1.8683
       1207.00        13.7884       183.5000        63.6682         0.5833         0.5916       0.530540         1.8423
       1207.50        13.7884       184.3000        65.0675         0.5572         0.6252       0.521760         1.8184
       1208.00        13.9279       184.5000        64.8676         0.5372         0.6194       0.508780         1.8004
