~Version Information Block
VERS .                 2.00:  CWLS LOG ASCII STANDARD - VERSION 2.00
WRAP .                   NO:  One line per depth step
~Well Information Block
#MNEM.UNIT        Data Type   Information
#---------- ----------------  -----------
STRT .FT             840.00:  START DEPTH
STOP .FT            5812.00:  STOP DEPTH
STEP .FT               0.50:  STEP
NULL .              -999.25:  NULL VALUE
COMP .                     :  COMPANY
WELL .                UXA-1:  WELL
FLD  .                     :  FIELD
LOC  .                     :  LOCATION
CTRY .                     :  COUNTRY
STAT .                     :  STATE
CNTY .                     :  COUNTY
SRVC .                     :  SERVICE COMPANY
DATE .                     :  DATE
API  .                     :  API NUMBER
UWI  .                     :  UNIQUE WELL ID
~Curve Information Block
#MNEM.UNIT         API CODE   Curve Description
#---------- ----------------  -----------------
DEPTH.FT                   :  0       Index
CALI .IN                   :  10      Caliper
DT   .US/F                 :  8       Delta-T (also called Slowness or Interval Transit Time)
GR   .GAPI                 :  7       Gamma Ray
ILD  .OHMM                 :  6       Induction Deep Resistivity
MSFL .OHMM                 :  5       Micro-spherically-focused Resistivity
NPHI_LS.V/V                  :  4       Thermal Neutron Porosity (original Ratio Method) in Selected Lit
RHOB .G/C3                 :  3       Bulk Density
~Parameter Information Block
#MNEM.UNIT            Value   Description
#---------- ----------------  -----------
PROJECT.     petro@kponwjlx001:  
SET  .                 WIRE:  
~Other Information Block
# 
~A       DEPTH           CALI             DT             GR            ILD           MSFL        NPHI_LS           RHOB 
# ...
       4458.00        16.7000       116.5000        65.8000         0.6509         0.4011       0.435200         1.8020
       4458.50        16.9500       118.1500        67.2000         0.6449         0.4606       0.424400         1.8300
       4459.00        16.5000       120.2000        66.8000         0.6391         0.5098       0.422600         1.8930
       4459.50        15.9000       118.8500        67.2000         0.6275         0.5005       0.427600         1.9350
       4460.00        15.7000       121.2000        68.2000         0.6218         0.4480       0.422800         1.9800
       4460.50        15.7000       119.9000        67.4000         0.6218         0.4085       0.422800         2.0220
       4461.00        15.9000       119.7500        68.4000         0.6333         0.4048       0.412200         2.0000
       4461.50        15.7500       121.6000        68.6000         0.6509         0.4278       0.404000         2.0060
       4462.00        15.4333       123.2000        67.8000         0.6813         0.4564       0.409800         1.9920
       4462.50        15.1167       121.1000        67.8000         0.6876         0.4564       0.436000         1.9780
       4463.00        14.8000       116.8500        68.8000         0.7067         0.4564       0.446600         2.0180
       4463.50        14.3000       113.4500        67.6000         0.7263         0.5801       0.445600         2.0140
       4464.00        13.8500       112.8500        69.7500         0.7610         0.7042       0.427600         1.9640
       4464.50        14.1000       113.6750        71.9000         0.7958         0.5290       0.413000         1.9620
       4465.00        14.4000       114.5000        72.2000         0.8406         0.3937       0.424400         1.9780
       4465.50        14.5000       115.4000        74.8000         0.8719         0.4278       0.427400         1.9770
       4466.00        14.4000       114.6500        72.0000         0.8880         0.4439       0.411400         1.9700
       4466.50        14.2500       113.0500        66.9000         0.9044         0.4318       0.387000         1.9540
       4467.00        13.8500       109.6000        64.6000         0.9127         0.4878       0.378400         1.9500
       4467.50        13.7500       108.1500        64.0000         0.9380         0.5438       0.365200         1.9800
       4468.00        13.9000       105.0000        62.8000         0.9819         0.6663       0.349400         2.0330
       4468.50        13.9000       105.4500        62.8000         1.0092         0.7173       0.340400         2.0830
       4469.00        13.3000       106.9000        61.4000         1.0278         0.7240       0.348200         2.0930
       4469.50        13.0000       105.7500        62.8000         1.0092         0.7042       0.354800         2.0870
       4470.00        12.8500       106.4000        62.2000         0.9819         0.6787       0.368200         2.0720
       4470.50        13.0000       107.7000        61.4000         0.9380         0.7307       0.365600         2.0550
       4471.00        13.2000       107.9500        59.9000         0.9044         0.6541       0.361400         2.0550
       4471.50        13.5000       109.2000        62.9000         0.8719         0.4868       0.371600         2.0120
       4472.00        14.0000       109.4000        64.4000         0.8330         0.4959       0.392400         1.9710
       4472.50        14.4000       109.0000        62.9000         0.8179         0.5909       0.409200         1.9850
       4473.00        14.6000       111.6000        65.2000         0.7958         0.6246       0.418000         2.0080
       4473.50        14.6000       112.2500        65.2000         0.7958         0.5056       0.412600         1.9880
       4474.00        14.6000       111.7000        62.4000         0.8179         0.3865       0.409800         1.9660
       4474.50        14.5000       113.3000        61.4000         0.8330         0.3397       0.415600         1.9250
       4475.00        13.8000       110.2000        64.2000         0.8406         0.3901       0.399000         1.9270
       4475.50        13.8000       109.4000        66.0000         0.8640         0.5241       0.406400         1.9730
       4476.00        14.0500       108.9000        66.4000         0.8880         0.7582       0.403870         2.0580
       4476.50        14.0700       108.0000        67.0000         0.9295         0.8952       0.401330         2.1220
       4477.00        14.0900       109.4500        67.3000         0.9819         1.0000       0.398800         2.1360
       4477.50        14.1100       110.6500        65.7000         1.0048         0.9908       0.413000         2.1450
       4478.00        14.1300       108.9000        65.6000         1.0278         0.6787       0.415400         2.0790
       4478.50        14.1500       107.9500        64.4000         1.0278         0.5855       0.416400         2.0700
       4479.00        14.2500       106.9000        62.0000         1.0092         0.6663       0.391600         2.0955
       4479.50        14.3000       105.7000        63.5000         1.0000         0.8788       0.364400         2.1210
       4480.00        14.2000       107.4500        62.5000         0.9819         0.9908       0.373600         2.1540
       4480.50        13.7000       108.0000        65.4000         0.9730         0.8013       0.377200         2.1200
       4481.00        13.6500       108.4000        67.4000         0.9295         0.6787       0.390000         2.0930
       4481.50        13.8500       107.7000        66.4000         0.9044         0.5964       0.400600         2.0560
       4482.00        14.4000       108.2000        65.8000         0.8961         0.5241       0.401800         2.0410
       4482.50        15.0500       110.1500        66.0000         0.8761         0.5748       0.408200         2.0490
       4483.00        15.2000       109.9000        65.7000         0.8561         0.6019       0.411400         2.0620
       4483.50        14.6500       110.1000        63.0000         0.8483         0.5643       0.411800         2.0660
       4484.00        14.4000       113.6500        61.0000         0.8483         0.5051       0.419600         2.0580
       4484.50        14.2500       111.5500        59.4000         0.8640         0.4868       0.436200         2.0130
       4485.00        14.1500       111.0000        60.4000         0.9127         0.4564       0.429800         1.9940
       4485.50        13.8500       113.4000        61.8500         1.0143         0.4823       0.409800         2.0210
       4486.00        13.4000       111.7000        63.3000         1.1159         0.6541       0.410400         2.0820
       4486.50        13.1000       111.8500        62.6000         1.2566         0.5867       0.409200         2.1340
       4487.00        13.1500       106.7500        59.6000         1.4281         0.5193       0.401200         2.1245
       4487.50        13.0000        98.9500        54.8000         1.5505         0.6724       0.375600         2.1150
       4488.00        12.8000        86.6000        49.6000         1.6230         2.3591       0.336400         2.2040
       4488.50        12.8750        76.1000        47.6000         1.7145         2.5691       0.291400         2.3610
       4489.00        12.9500        76.0500        47.2000         1.7461         2.7790       0.250400         2.4600
       4489.50        13.0000        82.8500        49.0000         1.7461         2.9890       0.242000         2.4860
       4490.00        13.1000        92.1500        54.8000         1.6379         3.1990       0.271400         2.4820
       4490.50        13.1000        98.5000        56.2000         1.5086         2.4934       0.306000         2.4220
       4491.00        13.1000        99.4000        57.2000         1.3895         2.2527       0.328800         2.3500
