~Version Information Block
VERS .                 2.00:  CWLS LOG ASCII STANDARD - VERSION 2.00
WRAP .                   NO:  One line per depth step
~Well Information Block
#MNEM.UNIT        Data Type   Information
#---------- ----------------  -----------
STRT .FT             840.00:  START DEPTH
STOP .FT            5812.00:  STOP DEPTH
STEP .FT               0.50:  STEP
NULL .              -999.25:  NULL VALUE
COMP .                     :  COMPANY
WELL .                UXA-1:  WELL
FLD  .                     :  FIELD
LOC  .                     :  LOCATION
CTRY .                     :  COUNTRY
STAT .                     :  STATE
CNTY .                     :  COUNTY
SRVC .                     :  SERVICE COMPANY
DATE .                     :  DATE
API  .                     :  API NUMBER
UWI  .                     :  UNIQUE WELL ID
~Curve Information Block
#MNEM.UNIT         API CODE   Curve Description
#---------- ----------------  -----------------
DEPTH.FT                   :  0       Index
CALI .IN                   :  10      Caliper
DT   .US/F                 :  8       Delta-T (also called Slowness or Interval Transit Time)
GR   .GAPI                 :  7       Gamma Ray
ILD  .OHMM                 :  6       Induction Deep Resistivity
MSFL .OHMM                 :  5       Micro-spherically-focused Resistivity
NPHI_LS.V/V                  :  4       Thermal Neutron Porosity (original Ratio Method) in Selected Lit
RHOB .G/C3                 :  3       Bulk Density
~Parameter Information Block
#MNEM.UNIT            Value   Description
#---------- ----------------  -----------
PROJECT.     petro@kponwjlx001:  
SET  .                 WIRE:  
~Other Information Block
# 
~A       DEPTH           CALI             DT             GR            ILD           MSFL        NPHI_LS           RHOB 
# ...
       2816.50        14.2070       145.9000        70.3648         0.6939         0.6668       0.478640         1.9571
       2817.00        14.5326       149.2500        67.2664         0.6939         0.6982       0.483830         1.9611
       2817.50        14.5326       153.8500        65.5672         0.7002         0.7379       0.471860         1.9481
       2818.00        14.3465       160.7000        61.7691         0.6939         0.6546       0.471260         1.9252
       2818.50        14.0674       165.6500        61.2694         0.6939         0.6026       0.480240         1.8852
       2819.00        13.4163       165.6500        62.9685         0.6876         0.7379       0.485830         1.9142
       2819.50        13.6488       163.9500        65.2674         0.6629         0.7871       0.473450         1.9741
       2820.00        13.4628       162.8000        65.1674         0.6275         0.6730       0.471860         1.9930
       2820.50        13.1837       163.0500        63.5682         0.5995         0.6668       0.465870         1.9371
       2821.00        13.7884       164.3000        63.5682         0.5833         0.6368       0.463670         1.9212
       2821.50        14.3000       167.0500        63.1684         0.5727         0.6427       0.450500         1.9411
       2822.00        14.4395       165.2500        66.8666         0.5727         0.5861       0.455290         1.9581
       2822.50        14.1605       163.3500        70.4648         0.5780         0.5297       0.473450         1.9301
       2823.00        14.3000       162.1000        72.9635         0.5780         0.5808       0.471060         1.8782
       2823.50        14.2535       160.5500        69.6652         0.5727         0.6252       0.485830         1.8573
       2824.00        13.9279       159.0000        70.0650         0.5727         0.5598       0.498200         1.8024
       2824.50        13.6953       158.6500        69.5652         0.5623         0.5058       0.513370         1.8024
       2825.00        13.4628       158.9000        69.9650         0.5572         0.5495       0.506990         1.8343
       2825.50        13.6953       157.8000        70.3648         0.5522         0.5495       0.500800         1.8902
       2826.00        13.9279       157.3500        71.1644         0.5522         0.5861       0.519360         1.9252
       2826.50        13.8814       156.1000        71.9640         0.5522         0.5970       0.522160         1.9381
       2827.00        13.9744       156.7000        73.8631         0.5572         0.5152       0.523350         1.9102
       2827.50        14.3930       158.8000        72.3638         0.5727         0.4446       0.537520         1.8733
       2828.00        14.6256       158.9000        72.1639         0.5833         0.5012       0.531940         1.8543
       2828.50        14.5791       168.2500        67.5662         0.5833         0.6081       0.527940         1.8533
       2829.00        15.1837       190.4000        66.3668         0.5995         0.5808       0.519360         1.8653
       2829.50        16.5791       191.1000        65.2674         0.6105         0.5012       0.508980         1.8343
       2830.00        18.0674       204.6000        65.0675         0.6105         0.4529       0.522550         1.7665
       2830.50        19.0442       198.7000        57.6712         0.6218         0.4286       0.566270         1.6806
       2831.00        19.5093       204.7500        54.9725         0.6391         0.3467       0.585430         1.5898
       2831.50        20.1140       204.7500        53.3733         0.6449         0.2754       0.556090         1.5230
       2832.00        19.9279       204.1000        50.4748         0.6391         0.2679       0.512370         1.5010
       2832.50        19.5558       201.8500        50.5747         0.6161         0.2884       0.480840         1.5389
       2833.00        19.4163       197.1500        55.3723         0.5833         0.3499       0.505790         1.5928
       2833.50        19.4628       200.3000        57.4712         0.5727         0.3837       0.516970         1.5968
       2834.00        18.9977       204.7500        57.4712         0.5623         0.3698       0.509580         1.5858
       2834.50        18.9046       204.7500        56.1719         0.5522         0.3499       0.496610         1.5788
       2835.00        19.4628       196.9500        57.6712         0.5522         0.3192       0.496210         1.5709
       2835.50        19.1372       187.1000        58.5707         0.5623         0.2965       0.501800         1.5609
       2836.00        18.9512       187.9000        57.9710         0.5833         0.3048       0.496610         1.5609
       2836.50        18.7186       185.9000        57.5712         0.6333         0.3192       0.495410         1.5509
       2837.00        17.5093       186.4000        59.1704         0.6876         0.3251       0.503990         1.5569
       2837.50        15.4163       180.1500        56.7716         0.7263         0.3598       0.501600         1.6058
       2838.00        14.9512       158.4500        56.7716         0.7465         0.4656       0.482240         1.6816
       2838.50        15.0442       152.7500        55.9720         0.8179         0.7311       0.465870         1.7864
       2839.00        16.1140       156.3000        55.1724         0.9044         0.8318       0.471860         1.8583
       2839.50        16.4860       158.4500        54.3728         1.0092         0.4966       0.473050         1.8483
       2840.00        14.9046       167.4500        59.5702         1.1896         0.3251       0.493610         1.7505
       2840.50        15.4628       169.2500        62.8686         1.2115         0.3698       0.494010         1.6846
       2841.00        15.5093       135.4000        67.9660         1.1469         0.3802       0.463470         1.7565
       2841.50        14.9512       126.4500        73.1634         1.1261         0.3908       0.449900         1.8044
       2842.00        14.8116       123.7500        75.1624         1.1159         0.6081       0.438520         1.7974
       2842.50        14.9977       118.8000        75.3623         1.1057         0.6982       0.441120         1.7974
       2843.00        14.9977       123.2000        76.7616         1.1159         0.6486       0.458480         1.7774
       2843.50        14.8581       126.9000        76.5617         1.1057         0.6194       0.471860         1.7894
       2844.00        14.5791       126.2000        76.4618         1.0467         0.4966       0.489020         1.8104
       2844.50        14.2070       128.1000        76.4618         1.0000         0.4365       0.503390         1.7415
       2845.00        14.4395       132.5000        76.4618         0.9553         0.4613       0.508580         1.7156
       2845.50        14.1605       137.0000        76.4618         0.9211         0.4699       0.509780         1.7086
       2846.00        14.3000       139.3500        76.4618         0.8961         0.4207       0.484230         1.7086
       2846.50        14.5791       138.4000        76.4618         0.8719         0.4405       0.463070         1.6926
       2847.00        14.9977       138.6500        76.4618         0.8640         0.4656       0.453090         1.6976
       2847.50        16.0209       139.7000        76.4618         0.8719         0.3837       0.466470         1.6816
       2848.00        16.6721       138.2000        76.4618         0.8719         0.2938       0.473050         1.6228
       2848.50        15.8814       141.2500        76.4618         0.8719         0.2780       0.500000         1.5818
       2849.00        15.0907       143.2500        76.4618         0.8719         0.3251       0.509580         1.5728
       2849.50        16.0209       140.9500        76.4618         0.8961         0.3467       0.504990         1.5888
