~Version Information Block
VERS .                 2.00:  CWLS LOG ASCII STANDARD - VERSION 2.00
WRAP .                   NO:  One line per depth step
~Well Information Block
#MNEM.UNIT        Data Type   Information
#---------- ----------------  -----------
STRT .FT             840.00:  START DEPTH
STOP .FT            5812.00:  STOP DEPTH
STEP .FT               0.50:  STEP
NULL .              -999.25:  NULL VALUE
COMP .                     :  COMPANY
WELL .                UXA-1:  WELL
FLD  .                     :  FIELD
LOC  .                     :  LOCATION
CTRY .                     :  COUNTRY
STAT .                     :  STATE
CNTY .                     :  COUNTY
SRVC .                     :  SERVICE COMPANY
DATE .                     :  DATE
API  .                     :  API NUMBER
UWI  .                     :  UNIQUE WELL ID
~Curve Information Block
#MNEM.UNIT         API CODE   Curve Description
#---------- ----------------  -----------------
DEPTH.FT                   :  0       Index
CALI .IN                   :  10      Caliper
DT   .US/F                 :  8       Delta-T (also called Slowness or Interval Transit Time)
GR   .GAPI                 :  7       Gamma Ray
ILD  .OHMM                 :  6       Induction Deep Resistivity
MSFL .OHMM                 :  5       Micro-spherically-focused Resistivity
NPHI_LS.V/V                  :  4       Thermal Neutron Porosity (original Ratio Method) in Selected Lit
RHOB .G/C3                 :  3       Bulk Density
~Parameter Information Block
#MNEM.UNIT            Value   Description
#---------- ----------------  -----------
PROJECT.     petro@kponwjlx001:  
SET  .                 WIRE:  
~Other Information Block
# 
~A       DEPTH           CALI             DT             GR            ILD           MSFL        NPHI_LS           RHOB 
# ...
       3453.00        12.5500       112.9000        75.2000         1.0092         0.9905       0.386400         2.1930
       3453.50        12.6500       116.1000        72.0000         0.9909         0.9374       0.411400         2.1940
       3454.00        12.8000       122.1500        73.1000         0.9819         0.8469       0.497600         2.2120
       3454.50        12.8000       130.2000        75.2000         0.9730         0.8087       0.453000         2.2300
       3455.00        12.8500       136.6000        76.8000         0.9467         0.7582       0.446800         2.2300
       3455.50        12.9000       136.4000        78.4000         0.9211         0.8521       0.427600         2.2280
       3456.00        12.8500       135.3500        79.1000         0.9211         0.9461       0.404200         2.2330
       3456.50        12.9000       131.3000        80.6000         0.9380         1.1591       0.397700         2.2335
       3457.00        12.8500       126.4000        81.9000         1.0000         1.2365       0.391200         2.2340
       3457.50        12.9000       124.1000        78.0000         1.0957         1.1591       0.378000         2.2400
       3458.00        12.8000       121.6000        74.0000         1.1819         1.3686       0.375400         2.2330
       3458.50        12.8000       117.6000        72.2000         1.2682         1.5718       0.363000         2.2290
       3459.00        12.8000       115.2000        74.2000         1.2916         1.6460       0.352400         2.2300
       3459.50        12.8000       109.6000        73.8000         1.2452         1.5864       0.349000         2.2260
       3460.00        12.9000       107.6000        75.2000         1.2115         1.1171       0.368800         2.2260
       3460.50        12.9000       112.4000        76.8000         1.1574         0.7652       0.402800         2.2160
       3461.00        12.8000       118.6500        78.0000         1.1057         0.7723       0.438600         2.2140
       3461.50        12.8000       127.3000        82.0000         1.0372         0.8627       0.514600         2.2040
       3462.00        12.8500       132.1000        83.8000         0.9641         0.8869       0.465800         2.1780
       3462.50        13.0000       135.2000        83.8000         0.8961         0.8392       0.461000         2.1770
       3463.00        13.4000       137.0000        82.8000         0.8406         0.7723       0.419400         2.1770
       3463.50        13.6000       136.5000        82.6000         0.8179         0.7375       0.409800         2.1820
       3464.00        13.1500       139.4000        81.2000         0.7958         0.7512       0.422800         2.1940
       3464.50        13.0000       138.8500        80.9000         0.7814         0.7794       0.452200         2.1810
       3465.00        12.9000       137.6000        84.0000         0.7814         0.7794       0.449400         2.1860
       3465.50        12.8500       134.0000        81.6000         0.7672         0.7512       0.444800         2.1770
       3466.00        12.8000       133.3000        80.2000         0.7602         0.7375       0.444600         2.1650
       3466.50        12.8500       132.8000        80.8000         0.7743         0.6977       0.437600         2.1500
       3467.00        12.8000       133.7000        78.4000         0.7814         0.6541       0.424600         2.1500
       3467.50        13.0000       135.6500        77.1000         0.8031         0.6724       0.429800         2.1580
       3468.00        13.2000       133.6000        76.3500         0.8483         0.8087       0.438400         2.1560
       3468.50        13.4500       132.7000        75.6000         0.9044         0.8469       0.438600         2.1660
       3469.00        13.1500       131.6000        72.8000         0.9730         0.6304       0.429000         2.1490
       3469.50        12.8500       128.3000        68.5000         1.0092         0.6817       0.406600         2.1230
       3470.00        12.8000       124.0500        67.6000         1.0372         0.7330       0.388200         2.1410
       3470.50        12.9000       119.1000        68.4000         1.0372         0.7843       0.385400         2.1830
       3471.00        12.9000       118.4000        72.4000         1.0467         0.8356       0.394000         2.2060
       3471.50        12.8000       121.2000        72.8000         1.0758         0.8869       0.394000         2.1860
       3472.00        12.8000       126.6000        74.0000         1.0957         0.7723       0.398200         2.1690
       3472.50        12.7500       131.6500        78.4000         1.0957         0.7307       0.404800         2.1840
       3473.00        12.7000       129.7000        80.9000         1.0467         0.7582       0.408400         2.1910
       3473.50        12.7000       123.9000        80.8000         1.0278         0.8788       0.418600         2.1850
       3474.00        12.7500       122.7000        82.2000         1.0092         0.9288       0.419200         2.1910
       3474.50        12.8000       123.5000        81.8000         1.0278         0.8952       0.417800         2.1960
       3475.00        12.8000       125.2500        78.5000         1.0372         0.8788       0.412200         2.1940
       3475.50        12.8000       126.7000        76.5000         1.0467         0.9374       0.469200         2.1955
       3476.00        12.7500       126.9000        74.8000         1.0467         0.9461       0.421200         2.1970
       3476.50        12.8000       125.6000        73.8000         1.0467         0.8548       0.405800         2.1950
       3477.00        12.7500       125.6000        74.6000         1.0661         0.8238       0.390800         2.1720
       3477.50        12.7500       126.5000        76.8000         1.0957         0.9118       0.386200         2.1750
       3478.00        12.8000       127.4000        74.1000         1.1159         0.9288       0.382800         2.1870
       3478.50        12.6000       127.0500        71.1000         1.0957         0.8952       0.381800         2.1900
       3479.00        12.5000       120.0000        66.4000         1.0478         1.0472       0.369000         2.1820
       3479.50        12.5000       116.4500        60.4000         1.0000         1.0705       0.354400         2.1530
       3480.00        12.4500       114.1000        51.7000         0.9641         1.0938       0.364200         2.1470
       3480.50        12.4000       115.0000        46.6000         0.9211         1.1171       0.374000         2.1410
       3481.00        12.4000       119.3500        44.8000         0.8719         0.9817       0.373000         2.1210
       3481.50        12.4000       122.1500        42.0000         0.8330         0.9374       0.363400         2.1060
       3482.00        12.4000       121.8500        41.0000         0.7814         0.9035       0.368000         2.0960
       3482.50        12.4000       121.2000        40.0000         0.7533         0.8713       0.374600         2.0800
       3483.00        12.4000       120.8500        38.4000         0.7263         0.8392       0.389800         2.0745
       3483.50        12.4500       118.1000        39.1000         0.7263         0.8392       0.397200         2.0690
       3484.00        12.6000       118.0000        39.0000         0.7263         0.8238       0.402600         2.0540
       3484.50        12.9500       117.9000        41.0000         0.7197         0.7640       0.379400         2.0370
       3485.00        13.6000       116.7500        45.8000         0.7330         0.7042       0.384200         1.9930
       3485.50        14.8000       124.0500        50.1000         0.7533         0.4649       0.407400         1.9440
       3486.00        15.6000       130.5500        55.6000         0.7814         0.3184       0.435300         1.9090
