~Version Information Block
VERS .                 2.00:  CWLS LOG ASCII STANDARD - VERSION 2.00
WRAP .                   NO:  One line per depth step
~Well Information Block
#MNEM.UNIT        Data Type   Information
#---------- ----------------  -----------
STRT .FT             840.00:  START DEPTH
STOP .FT            5812.00:  STOP DEPTH
STEP .FT               0.50:  STEP
NULL .              -999.25:  NULL VALUE
COMP .                     :  COMPANY
WELL .                UXA-1:  WELL
FLD  .                     :  FIELD
LOC  .                     :  LOCATION
CTRY .                     :  COUNTRY
STAT .                     :  STATE
CNTY .                     :  COUNTY
SRVC .                     :  SERVICE COMPANY
DATE .                     :  DATE
API  .                     :  API NUMBER
UWI  .                     :  UNIQUE WELL ID
~Curve Information Block
#MNEM.UNIT         API CODE   Curve Description
#---------- ----------------  -----------------
DEPTH.FT                   :  0       Index
CALI .IN                   :  10      Caliper
DT   .US/F                 :  8       Delta-T (also called Slowness or Interval Transit Time)
GR   .GAPI                 :  7       Gamma Ray
ILD  .OHMM                 :  6       Induction Deep Resistivity
MSFL .OHMM                 :  5       Micro-spherically-focused Resistivity
NPHI_LS.V/V                  :  4       Thermal Neutron Porosity (original Ratio Method) in Selected Lit
RHOB .G/C3                 :  3       Bulk Density
~Parameter Information Block
#MNEM.UNIT            Value   Description
#---------- ----------------  -----------
PROJECT.     petro@kponwjlx001:  
SET  .                 WIRE:  
~Other Information Block
# 
~A       DEPTH           CALI             DT             GR            ILD           MSFL        NPHI_LS           RHOB 
# ...
       4793.00        12.2500       105.9000        52.2000         0.9295         0.9461       0.353200         2.2420
       4793.50        12.3000       105.4000        54.4000         0.9127         0.9118       0.356400         2.2500
       4794.00        12.2500       105.4500        55.0000         0.9211         0.9203       0.345200         2.2450
       4794.50        12.3500       105.7500        54.8000         0.9295         0.9727       0.334400         2.2620
       4795.00        12.4000       106.2000        52.8000         0.9553         0.9908       0.337000         2.2650
       4795.50        12.4000       105.4000        52.1000         0.9641         0.9908       0.325200         2.2760
       4796.00        12.5000       103.2500        50.8000         0.9641         1.0000       0.327600         2.2770
       4796.50        12.5500       104.2500        53.2000         0.9641         1.0093       0.326800         2.2940
       4797.00        12.6000       105.4500        57.8000         0.9641         1.1485       0.351200         2.3130
       4797.50        12.6500       105.9500        61.4000         0.9730         1.2139       0.350000         2.3120
       4798.00        12.8000       107.7000        61.4000         0.9819         1.1069       0.345800         2.3190
       4798.50        12.8000       106.4000        62.4000         0.9819         1.0186       0.335000         2.3420
       4799.00        12.9000       104.6500        63.4000         0.9909         1.0866       0.348000         2.3560
       4799.50        12.8500       103.2500        62.1000         1.0000         1.1699       0.352800         2.3450
       4800.00        12.9000       103.7000        62.4000         1.0092         1.1485       0.351000         2.3500
       4800.50        12.8500       101.9000        62.8000         1.0372         1.3110       0.350400         2.3530
       4801.00        12.8500       101.6500        63.2000         1.0661         1.4734       0.342800         2.3560
       4801.50        12.8500       101.9000        62.8000         1.0758         1.6159       0.342600         2.3540
       4802.00        12.9000       101.9000        61.8000         1.0957         1.6460       0.351400         2.3620
       4802.50        12.9000       101.4500        62.6000         1.0758         1.5573       0.366600         2.3540
       4803.00        12.8500       101.6000        63.6000         1.0661         1.6309       0.372000         2.3380
       4803.50        12.8000       100.4500        64.1000         1.0467         1.6616       0.366400         2.3600
       4804.00        12.8000       101.5000        64.2000         1.0467         1.6922       0.351400         2.3720
       4804.50        12.8000       103.5000        64.4000         1.0467         1.4201       0.349000         2.3860
       4805.00        12.7500       104.4000        65.0000         1.0661         1.2139       0.352200         2.3890
       4805.50        12.6000       105.2000        65.3000         1.0758         1.0766       0.367000         2.3650
       4806.00        12.6000       104.6500        61.9000         1.0957         1.0000       0.358300         2.3550
       4806.50        12.7000       102.4500        61.2000         1.1213         1.1171       0.349600         2.3540
       4807.00        12.7000       102.1000        59.1000         1.1469         1.2027       0.354600         2.3440
       4807.50        12.6500       101.1000        58.0000         1.1681         1.5009       0.346600         2.3530
       4808.00        12.7000        97.9000        59.7000         1.1681         1.8558       0.339600         2.3490
       4808.50        12.6500        98.1500        61.6000         1.1574         1.8219       0.348800         2.3540
       4809.00        12.7000        98.4500        62.6000         1.1469         1.6011       0.339600         2.3640
       4809.50        12.8000       101.0500        63.2000         1.1365         1.4332       0.340800         2.3800
       4810.00        12.8000       104.0000        63.2000         1.1261         1.1591       0.336400         2.3550
       4810.50        12.8000       104.3500        60.4000         1.1365         0.9288       0.333800         2.3730
       4811.00        12.9000       104.7500        58.6000         1.1469         0.9908       0.325800         2.3930
       4811.50        12.9000       101.9000        60.1000         1.1681         1.1171       0.306800         2.3730
       4812.00        12.8000       101.6000        59.8000         1.1896         1.2830       0.304800         2.3770
       4812.50        12.8000        99.3000        60.5000         1.2005         1.4332       0.301600         2.3740
       4813.00        12.7000        96.2500        61.6000         1.2115         1.5009       0.312800         2.3740
       4813.50        12.6500        95.2500        60.4000         1.2339         1.3851       0.308600         2.3740
       4814.00        12.5750        91.2500        59.6000         1.2452         1.2693       0.317800         2.3810
       4814.50        12.5000        95.2500        59.6000         1.2339         1.1534       0.314000         2.3780
       4815.00        12.4500        95.8000        59.6000         1.1681         1.0376       0.310800         2.3670
       4815.50        12.4000        95.8000        57.8000         1.0957         1.0000       0.318800         2.3450
       4816.00        12.4000        97.6000        56.3000         1.0092         0.9461       0.327400         2.3210
       4816.50        12.4000        96.0500        55.6000         0.9730         1.0376       0.330000         2.3200
       4817.00        12.4000       101.5000        55.4000         0.9730         1.2139       0.330800         2.3210
       4817.50        12.4500       107.9500        57.0000         1.0092         1.1379       0.335600         2.3240
       4818.00        12.4500       108.7000        59.4000         1.0563         0.9638       0.330000         2.3260
       4818.50        12.5000       107.3000        60.0000         1.1159         0.7652       0.326800         2.3130
       4819.00        12.5000       101.9000        55.4000         1.1574         0.8013       0.311400         2.3140
       4819.50        12.5000        91.1000        47.9000         1.2115         1.0376       0.297000         2.3320
       4820.00        12.4000        85.7000        44.5000         1.2916         1.2830       0.285200         2.3600
       4820.50        12.3500        85.3500        46.4000         1.3519         1.8388       0.283200         2.3540
       4821.00        12.2000        85.8000        48.2000         1.4023         1.7546       0.306200         2.3400
       4821.50        12.2000        91.9000        50.8000         1.4023         1.6705       0.338400         2.3020
       4822.00        12.2000        98.2000        49.0000         1.3769         1.5864       0.365600         2.2640
       4822.50        12.2000       100.6500        48.9000         1.2798         1.1591       0.364400         2.2510
       4823.00        12.2000       101.9500        50.0000         1.1928         1.1917       0.355600         2.2440
       4823.50        12.1000       102.4500        50.5000         1.1057         1.2595       0.339400         2.2390
       4824.00        12.0750       104.2500        48.9000         1.0661         1.2296       0.339600         2.2430
       4824.50        12.0500       104.4500        49.8000         1.0278         1.1997       0.338000         2.2570
       4825.00        12.1000       104.2500        49.2000         1.0278         1.1699       0.323400         2.2490
       4825.50        12.1000       103.9000        49.0000         1.0467         1.1807       0.325200         2.2460
       4826.00        12.1500       104.0000        50.8000         1.0467         1.1807       0.334600         2.2580
