~Version Information Block
VERS .                 2.00:  CWLS LOG ASCII STANDARD - VERSION 2.00
WRAP .                   NO:  One line per depth step
~Well Information Block
#MNEM.UNIT        Data Type   Information
#---------- ----------------  -----------
STRT .FT             840.00:  START DEPTH
STOP .FT            5812.00:  STOP DEPTH
STEP .FT               0.50:  STEP
NULL .              -999.25:  NULL VALUE
COMP .                     :  COMPANY
WELL .                UXA-1:  WELL
FLD  .                     :  FIELD
LOC  .                     :  LOCATION
CTRY .                     :  COUNTRY
STAT .                     :  STATE
CNTY .                     :  COUNTY
SRVC .                     :  SERVICE COMPANY
DATE .                     :  DATE
API  .                     :  API NUMBER
UWI  .                     :  UNIQUE WELL ID
~Curve Information Block
#MNEM.UNIT         API CODE   Curve Description
#---------- ----------------  -----------------
DEPTH.FT                   :  0       Index
CALI .IN                   :  10      Caliper
DT   .US/F                 :  8       Delta-T (also called Slowness or Interval Transit Time)
GR   .GAPI                 :  7       Gamma Ray
ILD  .OHMM                 :  6       Induction Deep Resistivity
MSFL .OHMM                 :  5       Micro-spherically-focused Resistivity
NPHI_LS.V/V                  :  4       Thermal Neutron Porosity (original Ratio Method) in Selected Lit
RHOB .G/C3                 :  3       Bulk Density
~Parameter Information Block
#MNEM.UNIT            Value   Description
#---------- ----------------  -----------
PROJECT.     petro@kponwjlx001:  
SET  .                 WIRE:  
~Other Information Block
# 
~A       DEPTH           CALI             DT             GR            ILD           MSFL        NPHI_LS           RHOB 
# ...
       2481.50        16.8116       150.4000        71.0645         0.6391         0.6918       0.515570         1.8533
       2482.00        16.7186       154.8500        71.7641         0.6391         0.7379       0.505790         1.8643
       2482.50        16.3465       154.7250        71.3643         0.6449         0.6855       0.507980         1.8743
       2483.00        15.9279       154.6000        70.4648         0.6509         0.6607       0.512770         1.8822
       2483.50        15.1837       155.6500        68.7656         0.6690         0.7244       0.518960         1.8683
       2484.00        14.9046       160.5000        69.7651         0.6939         0.7311       0.519760         1.8673
       2484.50        15.0907       161.6000        70.4648         0.7263         0.7112       0.535130         1.8982
       2485.00        15.5558       161.6000        67.7661         0.7533         0.7244       0.526950         1.9092
       2485.50        16.0209       161.2500        63.5682         0.7533         0.7871       0.511380         1.9022
       2486.00        16.3465       162.7500        58.1709         0.7533         0.8954       0.512770         1.9202
       2486.50        17.0442       166.4000        56.8716         0.7533         0.9036       0.516170         1.9371
       2487.00        17.0442       174.6500        54.7726         0.7397         0.7871       0.519960         1.9381
       2487.50        17.7884       176.2000        56.0720         0.7197         0.6486       0.522550         1.8982
       2488.00        18.4395       173.9000        60.0700         0.6751         0.5861       0.535730         1.8563
       2488.50        17.8814       172.2500        63.1684         0.6449         0.5012       0.537520         1.8084
       2489.00        18.2535       171.9000        63.1684         0.6105         0.4093       0.547300         1.7685
       2489.50        18.7186       170.7000        63.9680         0.5940         0.4446       0.555090         1.7605
       2490.00        18.6256       174.1000        63.4683         0.5833         0.5445       0.549700         1.7665
       2490.50        18.5326       170.5000        63.4683         0.5833         0.5395       0.516770         1.7984
       2491.00        18.3930       167.3000        63.4683         0.5833         0.4831       0.500600         1.8204
       2491.50        18.2535       168.4000        60.1699         0.5940         0.5395       0.500200         1.8094
       2492.00        17.7884       168.9000        58.1709         0.5833         0.5754       0.532140         1.7984
       2492.50        18.1140       169.0000        55.5722         0.5833         0.5248       0.556890         1.7854
       2493.00        18.5791       170.0000        55.2724         0.5833         0.5012       0.580040         1.7655
       2493.50        18.7186       168.9000        60.4698         0.5727         0.4286       0.595810         1.7385
       2494.00        19.0442       170.6500        61.3693         0.5727         0.3908       0.567470         1.7335
       2494.50        19.5558       173.7500        59.4703         0.5727         0.4325       0.553490         1.7146
       2495.00        19.0907       174.9000        58.9705         0.5833         0.4966       0.524550         1.6986
       2495.50        18.2535       176.5500        57.4712         0.5940         0.4966       0.528940         1.7136
       2496.00        18.2535       174.9000        59.5702         0.6050         0.4966       0.544110         1.7166
       2496.50        17.6023       173.0000        58.1709         0.6275         0.4920       0.551900         1.7206
       2497.00        16.8581       171.9000        59.6702         0.6509         0.4966       0.545310         1.7186
       2497.50        16.4860       172.1500        63.1684         0.6939         0.5495       0.523950         1.7455
       2498.00        16.3000       169.4500        63.6682         0.7263         0.6486       0.502790         1.7944
       2498.50        16.0209       163.3000        64.1679         0.7814         0.6855       0.490420         1.8802
       2499.00        15.8349       159.4500        63.5682         0.8330         0.7586       0.490420         1.9611
       2499.50        16.1140       161.3000        59.9700         0.8640         0.8954       0.491020         2.0020
       2500.00        16.4395       165.7000        56.7716         0.8961         0.6730       0.514170         2.0040
       2500.50        16.9512       178.1000        55.3723         0.9211         0.5200       0.540520         1.9561
       2501.00        17.1372       175.7500        54.4728         0.9127         0.6026       0.550300         1.8752
       2501.50        16.2070       165.6750        57.7711         0.8961         0.6138       0.545110         1.8882
       2502.00        16.2535       155.6000        60.1699         0.8640         0.5861       0.520760         1.8962
       2502.50        16.0209       151.2000        65.3673         0.8254         0.6026       0.515770         1.9082
       2503.00        15.8349       148.9000        69.5652         0.7958         0.6486       0.525750         1.9351
       2503.50        16.0209       155.3000        74.1629         0.7958         0.6855       0.526550         1.9381
       2504.00        16.1605       149.2000        71.9640         0.7885         0.6546       0.501600         1.9461
       2504.50        16.0209       145.2000        69.7651         0.7814         0.6368       0.469060         1.9481
       2505.00        15.7419       144.8500        68.4658         0.7743         0.6668       0.459080         1.9301
       2505.50        15.6488       145.8000        68.9655         0.7743         0.6546       0.479240         1.9092
       2506.00        15.7419       148.3000        69.9650         0.7672         0.5754       0.497800         1.8962
       2506.50        15.6953       149.9000        69.5652         0.7533         0.5445       0.492020         1.8912
       2507.00        15.6488       150.0500        68.4658         0.7465         0.6026       0.478640         1.8942
       2507.50        15.1372       148.1000        68.1659         0.7397         0.5861       0.475450         1.8922
       2508.00        15.0442       144.9000        69.2654         0.7397         0.5970       0.485030         1.8922
       2508.50        15.2767       143.4000        70.6647         0.7397         0.6194       0.477840         1.9132
       2509.00        15.4628       144.3000        71.2644         0.7465         0.6026       0.455290         1.9212
       2509.50        15.5558       145.2500        69.1654         0.7397         0.6310       0.441720         1.9102
       2510.00        15.6953       145.7000        68.1659         0.7397         0.6855       0.456090         1.9212
       2510.50        15.6488       148.3000        70.3648         0.7330         0.7112       0.474050         1.9481
       2511.00        15.3233       147.2000        70.8646         0.7263         0.7244       0.471860         1.9531
       2511.50        15.3698       147.0500        70.3648         0.7263         0.7798       0.465670         1.9621
       2512.00        15.7419       147.8500        69.2654         0.7330         0.7798       0.463270         1.9631
       2512.50        15.7419       146.5500        68.7656         0.7263         0.7379       0.459280         1.9611
       2513.00        15.9279       147.7000        64.8676         0.7263         0.6668       0.469860         1.9371
       2513.50        16.0209       146.5500        65.5672         0.7263         0.6310       0.462870         1.9291
       2514.00        16.0209       146.6000        65.5672         0.7263         0.6368       0.444910         1.9231
       2514.50        15.7884       147.4000        63.3683         0.7330         0.6252       0.437320         1.8882
