~Version Information Block
VERS .                 2.00:  CWLS LOG ASCII STANDARD - VERSION 2.00
WRAP .                   NO:  One line per depth step
~Well Information Block
#MNEM.UNIT        Data Type   Information
#---------- ----------------  -----------
STRT .FT             840.00:  START DEPTH
STOP .FT            5812.00:  STOP DEPTH
STEP .FT               0.50:  STEP
NULL .              -999.25:  NULL VALUE
COMP .                     :  COMPANY
WELL .                UXA-1:  WELL
FLD  .                     :  FIELD
LOC  .                     :  LOCATION
CTRY .                     :  COUNTRY
STAT .                     :  STATE
CNTY .                     :  COUNTY
SRVC .                     :  SERVICE COMPANY
DATE .                     :  DATE
API  .                     :  API NUMBER
UWI  .                     :  UNIQUE WELL ID
~Curve Information Block
#MNEM.UNIT         API CODE   Curve Description
#---------- ----------------  -----------------
DEPTH.FT                   :  0       Index
CALI .IN                   :  10      Caliper
DT   .US/F                 :  8       Delta-T (also called Slowness or Interval Transit Time)
GR   .GAPI                 :  7       Gamma Ray
ILD  .OHMM                 :  6       Induction Deep Resistivity
MSFL .OHMM                 :  5       Micro-spherically-focused Resistivity
NPHI_LS.V/V                  :  4       Thermal Neutron Porosity (original Ratio Method) in Selected Lit
RHOB .G/C3                 :  3       Bulk Density
~Parameter Information Block
#MNEM.UNIT            Value   Description
#---------- ----------------  -----------
PROJECT.     petro@kponwjlx001:  
SET  .                 WIRE:  
~Other Information Block
# 
~A       DEPTH           CALI             DT             GR            ILD           MSFL        NPHI_LS           RHOB 
# ...
       1510.00        12.8116       162.7000        55.0725         0.7263         0.9638       0.513570         1.8852
       1510.50        12.7651       162.7000        55.6721         0.7067         0.9818       0.479240         1.8892
       1511.00        12.6721       160.9000        57.6712         0.6813         1.0186       0.471460         1.9052
       1511.50        12.6721       159.2000        57.8711         0.6629         1.0471       0.488020         1.9092
       1512.00        12.7186       157.9500        56.8716         0.6449         0.9462       0.491220         1.9132
       1512.50        12.7651       157.6000        55.6721         0.6333         0.8710       0.485830         1.9132
       1513.00        12.8581       158.1000        57.4712         0.6275         0.8551       0.498600         1.9092
       1513.50        13.0442       159.0500        56.7716         0.6218         0.8872       0.493410         1.9222
       1514.00        13.2302       160.1000        58.9705         0.6161         0.9036       0.486230         1.9321
       1514.50        13.4163       162.2000        59.9700         0.6161         0.9204       0.463070         1.9321
       1515.00        13.6023       165.1000        60.0700         0.6218         0.9120       0.473050         1.9172
       1515.50        13.3233       166.8000        58.5707         0.6218         0.9120       0.494410         1.9002
       1516.00        13.1372       169.1000        58.5707         0.6218         0.8790       0.507980         1.8782
       1516.50        13.8349       169.4500        59.7701         0.6218         0.8710       0.517760         1.8593
       1517.00        14.0674       170.7250        60.0700         0.6218         0.8630       0.510580         1.8463
       1517.50        14.1139       172.0000        60.8695         0.6275         0.6368       0.494610         1.8503
       1518.00        13.8814       173.2500        59.9700         0.6449         0.5754       0.509980         1.8453
       1518.50        13.2767       172.7000        62.3688         0.6629         0.6668       0.517760         1.8403
       1519.00        12.5791       171.7500        62.9685         0.6751         0.7047       0.532730         1.8353
       1519.50        12.5326       168.6000        63.2684         0.6876         0.8318       0.529740         1.8323
       1520.00        12.4860       166.9000        63.2684         0.7002         1.1481       0.535330         1.8343
       1520.50        12.4860       165.7000        60.5697         0.7067         1.2474       0.537520         1.8563
       1521.00        12.4860       166.0000        60.1699         0.7197         1.0965       0.548100         1.8683
       1521.50        12.5791       167.6500        60.1699         0.7197         1.0765       0.516170         1.8782
       1522.00        12.4860       169.7000        61.5692         0.7197         1.0375       0.489620         1.9212
       1522.50        12.4860       170.6500        62.0690         0.7067         0.9908       0.478440         1.8942
       1523.00        12.4860       170.4500        63.6682         0.6939         0.9376       0.484030         1.8862
       1523.50        12.5326       171.6500        61.6692         0.6813         0.8954       0.484030         1.8822
       1524.00        12.5791       171.9000        61.9690         0.6690         0.9120       0.511380         1.8842
       1524.50        12.7186       172.4000        60.9695         0.6509         0.9376       0.530340         1.8902
       1525.00        12.7651       172.8000        59.7701         0.6449         0.9376       0.512770         1.8892
       1525.50        12.7651       172.8000        60.1699         0.6391         0.9376       0.500800         1.8842
       1526.00        12.7651       172.5500        62.3688         0.6333         0.9036       0.511380         1.8842
       1526.50        12.7186       172.7000        64.8676         0.6275         0.8395       0.540920         1.8832
       1527.00        12.6721       171.4000        63.3683         0.6275         0.8551       0.545710         1.8822
       1527.50        12.6721       171.6500        60.3698         0.6218         0.8710       0.532540         1.8743
       1528.00        12.6256       170.7000        61.9690         0.6218         0.8166       0.514570         1.8763
       1528.50        12.3930       168.6500        62.5687         0.6218         0.7047       0.513570         1.8852
       1529.00        12.5326       167.2000        63.3683         0.6275         0.6792       0.520560         1.8842
       1529.50        12.4860       165.3000        62.3688         0.6275         0.7586       0.527740         1.8683
       1530.00        12.6721       163.0500        62.0690         0.6275         0.7586       0.539920         1.8463
       1530.50        12.4860       164.5500        63.7681         0.6391         0.7178       0.536130         1.8463
       1531.00        12.5791       165.8500        61.9690         0.6509         0.6982       0.518760         1.8333
       1531.50        12.5791       165.7000        59.5702         0.6629         0.7178       0.511380         1.8174
       1532.00        12.5326       168.2500        61.6692         0.6751         0.7727       0.514970         1.8054
       1532.50        12.5791       166.7500        61.7691         0.6751         0.8091       0.518160         1.8243
       1533.00        12.5791       165.7000        59.0705         0.6751         0.8710       0.515170         1.8583
       1533.50        12.5791       167.7500        59.5702         0.6751         0.8790       0.508180         1.8852
       1534.00        12.5326       167.9000        60.1699         0.6876         0.9204       0.508580         1.9172
       1534.50        12.4395       172.1000        57.3713         0.6876         0.9908       0.513170         1.9311
       1535.00        12.4860       172.6500        55.8721         0.6876         1.0000       0.505390         1.9301
       1535.50        12.4395       172.3000        57.5712         0.6751         0.9550       0.492220         1.9301
       1536.00        12.4860       172.7000        56.2719         0.6509         0.8954       0.492620         1.9321
       1536.50        12.5791       172.8000        57.6712         0.6333         0.8710       0.488020         1.9301
       1537.00        12.6256       174.7500        57.9710         0.6161         0.8790       0.488020         1.9062
       1537.50        12.6721       175.5500        60.7696         0.5940         0.8954       0.490620         1.8842
       1538.00        12.6721       175.3000        62.6687         0.5833         0.7727       0.493810         1.8613
       1538.50        12.8116       175.5500        62.9685         0.5623         0.6368       0.488020         1.8323
       1539.00        12.9046       173.9500        63.9680         0.5572         0.6310       0.503190         1.8254
       1539.50        12.8581       172.6500        63.1684         0.5623         0.6982       0.511180         1.8303
       1540.00        12.9977       172.0500        60.9695         0.5833         0.6918       0.508580         1.8503
       1540.50        13.0442       170.9000        60.8695         0.6218         0.8395       0.533530         1.8613
       1541.00        12.7186       169.6500        61.6692         0.6509         0.9204       0.543310         1.8733
       1541.50        12.6721       168.7000        59.9700         0.6876         0.7311       0.546310         1.9092
       1542.00        12.8116       166.9500        57.6712         0.7263         0.6668       0.530340         1.9461
       1542.50        12.9512       164.3000        55.7721         0.7533         0.7656       0.522360         1.9850
       1543.00        13.2767       163.8000        56.4718         0.8031         1.0000       0.515170         2.0259
