~Version Information Block
VERS .                 2.00:  CWLS LOG ASCII STANDARD - VERSION 2.00
WRAP .                   NO:  One line per depth step
~Well Information Block
#MNEM.UNIT        Data Type   Information
#---------- ----------------  -----------
STRT .FT             840.00:  START DEPTH
STOP .FT            5812.00:  STOP DEPTH
STEP .FT               0.50:  STEP
NULL .              -999.25:  NULL VALUE
COMP .                     :  COMPANY
WELL .                UXA-1:  WELL
FLD  .                     :  FIELD
LOC  .                     :  LOCATION
CTRY .                     :  COUNTRY
STAT .                     :  STATE
CNTY .                     :  COUNTY
SRVC .                     :  SERVICE COMPANY
DATE .                     :  DATE
API  .                     :  API NUMBER
UWI  .                     :  UNIQUE WELL ID
~Curve Information Block
#MNEM.UNIT         API CODE   Curve Description
#---------- ----------------  -----------------
DEPTH.FT                   :  0       Index
CALI .IN                   :  10      Caliper
DT   .US/F                 :  8       Delta-T (also called Slowness or Interval Transit Time)
GR   .GAPI                 :  7       Gamma Ray
ILD  .OHMM                 :  6       Induction Deep Resistivity
MSFL .OHMM                 :  5       Micro-spherically-focused Resistivity
NPHI_LS.V/V                  :  4       Thermal Neutron Porosity (original Ratio Method) in Selected Lit
RHOB .G/C3                 :  3       Bulk Density
~Parameter Information Block
#MNEM.UNIT            Value   Description
#---------- ----------------  -----------
PROJECT.     petro@kponwjlx001:  
SET  .                 WIRE:  
~Other Information Block
# 
~A       DEPTH           CALI             DT             GR            ILD           MSFL        NPHI_LS           RHOB 
# ...
       3151.50        12.6500       119.2000        63.6000         1.0372         1.1917       0.373200         2.2140
       3152.00        12.7000       120.0000        63.6000         1.0092         1.2027       0.380200         2.2180
       3152.50        12.7000       121.1500        64.4000         1.0000         1.2139       0.383400         2.2100
       3153.00        12.8000       121.9000        64.6000         0.9909         1.1807       0.381800         2.2200
       3153.50        12.8000       122.2000        65.7000         0.9909         1.2251       0.378000         2.2290
       3154.00        12.9500       121.7000        68.2000         1.0000         1.2949       0.381200         2.2340
       3154.50        13.0750       120.4000        69.2000         1.0000         1.3813       0.402600         2.2370
       3155.00        13.2000       120.4500        70.6000         1.0000         1.3436       0.421200         2.2390
       3155.50        13.2500       120.2937        72.0000         1.0092         1.2139       0.406600         2.2400
       3156.00        13.4000       120.1375        72.6000         1.0278         1.2139       0.394600         2.2260
       3156.50        13.4000       119.9812        72.4000         1.0372         1.1591       0.396800         2.2180
       3157.00        13.4500       119.8250        72.6000         1.0467         1.1699       0.400400         2.2090
       3157.50        13.5000       119.6687        74.6000         1.0467         1.1863       0.399400         2.2120
       3158.00        13.5000       119.5125        73.0000         1.0372         1.2027       0.393600         2.2360
       3158.50        13.4500       119.3562        70.5000         1.0278         1.2479       0.387200         2.2280
       3159.00        13.5000       119.2000        70.8000         1.0184         1.1917       0.374600         2.2360
       3159.50        13.5000       118.2500        69.3000         1.0092         1.1171       0.396000         2.2410
       3160.00        13.3500       119.5000        71.0000         1.0092         1.0569       0.403600         2.2420
       3160.50        13.2500       121.9500        74.9000         1.0000         1.0376       0.412200         2.2260
       3161.00        13.1500       123.4000        74.1000         0.9909         1.0281       0.401200         2.2185
       3161.50        13.0000       123.6500        74.1000         0.9909         1.0186       0.397000         2.2110
       3162.00        12.9500       122.8500        73.2000         0.9730         1.1275       0.399200         2.2300
       3162.50        12.9000       122.2500        68.6000         0.9730         1.1275       0.404000         2.2100
       3163.00        12.8000       123.4000        64.9000         0.9730         1.0376       0.413600         2.2000
       3163.50        12.6000       121.0500        63.6000         0.9730         1.1807       0.404400         2.1970
       3164.00        12.6000       120.3500        60.9000         0.9819         1.3190       0.378400         2.1870
       3164.50        12.5500       117.1500        59.2000         0.9730         1.2139       0.390000         2.1770
       3165.00        12.5000       114.4000        57.8000         0.9641         1.1275       0.386000         2.2000
       3165.50        12.6000       113.8000        54.0000         0.9380         1.0967       0.394800         2.2020
       3166.00        12.5000       112.7000        51.6000         0.9127         1.0472       0.382600         2.1880
       3166.50        12.4500       114.2000        52.0571         0.8880         0.9908       0.383400         2.1720
       3167.00        12.4500       116.7000        52.5143         0.8640         0.9908       0.377100         2.1660
       3167.50        12.4000       120.0000        52.9714         0.8561         1.0186       0.370800         2.1700
       3168.00        12.4000       121.1500        53.4286         0.8406         1.0000       0.361800         2.1600
       3168.50        12.4500       121.1000        53.8857         0.8254         1.0000       0.382400         2.1530
       3169.00        12.4500       120.6000        54.3428         0.8233         1.0866       0.395600         2.1300
       3169.50        12.4500       118.4000        54.8000         0.8211         1.1807       0.472200         2.0980
       3170.00        12.4500       117.7000        56.8000         0.8190         1.1917       0.435400         2.0940
       3170.50        12.4500       118.2000        55.4000         0.8169         1.0569       0.426600         2.1090
       3171.00        12.4500       118.8500        52.8000         0.8147         0.9908       0.413200         2.1020
       3171.50        12.4000       119.5000        54.4000         0.8126         0.9908       0.409200         2.1020
       3172.00        12.4500       119.4000        54.5000         0.8105         0.9908       0.402600         2.1010
       3172.50        12.4000       117.9500        51.9000         0.8031         0.9908       0.407200         2.0990
       3173.00        12.5000       117.1500        50.9000         0.7958         0.9908       0.386400         2.0940
       3173.50        12.5000       117.2000        50.8000         0.7814         0.9908       0.375400         2.1110
       3174.00        12.6000       116.4000        50.5000         0.7958         0.9908       0.386600         2.1140
       3174.50        12.6000       116.5000        51.2000         0.7958         0.9908       0.411200         2.1140
       3175.00        12.6500       117.2000        52.4000         0.7958         0.9727       0.420200         2.1220
       3175.50        12.7000       116.4500        54.3000         0.8031         0.9288       0.413000         2.1380
       3176.00        12.7000       116.4000        51.6000         0.8179         0.9908       0.394600         2.1380
       3176.50        12.8000       116.1500        51.2000         0.8330         1.0000       0.391200         2.1400
       3177.00        12.8500       114.0000        51.3000         0.8483         1.0186       0.382800         2.1360
       3177.50        12.9000       113.4500        54.0000         0.8719         1.0093       0.373800         2.1320
       3178.00        12.9000       112.9000        57.4000         0.9211         1.0569       0.364800         2.1350
       3178.50        12.9000       112.0000        58.4000         0.9730         1.0967       0.355200         2.1380
       3179.00        12.9500       112.1000        60.4000         1.0661         1.1485       0.346000         2.1480
       3179.50        13.0000       111.2000        60.6000         1.1574         1.1699       0.353000         2.1650
       3180.00        12.9500       111.1500        62.1000         1.2566         1.2712       0.363400         2.1860
       3180.50        12.8500       111.1000        62.7000         1.3396         1.4734       0.363600         2.1980
       3181.00        12.8000       105.6000        64.0000         1.3769         1.3767       0.356400         2.2060
       3181.50        12.9000        95.4000        64.0000         1.4023         1.2800       0.333000         2.2140
       3182.00        13.0500        98.0500        62.2000         1.4281         1.1833       0.336000         2.2020
       3182.50        13.0500       101.0000        62.7000         1.4281         1.0866       0.342400         2.2140
       3183.00        13.1500       107.5000        63.9000         1.3895         1.1591       0.349000         2.2370
       3183.50        13.2000       118.2000        67.6000         1.2916         1.2479       0.347400         2.2680
       3184.00        13.2000       117.4500        69.2000         1.1159         1.2251       0.358000         2.2890
       3184.50        13.3000       113.6000        68.2000         0.9909         1.0866       0.382800         2.3130
