~Version Information Block
VERS .                 2.00:  CWLS LOG ASCII STANDARD - VERSION 2.00
WRAP .                   NO:  One line per depth step
~Well Information Block
#MNEM.UNIT        Data Type   Information
#---------- ----------------  -----------
STRT .FT             840.00:  START DEPTH
STOP .FT            5812.00:  STOP DEPTH
STEP .FT               0.50:  STEP
NULL .              -999.25:  NULL VALUE
COMP .                     :  COMPANY
WELL .                UXA-1:  WELL
FLD  .                     :  FIELD
LOC  .                     :  LOCATION
CTRY .                     :  COUNTRY
STAT .                     :  STATE
CNTY .                     :  COUNTY
SRVC .                     :  SERVICE COMPANY
DATE .                     :  DATE
API  .                     :  API NUMBER
UWI  .                     :  UNIQUE WELL ID
~Curve Information Block
#MNEM.UNIT         API CODE   Curve Description
#---------- ----------------  -----------------
DEPTH.FT                   :  0       Index
CALI .IN                   :  10      Caliper
DT   .US/F                 :  8       Delta-T (also called Slowness or Interval Transit Time)
GR   .GAPI                 :  7       Gamma Ray
ILD  .OHMM                 :  6       Induction Deep Resistivity
MSFL .OHMM                 :  5       Micro-spherically-focused Resistivity
NPHI_LS.V/V                  :  4       Thermal Neutron Porosity (original Ratio Method) in Selected Lit
RHOB .G/C3                 :  3       Bulk Density
~Parameter Information Block
#MNEM.UNIT            Value   Description
#---------- ----------------  -----------
PROJECT.     petro@kponwjlx001:  
SET  .                 WIRE:  
~Other Information Block
# 
~A       DEPTH           CALI             DT             GR            ILD           MSFL        NPHI_LS           RHOB 
        840.00        17.2302      -999.2500        31.9840      -999.2500         0.1675       0.548700         2.0000
        840.50        17.2302      -999.2500        30.9845      -999.2500         0.1660       0.587230         2.0000
        841.00        17.2302      -999.2500        30.3848      -999.2500         0.1690       0.586830         2.0000
        841.50        17.2302      -999.2500        31.5842      -999.2500         0.1738       0.564670         2.0000
        842.00        17.2302      -999.2500        31.7841      -999.2500         0.1803       0.541720         2.0000
        842.50        17.2302      -999.2500        31.1844      -999.2500         0.1787       0.562870         2.0210
        843.00        17.2302      -999.2500        31.9840      -999.2500         0.1690       0.583030         2.0898
        843.50        17.2302      -999.2500        32.8835      -999.2500         0.1660       0.585630         2.0768
        844.00        17.2767      -999.2500        33.3833      -999.2500         0.1690       0.602000         2.0679
        844.50        17.2767      -999.2500        34.0830      -999.2500         0.1722       0.615370         2.0649
        845.00        17.3233      -999.2500        36.4818      -999.2500         0.2014       0.606190         2.0788
        845.50        17.5093      -999.2500        36.1819      -999.2500         0.2630       0.603990         2.1158
        846.00        17.5093      -999.2500        33.4832      -999.2500         0.2440       0.620560         2.1946
        846.50        17.6488      -999.2500        33.1834      -999.2500         0.2249       0.589620         2.3054
        847.00        17.9744      -999.2500        31.4842      -999.2500         0.1722       0.589420         2.3443
        847.50        18.6256      -999.2500        29.9850      -999.2500         0.1770       0.600000         2.3254
        848.00        19.7884      -999.2500        31.5842      -999.2500         0.1923       0.591020         2.2275
        848.50        20.7186      -999.2500        35.6822      -999.2500         0.2780       0.594210         2.0808
        849.00        21.2767       149.3000        36.7816        25.6305         0.4018       0.558880         1.9491
        849.50        20.5326       172.0000        38.4308        13.2355         0.4405       0.547900         1.7685
        850.00        20.3000       190.6000        40.0800         0.8406         0.4656       0.566270         1.5709
        850.50        21.6023       201.8000        41.1794         0.4771         0.4656       0.585230         1.5429
        851.00        21.9744       197.1500        37.5812         0.4160         0.4286       0.586030         1.5309
        851.50        21.9744       184.7000        37.5812         0.4354         0.3733       0.585430         1.5220
        852.00        21.8814       187.7500        36.2818         0.5179         0.3342       0.562480         1.5150
        852.50        21.6953       190.3500        37.1814         0.5572         0.3251       0.561480         1.5190
        853.00        21.3233       180.1000        40.2799         0.5522         0.3373       0.547900         1.5449
        853.50        20.4860       187.2500        40.0800         0.5623         0.3733       0.557690         1.5848
        854.00        19.5558       188.5500        41.5792         0.5833         0.4831       0.583030         1.6138
        854.50        20.9512       189.3000        42.3288         0.6161         0.5395       0.583230         1.6078
        855.00        21.6953       184.4000        43.0785         0.6391         0.4529       0.573650         1.5769
        855.50        21.5093       192.4500        44.3778         0.6391         0.3733       0.547700         1.5479
        856.00        21.1372       195.7500        44.3778         0.6218         0.3532       0.547700         1.5479
        856.50        20.5326       192.5500        44.8775         0.6161         0.3631       0.556090         1.5569
        857.00        20.0209       194.2000        46.7766         0.5995         0.3733       0.564670         1.5818
        857.50        19.3233       199.1000        47.9760         0.5940         0.3436       0.548700         1.6088
        858.00        18.9977       204.7500        50.1749         0.6050         0.3404       0.560880         1.6257
        858.50        18.3000       204.7500        49.9750         0.6161         0.4246       0.587030         1.6387
        859.00        16.9046       204.7500        49.9750         0.6275         0.5346       0.580640         1.6407
        859.50        14.9046       204.7500        51.5742         0.6391         0.5754       0.540720         1.6587
        860.00        14.2070       204.7500        51.1744         0.6391         0.6546       0.551100         1.6856
        860.50        14.8116       204.7500        53.5732         0.6509         0.7178       0.578040         1.7096
        861.00        15.0907       193.5000        54.3728         0.6813         0.6668       0.566070         1.7226
        861.50        13.7884       204.7500        53.3733         0.6939         0.6310       0.525150         1.7046
        862.00        12.7651       204.7500        55.2724         0.6939         0.5808       0.503190         1.6786
        862.50        12.5791       204.7500        57.1714         0.7002         0.5297       0.502200         1.6866
        863.00        12.5791       194.5500        59.2704         0.7002         0.5395       0.530540         1.6866
        863.50        12.8581       188.8000        55.2724         0.6939         0.7178       0.558080         1.6936
        864.00        13.8814       186.2500        54.3728         0.7067         1.0280       0.550300         1.7026
        864.50        14.2535       185.1000        54.3728         0.7131         0.9728       0.521560         1.7186
        865.00        13.7419       196.9000        58.4708         0.7067         0.7244       0.534330         1.7355
        865.50        12.6721       191.2500        60.9695         0.6876         0.5297       0.538720         1.7375
        866.00        10.3000       191.0500        65.4672         0.6751         0.3908       0.548100         1.7460
        866.50         8.2070       191.4500        67.1664         0.6690         0.4875       0.546110         1.7545
        867.00         7.6488       191.4500        70.4648         0.6629         0.6668       0.532540         1.7585
        867.50         7.5093       191.5500        69.7651         0.6690         0.6668       0.539920         1.7655
        868.00         7.7419       190.1500        72.9635         0.6751         0.6546       0.554890         1.7854
        868.50         7.9744       190.4000        72.0640         0.6813         0.7244       0.570860         1.8134
        869.00         8.5791       191.3000        71.9640         0.6876         0.7178       0.590220         1.8273
        869.50         9.1372       192.4000        70.0650         0.6813         0.5445       0.578840         1.8293
        870.00         9.9279       191.2000        65.1674         0.6751         0.3802       0.561280         1.8184
        870.50        10.8116       192.3000        63.1684         0.6751         0.3404       0.553090         1.8134
        871.00        11.6488       192.1000        62.7686         0.6751         0.4207       0.539720         1.8144
        871.50        11.9744       193.1000        60.7696         0.6813         0.5649       0.547300         1.8204
        872.00        12.2070       195.3000        60.7696         0.6813         0.7379       0.542910         1.8263
        872.50        12.5326       193.9000        60.5697         0.6813         0.8318       0.538320         1.8303
        873.00        12.5326       194.1500        60.9695         0.6813         0.7379       0.538320         1.8303
