~Version Information Block
VERS .                 2.00:  CWLS LOG ASCII STANDARD - VERSION 2.00
WRAP .                   NO:  One line per depth step
~Well Information Block
#MNEM.UNIT        Data Type   Information
#---------- ----------------  -----------
STRT .FT             840.00:  START DEPTH
STOP .FT            5812.00:  STOP DEPTH
STEP .FT               0.50:  STEP
NULL .              -999.25:  NULL VALUE
COMP .                     :  COMPANY
WELL .                UXA-1:  WELL
FLD  .                     :  FIELD
LOC  .                     :  LOCATION
CTRY .                     :  COUNTRY
STAT .                     :  STATE
CNTY .                     :  COUNTY
SRVC .                     :  SERVICE COMPANY
DATE .                     :  DATE
API  .                     :  API NUMBER
UWI  .                     :  UNIQUE WELL ID
~Curve Information Block
#MNEM.UNIT         API CODE   Curve Description
#---------- ----------------  -----------------
DEPTH.FT                   :  0       Index
CALI .IN                   :  10      Caliper
DT   .US/F                 :  8       Delta-T (also called Slowness or Interval Transit Time)
GR   .GAPI                 :  7       Gamma Ray
ILD  .OHMM                 :  6       Induction Deep Resistivity
MSFL .OHMM                 :  5       Micro-spherically-focused Resistivity
NPHI_LS.V/V                  :  4       Thermal Neutron Porosity (original Ratio Method) in Selected Lit
RHOB .G/C3                 :  3       Bulk Density
~Parameter Information Block
#MNEM.UNIT            Value   Description
#---------- ----------------  -----------
PROJECT.     petro@kponwjlx001:  
SET  .                 WIRE:  
~Other Information Block
# 
~A       DEPTH           CALI             DT             GR            ILD           MSFL        NPHI_LS           RHOB 
# ...
       1811.50        12.9512       182.4500        68.0660         0.4771         0.6486       0.547900         1.8343
       1812.00        12.9977       182.4000        68.9655         0.4771         0.5754       0.538720         1.8443
       1812.50        13.0442       182.2000        70.3648         0.4771         0.5105       0.543310         1.8503
       1813.00        13.0442       181.2000        71.6642         0.4814         0.4742       0.544710         1.8553
       1813.50        12.9977       180.6500        65.6672         0.4814         0.4405       0.532540         1.8453
       1814.00        12.9512       180.3000        65.6672         0.4814         0.4529       0.524150         1.8523
       1814.50        12.8116       180.5500        64.9675         0.4771         0.5808       0.532140         1.8603
       1815.00        12.7651       180.9000        64.1679         0.4771         0.7727       0.520760         1.8493
       1815.50        12.9046       180.8500        64.4678         0.4684         0.7727       0.522360         1.8483
       1816.00        12.9512       179.8750        63.4683         0.4642         0.6668       0.522950         1.8493
       1816.50        13.2767       178.9000        62.0690         0.4642         0.5970       0.514770         1.8713
       1817.00        13.7419       177.0000        63.5682         0.4684         0.6026       0.505790         1.8743
       1817.50        14.0674       177.2500        65.1674         0.4727         0.6486       0.462680         1.8693
       1818.00        14.2535       177.1000        66.1669         0.4859         0.5702       0.465470         1.8613
       1818.50        14.3930       176.3000        65.9670         0.4994         0.5248       0.472650         1.8463
       1819.00        14.6256       176.3000        66.8666         0.5039         0.5649       0.484030         1.8293
       1819.50        15.0442       173.5000        67.5662         0.5179         0.6368       0.488420         1.8094
       1820.00        15.3698       170.7000        67.3663         0.5275         0.7244       0.509380         1.7894
       1820.50        14.9977       170.2500        64.0680         0.5372         0.7178       0.514970         1.7789
       1821.00        14.8581       168.8000        62.9685         0.5372         0.6310       0.512770         1.7685
       1821.50        15.0907       170.1500        61.5692         0.5323         0.6026       0.517570         1.7525
       1822.00        14.7651       172.6000        62.1689         0.5132         0.6081       0.520160         1.7445
       1822.50        14.4860       174.1500        66.5667         0.4994         0.6194       0.513170         1.7665
       1823.00        14.4395       174.4500        68.8655         0.4859         0.6026       0.516970         1.7505
       1823.50        14.6256       174.4000        67.2664         0.4771         0.5445       0.511780         1.7335
       1824.00        14.9512       173.8500        67.9660         0.4771         0.5058       0.500400         1.7545
       1824.50        15.1837       173.8500        64.3678         0.4859         0.5058       0.507980         1.7954
       1825.00        14.9512       173.3000        63.6682         0.5039         0.5346       0.525150         1.8184
       1825.50        14.2535       172.1000        64.1679         0.5179         0.5395       0.534530         1.8363
       1826.00        13.8349       169.7000        65.3673         0.5372         0.6026       0.514370         1.8293
       1826.50        13.5558       165.6000        65.7671         0.5522         0.6486       0.476850         1.8363
       1827.00        13.3233       162.9000        64.9675         0.5727         0.6194       0.477240         1.8563
       1827.50        13.8349       162.3500        63.3683         0.5833         0.6028       0.485830         1.8982
       1828.00        14.2535       161.9500        62.4688         0.6050         0.5861       0.490820         1.9172
       1828.50        13.6953       162.2000        63.5682         0.6105         0.6668       0.507190         1.8962
       1829.00        13.3233       162.3000        62.3688         0.6161         0.6486       0.504790         1.8752
       1829.50        13.3698       160.9000        62.8686         0.6105         0.5754       0.510380         1.8493
       1830.00        13.6023       159.3000        64.1679         0.5995         0.6668       0.508380         1.8343
       1830.50        13.6023       159.1000        64.8676         0.5940         0.6546       0.513570         1.8423
       1831.00        13.5558       160.1000        65.7671         0.5833         0.5916       0.532140         1.8563
       1831.50        14.0674       160.2000        66.5667         0.5833         0.6486       0.535930         1.8643
       1832.00        14.5791       160.3000        67.3663         0.5780         0.5495       0.529740         1.8613
       1832.50        14.9977       160.8500        68.4658         0.5727         0.4207       0.516770         1.8663
       1833.00        14.6721       161.6500        69.3653         0.5623         0.4093       0.525350         1.8613
       1833.50        14.0674       164.0500        67.6662         0.5572         0.4742       0.538320         1.8303
       1834.00        13.7419       166.4000        67.9660         0.5422         0.4875       0.529340         1.7934
       1834.50        13.6953       167.9000        68.4658         0.5372         0.4920       0.515170         1.8024
       1835.00        13.8814       168.8000        65.6672         0.5275         0.6486       0.507190         1.8254
       1835.50        13.6953       167.7500        62.5687         0.5179         0.6855       0.504190         1.8343
       1836.00        13.4163       167.1000        63.1684         0.5179         0.5395       0.492220         1.8533
       1836.50        13.4163       168.9500        62.5687         0.5179         0.5395       0.507980         1.8733
       1837.00        13.3233       169.2500        65.1674         0.5179         0.5297       0.523350         1.8613
       1837.50        13.2767       169.3000        68.7656         0.5179         0.6081       0.535130         1.8363
       1838.00        13.4163       169.3500        68.8655         0.5132         0.5649       0.529340         1.8483
       1838.50        13.2767       169.8000        66.9665         0.5132         0.5248       0.540520         1.8693
       1839.00        13.2302       170.1500        66.1669         0.5039         0.5754       0.521560         1.8852
       1839.50        13.4628       171.2500        65.3673         0.5039         0.5754       0.503590         1.9052
       1840.00        13.9744       173.0000        62.0690         0.5132         0.5395       0.514370         1.9102
       1840.50        13.9279       175.3000        58.5707         0.5275         0.6081       0.507190         1.8982
       1841.00        13.6953       176.8000        59.1704         0.5522         0.7244       0.508580         1.8862
       1841.50        13.3233       178.1000        59.2704         0.5780         0.7586       0.519160         1.8862
       1842.00        12.9512       177.0500        58.8706         0.5833         0.7516       0.512970         1.8912
       1842.50        12.9512       174.4000        58.1709         0.5940         0.6730       0.515770         1.8942
       1843.00        13.4628       171.1000        58.7706         0.5833         0.5649       0.535930         1.9062
       1843.50        13.7884       170.6500        60.2699         0.5833         0.4571       0.511380         1.9281
       1844.00        13.9744       172.0000        61.5692         0.5833         0.5649       0.500400         1.9461
       1844.50        13.8349       175.7000        60.2699         0.5780         0.7379       0.531340         1.9571
