~Version Information Block
VERS .                 2.00:  CWLS LOG ASCII STANDARD - VERSION 2.00
WRAP .                   NO:  One line per depth step
~Well Information Block
#MNEM.UNIT        Data Type   Information
#---------- ----------------  -----------
STRT .FT             840.00:  START DEPTH
STOP .FT            5812.00:  STOP DEPTH
STEP .FT               0.50:  STEP
NULL .              -999.25:  NULL VALUE
COMP .                     :  COMPANY
WELL .                UXA-1:  WELL
FLD  .                     :  FIELD
LOC  .                     :  LOCATION
CTRY .                     :  COUNTRY
STAT .                     :  STATE
CNTY .                     :  COUNTY
SRVC .                     :  SERVICE COMPANY
DATE .                     :  DATE
API  .                     :  API NUMBER
UWI  .                     :  UNIQUE WELL ID
~Curve Information Block
#MNEM.UNIT         API CODE   Curve Description
#---------- ----------------  -----------------
DEPTH.FT                   :  0       Index
CALI .IN                   :  10      Caliper
DT   .US/F                 :  8       Delta-T (also called Slowness or Interval Transit Time)
GR   .GAPI                 :  7       Gamma Ray
ILD  .OHMM                 :  6       Induction Deep Resistivity
MSFL .OHMM                 :  5       Micro-spherically-focused Resistivity
NPHI_LS.V/V                  :  4       Thermal Neutron Porosity (original Ratio Method) in Selected Lit
RHOB .G/C3                 :  3       Bulk Density
~Parameter Information Block
#MNEM.UNIT            Value   Description
#---------- ----------------  -----------
PROJECT.     petro@kponwjlx001:  
SET  .                 WIRE:  
~Other Information Block
# 
~A       DEPTH           CALI             DT             GR            ILD           MSFL        NPHI_LS           RHOB 
# ...
       5094.50        12.2000        94.0000        47.4000         1.1681         1.1889       0.304400         2.2920
       5095.00        12.1500        97.3000        48.4000         1.1896         1.3560       0.313000         2.3210
       5095.50        12.1500       103.0000        51.3000         1.1681         1.1379       0.321600         2.2980
       5096.00        12.1500       103.2000        50.8000         1.1159         1.2479       0.321800         2.2880
       5096.50        12.2000       103.5500        50.8000         1.0467         1.2365       0.323400         2.2840
       5097.00        12.1500       103.6500        51.6000         1.0092         1.2479       0.330400         2.2930
       5097.50        12.1500       104.0000        53.6000         1.0000         1.2949       0.336200         2.2980
       5098.00        12.2000       103.4000        54.2000         0.9909         1.3312       0.334800         2.3090
       5098.50        12.1500       103.7000        53.8000         0.9909         1.3312       0.333800         2.2970
       5099.00        12.1500       103.0000        54.2000         1.0000         1.3190       0.330000         2.2850
       5099.50        12.2000       103.7000        55.1000         1.0000         1.2712       0.337600         2.2890
       5100.00        12.2000       103.4500        56.0000         0.9909         1.2712       0.321000         2.2890
       5100.50        12.2000       102.7500        54.6000         1.0000         1.2712       0.324200         2.3130
       5101.00        12.2000       102.9500        51.6000         1.0092         1.2595       0.329000         2.3080
       5101.50        12.2000       103.7000        50.8000         1.0467         1.2949       0.328200         2.2960
       5102.00        12.2000       103.7000        49.3000         1.0758         1.2949       0.333600         2.2880
       5102.50        12.2000       104.0000        49.8000         1.1261         1.3190       0.336400         2.2880
       5103.00        12.2000       103.2500        49.4000         1.1365         1.3312       0.347400         2.2700
       5103.50        12.2000        97.1000        50.6000         1.1159         1.3312       0.358600         2.2640
       5104.00        12.2000        94.7000        49.9000         1.1159         1.4871       0.358000         2.2690
       5104.50        12.2000        94.4500        50.3000         1.1159         1.4393       0.334000         2.2890
       5105.00        12.2000        95.6500        48.5000         1.1261         1.3914       0.327200         2.3130
       5105.50        12.2000       101.3500        49.3000         1.1159         1.3436       0.347600         2.2940
       5106.00        12.2500       103.2000        51.6000         1.0758         1.2027       0.350800         2.2590
       5106.50        12.2500       102.7000        52.5000         1.0372         1.2595       0.333800         2.2480
       5107.00        12.2500       102.4000        52.5000         1.0278         1.2949       0.329200         2.2540
       5107.50        12.2500       102.1500        54.1000         1.0278         1.2830       0.332400         2.2530
       5108.00        12.2500       102.7000        54.0000         1.0467         1.2365       0.325400         2.2340
       5108.50        12.3000       102.5000        53.2000         1.0957         1.2479       0.329600         2.2360
       5109.00        12.3000       101.9000        53.7000         1.1365         1.2479       0.335400         2.2530
       5109.50        12.2500       101.9000        51.4000         1.1574         1.2479       0.338800         2.2650
       5110.00        12.3000        99.8500        50.8000         1.1574         1.3190       0.344200         2.2730
       5110.50        12.3000        96.4000        49.2000         1.1681         1.6047       0.331600         2.2700
       5111.00        12.3000        96.7000        46.9000         1.1681         1.6084       0.306800         2.2930
       5111.50        12.3000        97.1500        46.1000         1.1896         1.6122       0.299400         2.3110
       5112.00        12.3000        98.0500        48.0000         1.1788         1.6159       0.312000         2.3190
       5112.50        12.3000       100.9000        47.2000         1.1681         1.3190       0.331400         2.3120
       5113.00        12.3000        99.9000        47.4000         1.1469         1.3813       0.344600         2.2920
       5113.50        12.3000       100.0000        47.6000         1.1681         1.4070       0.356000         2.2940
       5114.00        12.3000       100.4000        46.8000         1.2339         1.3941       0.357000         2.2940
       5114.50        12.3500       100.4500        44.8000         1.3154         1.4332       0.364000         2.2760
       5115.00        12.3000       100.5500        44.0000         1.4023         1.4201       0.347800         2.2780
       5115.50        12.4000        96.5500        42.4000         1.4678         1.3560       0.331600         2.2850
       5116.00        12.4000        91.8500        39.1000         1.5086         1.5573       0.317600         2.2890
       5116.50        12.3000        91.1000        38.6000         1.6230         1.6910       0.291600         2.2930
       5117.00        12.2500        91.5500        38.5000         1.8111         1.8246       0.285000         2.3170
       5117.50        12.3000        96.0000        39.5000         1.9307         1.9582       0.287600         2.3080
       5118.00        12.2500        94.8500        38.0000         1.8785         2.0918       0.291600         2.2940
       5118.50        12.3000        86.7500        37.3000         1.6681         2.2254       0.276000         2.2800
       5119.00        12.3000        79.4000        38.7000         1.5224         2.3590       0.264200         2.3130
       5119.50        12.3000        78.0500        38.4000         1.4949         2.4926       0.246000         2.3530
       5120.00        12.3500        83.1000        39.8000         1.5505         2.6262       0.250600         2.3760
       5120.50        12.3000        91.8500        41.4000         1.6529         2.7598       0.277000         2.3670
       5121.00        12.4000        97.6000        42.1000         1.6529         2.7575       0.296200         2.3120
       5121.50        12.3500        91.5000        41.6000         1.5505         2.7552       0.297000         2.2940
       5122.00        12.3500        84.2500        40.5000         1.4281         2.7528       0.279200         2.3140
       5122.50        12.4000        80.4500        38.4000         1.3643         2.7505       0.250600         2.3460
       5123.00        12.3000        81.9000        39.6000         1.3519         2.7482       0.244800         2.3545
       5123.50        12.3000        89.4000        39.9000         1.3895         2.7459       0.265000         2.3630
       5124.00        12.3000        97.2500        41.9000         1.3519         2.7435       0.290400         2.2910
       5124.50        12.2000        99.2000        43.9000         1.2798         2.3754       0.319600         2.2340
       5125.00        12.2500        98.4500        43.4000         1.1788         2.0074       0.342800         2.2100
       5125.50        12.2500        98.4500        44.9000         1.1159         1.6393       0.350000         2.2140
       5126.00        12.3000        99.4500        45.6000         1.0957         1.2712       0.338800         2.2220
       5126.50        12.3000       100.2000        46.5000         1.0957         1.2830       0.330600         2.2300
       5127.00        12.3000        99.7000        46.7000         1.1057         1.2830       0.330600         2.2410
       5127.50        12.2500        99.4500        45.5000         1.1159         1.2712       0.332400         2.2400
