~Version Information Block
VERS .                 2.00:  CWLS LOG ASCII STANDARD - VERSION 2.00
WRAP .                   NO:  One line per depth step
~Well Information Block
#MNEM.UNIT        Data Type   Information
#---------- ----------------  -----------
STRT .FT             840.00:  START DEPTH
STOP .FT            5812.00:  STOP DEPTH
STEP .FT               0.50:  STEP
NULL .              -999.25:  NULL VALUE
COMP .                     :  COMPANY
WELL .                UXA-1:  WELL
FLD  .                     :  FIELD
LOC  .                     :  LOCATION
CTRY .                     :  COUNTRY
STAT .                     :  STATE
CNTY .                     :  COUNTY
SRVC .                     :  SERVICE COMPANY
DATE .                     :  DATE
API  .                     :  API NUMBER
UWI  .                     :  UNIQUE WELL ID
~Curve Information Block
#MNEM.UNIT         API CODE   Curve Description
#---------- ----------------  -----------------
DEPTH.FT                   :  0       Index
CALI .IN                   :  10      Caliper
DT   .US/F                 :  8       Delta-T (also called Slowness or Interval Transit Time)
GR   .GAPI                 :  7       Gamma Ray
ILD  .OHMM                 :  6       Induction Deep Resistivity
MSFL .OHMM                 :  5       Micro-spherically-focused Resistivity
NPHI_LS.V/V                  :  4       Thermal Neutron Porosity (original Ratio Method) in Selected Lit
RHOB .G/C3                 :  3       Bulk Density
~Parameter Information Block
#MNEM.UNIT            Value   Description
#---------- ----------------  -----------
PROJECT.     petro@kponwjlx001:  
SET  .                 WIRE:  
~Other Information Block
# 
~A       DEPTH           CALI             DT             GR            ILD           MSFL        NPHI_LS           RHOB 
# ...
       4123.00        12.5000       112.2000        50.7000         0.6939         0.9203       0.376200         2.1720
       4123.50        12.6000       112.6750        53.2000         0.6876         0.9035       0.382000         2.1960
       4124.00        12.6000       113.1500        54.4000         0.6751         0.8788       0.383400         2.2280
       4124.50        12.5000       112.7000        50.9000         0.6751         0.8707       0.363600         2.2570
       4125.00        12.5000       113.6500        48.0000         0.6939         0.8392       0.348400         2.2700
       4125.50        12.4500       113.3500        40.7000         0.7397         0.8392       0.348000         2.2530
       4126.00        12.5000       112.0000        37.2000         0.7814         0.8548       0.347400         2.2060
       4126.50        12.4000       112.0000        37.2000         0.7814         0.8087       0.334800         2.1750
       4127.00        12.5000       111.8000        36.8000         0.8330         0.7723       0.323400         2.1810
       4127.50        12.4000       106.8500        35.8000         0.8330         0.8087       0.310600         2.2060
       4128.00        12.4000        95.6000        34.4000         0.8254         0.9549       0.302400         2.2420
       4128.50        12.4500        94.4500        35.3000         0.8254         0.9400       0.286800         2.2810
       4129.00        12.4000        96.0000        31.7000         0.8330         0.9250       0.292800         2.2840
       4129.50        12.5000       101.2000        30.5000         0.8483         0.9101       0.314800         2.2270
       4130.00        12.5000       110.9500        31.9000         0.8406         0.8952       0.324800         2.1520
       4130.50        12.5000       112.4500        32.3000         0.7958         0.8707       0.336200         2.1410
       4131.00        12.5000       110.1500        34.0000         0.7465         0.8952       0.345800         2.1500
       4131.50        12.4500       109.4000        36.0000         0.7197         0.8952       0.348200         2.1500
       4132.00        12.5000       108.9000        38.1000         0.7131         0.9203       0.350000         2.1530
       4132.50        12.5000       109.4000        40.2000         0.7197         0.9461       0.334600         2.1600
       4133.00        12.5000       110.4500        41.1000         0.7263         0.9908       0.323600         2.1700
       4133.50        12.4500       111.0000        39.9000         0.7397         0.9908       0.321800         2.1940
       4134.00        12.4500       110.7000        40.0000         0.7397         0.9549       0.327400         2.1950
       4134.50        12.4500       111.2000        43.8000         0.7397         0.7723       0.347200         2.2130
       4135.00        12.5000       110.4000        46.8000         0.7465         0.5489       0.352200         2.2480
       4135.50        12.5000       110.2000        48.0000         0.7672         0.6246       0.350400         2.2410
       4136.00        12.6000       111.1000        47.6000         0.7814         0.8707       0.344200         2.2240
       4136.50        12.7000       109.7000        47.3000         0.7959         0.8315       0.347800         2.2140
       4137.00        12.9500       109.9000        50.5000         0.8105         0.8469       0.349800         2.2240
       4137.50        13.3000       110.4000        56.1000         0.8330         0.9549       0.346000         2.2940
       4138.00        13.7500       110.0000        61.2000         0.8561         0.7794       0.351000         2.3390
       4138.50        14.0000       111.1500        60.2000         0.8961         0.6787       0.357600         2.3240
       4139.00        13.7500       112.1000        60.8000         0.9127         0.7512       0.342800         2.3050
       4139.50        13.6000       111.5000        63.2000         0.8967         0.6304       0.331400         2.3060
       4140.00        13.8000       111.6000        62.1000         0.8808         0.6481       0.350600         2.3190
       4140.50        14.0000       110.4000        58.4000         0.8649         0.8013       0.369600         2.2940
       4141.00        13.8000       110.2500        59.6000         0.8489         0.7173       0.374800         2.2510
       4141.50        13.7000       114.5000        62.9000         0.8330         0.6362       0.366200         2.2640
       4142.00        13.8500       117.3000        62.0000         0.8330         0.5489       0.376000         2.2900
       4142.50        13.8000       119.4000        60.8000         0.8330         0.5339       0.380800         2.2890
       4143.00        13.5500       118.4500        59.9000         0.8254         0.5643       0.387600         2.2840
       4143.50        13.3000       117.5000        61.3000         0.8254         0.5909       0.366600         2.3100
       4144.00        13.4500       116.5500        59.2000         0.8330         0.7307       0.363200         2.2930
       4144.50        13.3000       115.6000        57.2000         0.8483         0.7582       0.358800         2.2930
       4145.00        13.3000       114.6500        56.8000         0.8561         0.7042       0.365800         2.2900
       4145.50        13.4500       113.7000        58.0000         0.8561         0.6724       0.371600         2.2890
       4146.00        13.5500       112.7500        59.3000         0.8406         0.6663       0.372600         2.3160
       4146.50        13.8000       111.8000        62.0000         0.8330         0.6331       0.361100         2.3030
       4147.00        13.6000       115.5000        63.2000         0.8179         0.6000       0.349600         2.2900
       4147.50        13.3000       114.9500        64.0000         0.8179         0.5668       0.344000         2.2900
       4148.00        13.0500       117.0000        62.6000         0.8406         0.5336       0.347400         2.2890
       4148.50        12.9000       117.4000        62.1000         0.8880         0.5005       0.351400         2.2850
       4149.00        13.0000       114.6000        64.0000         0.9211         0.5855       0.356200         2.3185
       4149.50        12.9500       110.5500        62.1000         0.9641         0.6362       0.363600         2.3520
       4150.00        12.9000       106.4000        60.9000         1.0092         0.6663       0.350000         2.3520
       4150.50        13.0000       104.7000        58.9000         1.0661         0.9374       0.332800         2.3480
       4151.00        13.2000       103.4000        57.6000         1.1159         1.4332       0.331000         2.3600
       4151.50        13.2500       103.7500        57.8000         1.1574         1.3792       0.329200         2.3620
       4152.00        13.4500       105.3000        59.2000         1.1681         1.3252       0.343400         2.3450
       4152.50        13.9500       107.0000        60.8000         1.1469         1.2712       0.353200         2.3460
       4153.00        14.4000       107.2812        60.4000         1.1057         0.9549       0.361000         2.3490
       4153.50        14.9500       107.5625        62.0000         1.0668         0.8238       0.348800         2.3370
       4154.00        14.9000       107.8438        63.6000         1.0278         0.8163       0.333200         2.3200
       4154.50        14.5500       108.1250        63.6000         1.0000         0.6787       0.350800         2.3330
       4155.00        14.0000       108.4062        62.6000         0.9909         0.5193       0.371200         2.3460
       4155.50        14.0500       108.6875        64.4000         0.9909         0.6663       0.373000         2.3170
       4156.00        14.3000       108.9688        66.4000         0.9819         0.7867       0.370000         2.3320
