~Version Information Block
VERS .                 2.00:  CWLS LOG ASCII STANDARD - VERSION 2.00
WRAP .                   NO:  One line per depth step
~Well Information Block
#MNEM.UNIT        Data Type   Information
#---------- ----------------  -----------
STRT .FT            1820.00:  START DEPTH
STOP .FT            4889.00:  STOP DEPTH
STEP .FT               0.50:  STEP
NULL .              -999.25:  NULL VALUE
COMP .                     :  COMPANY
WELL .                 UM-1:  WELL
FLD  .                     :  FIELD
LOC  .                     :  LOCATION
CTRY .                     :  COUNTRY
STAT .                     :  STATE
CNTY .                     :  COUNTY
SRVC .                     :  SERVICE COMPANY
DATE .                     :  DATE
API  .                     :  API NUMBER
UWI  .                     :  UNIQUE WELL ID
~Curve Information Block
#MNEM.UNIT         API CODE   Curve Description
#---------- ----------------  -----------------
DEPTH.FT                   :  DEPTH CURVE
CALI .IN                   :  
DT   .US/F                 :  
GR   .GAPI                 :  
ILD  .OHMM                 :  
MSFL .OHMM                 :  
NPHI_LS.V/V                  :  
RHOB .G/C3                 :  
~Parameter Information Block
#MNEM.UNIT            Value   Description
#---------- ----------------  -----------
PROJECT.     petro@kponwjlx001:  
SET  .                 WIRE:  
~Other Information Block
# 
~A       DEPTH           CALI             DT             GR            ILD           MSFL        NPHI_LS           RHOB 
# ...
       4265.50        12.5860       117.0000        68.8120         0.7470         1.2740       0.377440         2.2990
       4266.00        12.5940       117.2500        70.8750         0.7340         1.2350       0.372560         2.2930
       4266.50        12.5780       117.2500        72.0000         0.7180         1.1420       0.382320         2.2870
       4267.00        12.6410       117.3750        67.3120         0.7010         1.1200       0.399900         2.3030
       4267.50        12.6020       117.2500        63.0310         0.6960         1.1310       0.387700         2.3220
       4268.00        12.8120       118.1250        63.3750         0.7030         1.1790       0.383300         2.3380
       4268.50        12.6720       117.0000        68.6880         0.7320         1.2300       0.378910         2.3160
       4269.00        12.6480       112.2500        68.6880         0.8070         1.1710       0.395510         2.3220
       4269.50        12.6170       104.6880        64.1880         0.9240         1.1140       0.382320         2.3400
       4270.00        12.4690        95.4380        53.1250         1.0910         1.4880       0.344240         2.4040
       4270.50        12.3440        84.6250        44.4690         1.3250         3.5810       0.277340         2.4590
       4271.00        12.3120        77.9380        39.7500         1.5860         7.4970       0.226560         2.5270
       4271.50        12.3120        72.6250        38.4380         1.8930         6.0510       0.191890         2.5490
       4272.00        12.2500        75.1880        42.4380         2.2640        10.9930       0.188960         2.5570
       4272.50        12.2190        83.1250        49.9060         2.4590        12.3410       0.214840         2.5200
       4273.00        12.1800        94.3120        59.5940         2.4220         5.1390       0.259770         2.4490
       4273.50        12.1800       103.0000        64.0620         2.2130         2.0730       0.293460         2.3790
       4274.00        12.1800       107.2500        63.4380         1.8640         1.6180       0.320800         2.3360
       4274.50        12.1170       107.9380        60.9690         1.5370         1.5750       0.316890         2.3160
       4275.00        12.1250       107.8750        60.9380         1.3540         1.6690       0.331540         2.3200
       4275.50        12.1250       109.1250        59.4060         1.2280         1.7150       0.320310         2.3160
       4276.00        12.1480       109.6250        57.6880         1.1430         1.6370       0.337400         2.3180
       4276.50        12.2970       108.2500        59.8750         1.1110         1.5920       0.332030         2.3240
       4277.00        12.1800       109.0000        60.2190         1.1030         1.5230       0.336430         2.3240
       4277.50        12.2110       108.4380        61.4380         1.1050         1.6790       0.330080         2.3340
       4278.00        12.1640       108.3120        59.5620         1.1090         1.6730       0.324710         2.3240
       4278.50        12.2660       107.9380        57.4690         1.1080         1.7880       0.330570         2.3320
       4279.00        12.2810       107.8120        58.0000         1.1090         1.8800       0.335940         2.3280
       4279.50        12.4610       107.6250        55.6250         1.1100         1.7700       0.349610         2.3360
       4280.00        12.7500       108.7500        61.1880         1.1190         1.6970       0.340820         2.3280
       4280.50        12.3360       109.7500        59.9380         1.1320         1.7060       0.342290         2.3240
       4281.00        12.7580       109.3750        63.9380         1.1460         1.7200       0.328610         2.3050
       4281.50        12.1800       109.4380        62.4380         1.1560         1.4200       0.334960         2.2910
       4282.00        12.4610       108.3120        62.4690         1.1610         1.5040       0.327150         2.2750
       4282.50        12.4300       107.0000        60.0000         1.1630         1.5570       0.315920         2.2700
       4283.00        12.3750       105.3750        61.7190         1.1650         1.7030       0.294430         2.2870
       4283.50        13.0000       105.1880        64.3750         1.1680         1.5540       0.300290         2.2890
       4284.00        13.3750       105.7500        66.1250         1.1730         1.3080       0.312990         2.2830
       4284.50        13.0160       106.5000        62.2500         1.1800         1.4190       0.342290         2.2480
       4285.00        12.5000       107.7500        61.1560         1.1910         1.1800       0.352540         2.2190
       4285.50        12.7810       106.4380        60.8750         1.1930         1.1170       0.365230         2.2050
       4286.00        12.4840       106.6880        62.1250         1.1980         1.3450       0.356450         2.2150
       4286.50        12.4920       105.4380        60.6560         1.2070         1.5640       0.345700         2.2620
       4287.00        12.5780       104.4380        58.1250         1.2240         1.7280       0.333010         2.2950
       4287.50        12.5390       104.0620        57.1560         1.2450         1.8110       0.342290         2.3050
       4288.00        12.5390       103.8750        55.5620         1.2740         1.8550       0.333010         2.3160
       4288.50        12.5550       102.8750        56.5310         1.2930         1.9320       0.332030         2.3320
       4289.00        12.5780       101.3120        58.7190         1.3070         1.9930       0.318850         2.3440
       4289.50        12.8120       100.0000        60.9380         1.3090         2.1070       0.320800         2.3540
       4290.00        13.1800       100.0000        61.5940         1.2960         2.0560       0.333980         2.3500
       4290.50        12.5940       100.0000        62.0000         1.2780         2.1020       0.342770         2.3710
       4291.00        12.5160       101.0620        63.2810         1.2610         2.1770       0.345210         2.3590
       4291.50        12.5860       102.6880        61.6560         1.2380         2.0690       0.347170         2.3320
       4292.00        12.5620       104.5000        61.0940         1.2160         1.7770       0.347660         2.2970
       4292.50        12.5310       105.1250        62.6250         1.2010         1.8020       0.373540         2.2660
       4293.00        12.4840       104.1250        67.5000         1.1890         1.6810       0.379390         2.2700
       4293.50        12.5310       105.0620        67.7500         1.1640         1.6990       0.372560         2.2520
       4294.00        12.4610       105.9380        67.4380         1.1350         1.3820       0.356450         2.2540
       4294.50        12.3050       106.0000        67.1250         1.1370         1.5910       0.356450         2.2560
       4295.00        12.1640       105.4380        68.3120         1.1620         1.5430       0.358400         2.2250
       4295.50        11.9610       105.6880        63.5940         1.1970         1.3430       0.365230         2.2520
       4296.00        11.6880       101.6250        58.3120         1.2490         1.2550       0.340330         2.2700
       4296.50        11.6720        91.9380        51.9380         1.2840         2.0570       0.321290         2.3670
       4297.00        11.9220        84.3120        51.7500         1.2700         5.1130       0.261230         2.4300
       4297.50        11.9770        81.6250        50.2810         1.2330        13.0830       0.240230         2.4710
       4298.00        12.0000        84.8750        56.8750         1.2000         3.8500       0.231930         2.4120
       4298.50        12.2030        94.9380        61.1880         1.1770         1.1030       0.275880         2.3520
