~Version Information Block
VERS .                 2.00:  CWLS LOG ASCII STANDARD - VERSION 2.00
WRAP .                   NO:  One line per depth step
~Well Information Block
#MNEM.UNIT        Data Type   Information
#---------- ----------------  -----------
STRT .FT            1820.00:  START DEPTH
STOP .FT            4889.00:  STOP DEPTH
STEP .FT               0.50:  STEP
NULL .              -999.25:  NULL VALUE
COMP .                     :  COMPANY
WELL .                 UM-1:  WELL
FLD  .                     :  FIELD
LOC  .                     :  LOCATION
CTRY .                     :  COUNTRY
STAT .                     :  STATE
CNTY .                     :  COUNTY
SRVC .                     :  SERVICE COMPANY
DATE .                     :  DATE
API  .                     :  API NUMBER
UWI  .                     :  UNIQUE WELL ID
~Curve Information Block
#MNEM.UNIT         API CODE   Curve Description
#---------- ----------------  -----------------
DEPTH.FT                   :  DEPTH CURVE
CALI .IN                   :  
DT   .US/F                 :  
GR   .GAPI                 :  
ILD  .OHMM                 :  
MSFL .OHMM                 :  
NPHI_LS.V/V                  :  
RHOB .G/C3                 :  
~Parameter Information Block
#MNEM.UNIT            Value   Description
#---------- ----------------  -----------
PROJECT.     petro@kponwjlx001:  
SET  .                 WIRE:  
~Other Information Block
# 
~A       DEPTH           CALI             DT             GR            ILD           MSFL        NPHI_LS           RHOB 
# ...
       2021.00        12.7730       169.8750        53.5000         0.4620         0.6090       0.507810         1.9330
       2021.50        12.5780       168.6250        53.9690         0.4750         0.5950       0.511720         1.9230
       2022.00        12.5940       167.3750        53.3440         0.4900         0.6420       0.521970         1.9390
       2022.50        12.6170       165.2500        54.3440         0.5100         0.7430       0.510250         1.9440
       2023.00        12.7730       162.2500        54.0620         0.5250         0.8150       0.475100         1.9760
       2023.50        13.1330       158.7500        56.9690         0.5430         0.8940       0.469730         1.9900
       2024.00        13.5700       156.6250        56.1250         0.5580         0.9630       0.451170         2.0140
       2024.50        13.7810       156.5000        61.7810         0.5730         0.9640       0.470210         2.0160
       2025.00        13.9450       157.1250        63.7500         0.5810         0.8270       0.479980         2.0210
       2025.50        14.0470       158.5000        66.0620         0.5820         0.8810       0.482910         2.0250
       2026.00        14.1170       159.1250        61.2500         0.5710         0.8500       0.496090         2.0330
       2026.50        13.9610       159.7500        57.1560         0.5560         0.8580       0.490230         2.0310
       2027.00        14.1950       160.1250        53.5000         0.5390         0.8640       0.503910         2.0210
       2027.50        14.0230       162.1250        53.7190         0.5250         0.8520       0.507810         2.0100
       2028.00        14.1020       163.0000        56.4060         0.5140         0.8440       0.509280         2.0100
       2028.50        13.9450       164.1250        59.5940         0.5100         0.8230       0.500980         2.0060
       2029.00        14.2730       165.8750        63.8440         0.5050         0.7980       0.496090         1.9950
       2029.50        13.9840       167.5000        64.1880         0.4990         0.7760       0.486330         1.9790
       2030.00        13.8590       167.5000        65.0620         0.4890         0.7580       0.473630         1.9590
       2030.50        13.7420       168.5000        62.9060         0.4800         0.7160       0.473630         1.9540
       2031.00        13.7660       168.2500        61.1250         0.4670         0.7280       0.482420         1.9370
       2031.50        13.7810       169.5000        61.3750         0.4560         0.7310       0.496090         1.9360
       2032.00        14.0390       169.5000        63.5000         0.4480         0.7070       0.489260         1.9260
       2032.50        13.9770       168.7500        65.5620         0.4420         0.6940       0.483890         1.9230
       2033.00        13.8670       168.7500        65.9380         0.4390         0.6960       0.479000         1.9210
       2033.50        13.9690       168.2500        62.3120         0.4420         0.7150       0.477540         1.9260
       2034.00        13.9450       166.5000        58.7500         0.4460         0.7030       0.473630         1.9460
       2034.50        13.8360       165.0000        54.0940         0.4520         0.7230       0.484860         1.9580
       2035.00        13.9610       163.2500        51.9690         0.4580         0.7600       0.479980         1.9700
       2035.50        13.8590       162.1250        51.7500         0.4640         0.7660       0.499020         1.9730
       2036.00        13.8590       162.6250        51.1880         0.4690         0.7650       0.514160         1.9770
       2036.50        13.8670       161.3750        52.8750         0.4720         0.7610       0.533690         1.9710
       2037.00        13.7500       162.0000        52.5620         0.4780         0.7680       0.510250         1.9620
       2037.50        13.7500       161.5000        52.2500         0.4890         0.7800       0.482910         1.9540
       2038.00        13.7420       162.2500        49.6880         0.5080         0.7720       0.469730         1.9530
       2038.50        13.7030       156.8750        47.8120         0.5430         0.7580       0.475590         1.9670
       2039.00        13.5620       148.7500        45.6880         0.5910         0.7610       0.464360         2.0250
       2039.50        13.7190       140.2500        40.9060         0.6370         0.9010       0.426760         2.1110
       2040.00        13.7730       132.3750        38.0620         0.6730         1.4680       0.391110         2.2030
       2040.50        13.9610       131.8750        34.7810         0.7220         1.6090       0.382810         2.2340
       2041.00        13.8750       136.7500        35.4690         0.7610         1.3030       0.406740         2.2150
       2041.50        13.7810       139.2500        35.9060         0.8120         1.1620       0.420900         2.1890
       2042.00        13.8670       142.7500        37.1250         0.8400         1.0970       0.422850         2.1720
       2042.50        13.7970       144.1250        38.9060         0.8270         1.1660       0.393550         2.1520
       2043.00        13.5940       146.2500        39.1250         0.7910         1.0480       0.390620         2.1390
       2043.50        13.6720       146.7500        40.9380         0.7580         0.9890       0.384280         2.1230
       2044.00        13.6880       146.0000        42.5620         0.7320         0.9130       0.400390         2.1310
       2044.50        13.7660       144.8750        41.7190         0.7130         1.0520       0.399410         2.1410
       2045.00        13.7500       142.7500        41.4380         0.7090         1.0170       0.424320         2.1520
       2045.50        13.7730       141.8750        41.1560         0.7100         1.0330       0.428220         2.1430
       2046.00        13.8520       141.0000        42.7190         0.7200         1.0400       0.421390         2.1370
       2046.50        13.7810       142.1250        42.4380         0.7290         1.0860       0.408200         2.1310
       2047.00        13.8280       141.8750        41.2190         0.7390         1.0730       0.413090         2.1270
       2047.50        13.8980       141.8750        43.4060         0.7460         1.0080       0.421390         2.1270
       2048.00        13.7730       141.3750        44.4380         0.7460         1.0540       0.414060         2.1350
       2048.50        13.8280       140.8750        44.4060         0.7500         1.1380       0.401860         2.1500
       2049.00        13.7500       140.5000        42.3440         0.7470         1.1450       0.400390         2.1540
       2049.50        13.7110       141.1250        43.5310         0.7430         1.1490       0.396970         2.1620
       2050.00        13.7190       143.1250        44.4690         0.7430         1.1700       0.376460         2.1620
       2050.50        13.8360       142.6250        46.4380         0.7440         1.1860       0.388670         2.1620
       2051.00        13.8750       144.2500        44.2500         0.7450         1.0480       0.410160         2.1600
       2051.50        13.8360       143.3750        42.2190         0.7480         1.2540       0.441410         2.1680
       2052.00        13.7420       142.0000        40.3750         0.7510         1.1580       0.434570         2.1720
       2052.50        13.7810       142.0000        40.4380         0.7540         1.1420       0.418460         2.1760
       2053.00        13.8050       140.2500        44.8750         0.7660         1.2770       0.398440         2.1820
       2053.50        13.7580       139.1250        45.6250         0.7880         1.1860       0.400390         2.1860
       2054.00        13.8120       137.6250        45.7810         0.8140         1.3170       0.413570         2.1890
