~Version Information Block
VERS .                 2.00:  CWLS LOG ASCII STANDARD - VERSION 2.00
WRAP .                   NO:  One line per depth step
~Well Information Block
#MNEM.UNIT        Data Type   Information
#---------- ----------------  -----------
STRT .FT            1820.00:  START DEPTH
STOP .FT            4889.00:  STOP DEPTH
STEP .FT               0.50:  STEP
NULL .              -999.25:  NULL VALUE
COMP .                     :  COMPANY
WELL .                 UM-1:  WELL
FLD  .                     :  FIELD
LOC  .                     :  LOCATION
CTRY .                     :  COUNTRY
STAT .                     :  STATE
CNTY .                     :  COUNTY
SRVC .                     :  SERVICE COMPANY
DATE .                     :  DATE
API  .                     :  API NUMBER
UWI  .                     :  UNIQUE WELL ID
~Curve Information Block
#MNEM.UNIT         API CODE   Curve Description
#---------- ----------------  -----------------
DEPTH.FT                   :  DEPTH CURVE
CALI .IN                   :  
DT   .US/F                 :  
GR   .GAPI                 :  
ILD  .OHMM                 :  
MSFL .OHMM                 :  
NPHI_LS.V/V                  :  
RHOB .G/C3                 :  
~Parameter Information Block
#MNEM.UNIT            Value   Description
#---------- ----------------  -----------
PROJECT.     petro@kponwjlx001:  
SET  .                 WIRE:  
~Other Information Block
# 
~A       DEPTH           CALI             DT             GR            ILD           MSFL        NPHI_LS           RHOB 
# ...
       3662.50        12.3120       122.7500        70.1250         1.0540         1.3510       0.353520         2.3050
       3663.00        12.3120       125.6250        69.3750         0.9930         1.2910       0.338380         2.3070
       3663.50        12.3050       125.7500        67.3750         0.9390         1.3070       0.371090         2.3070
       3664.00        12.3120       126.0000        66.6880         0.9010         1.1910       0.394040         2.2990
       3664.50        12.3280       125.6250        67.3750         0.8740         1.2550       0.413570         2.2970
       3665.00        12.3050       124.3750        70.1250         0.8510         1.3940       0.406740         2.2970
       3665.50        12.2970       125.1250        68.8120         0.8380         1.3760       0.392090         2.2930
       3666.00        12.2970       125.7500        69.2500         0.8290         1.1720       0.387700         2.3030
       3666.50        12.2970       125.3750        67.8120         0.8200         1.1960       0.374510         2.3090
       3667.00        12.3050       128.0000        69.7500         0.8120         1.1820       0.363770         2.3010
       3667.50        12.3120       127.6250        67.4380         0.7990         1.1420       0.371580         2.2850
       3668.00        12.3200       128.1250        70.5620         0.7910         1.1170       0.389160         2.2810
       3668.50        12.3120       128.8750        70.7500         0.7860         1.2170       0.413090         2.3030
       3669.00        12.2890       127.2500        70.5620         0.7800         1.0370       0.408690         2.3070
       3669.50        12.3050       125.7500        68.6880         0.7730         1.1700       0.400390         2.3090
       3670.00        12.3200       126.0000        68.1880         0.7710         1.2140       0.386720         2.3050
       3670.50        12.2730       126.0000        72.2500         0.7690         1.1240       0.381350         2.3070
       3671.00        12.2810       126.0000        75.1880         0.7680         1.1420       0.383300         2.3030
       3671.50        12.2970       127.0000        74.0620         0.7670         1.1210       0.382810         2.2970
       3672.00        12.3050       128.1250        70.6250         0.7670         1.1080       0.396970         2.2870
       3672.50        12.3050       127.5000        68.0620         0.7650         1.1210       0.391600         2.2750
       3673.00        12.2580       127.7500        67.3120         0.7670         1.0560       0.390620         2.2730
       3673.50        12.2810       127.3750        68.1250         0.7700         1.0520       0.381840         2.2750
       3674.00        12.3280       126.2500        68.3750         0.7720         1.0140       0.368160         2.2850
       3674.50        12.3050       125.7500        67.6880         0.7760         1.0920       0.367190         2.2850
       3675.00        12.3750       125.7500        66.4380         0.7820         1.0770       0.374510         2.2950
       3675.50        12.4450       125.3750        68.1880         0.7900         1.0730       0.386230         2.2870
       3676.00        12.4220       125.1250        67.5000         0.7940         1.1010       0.388180         2.3030
       3676.50        12.4610       124.8750        70.0620         0.8020         1.1010       0.386720         2.2990
       3677.00        12.4610       124.0000        67.9380         0.8100         1.1430       0.386230         2.2950
       3677.50        12.4530       124.1250        70.3120         0.8160         1.1180       0.389650         2.2700
       3678.00        12.3910       124.6250        69.8750         0.8220         1.0990       0.386230         2.2580
       3678.50        12.3830       124.2500        69.3750         0.8290         1.0210       0.394530         2.2730
       3679.00        12.4140       123.7500        70.0620         0.8340         1.2030       0.409180         2.2890
       3679.50        12.3830       122.7500        70.5000         0.8400         1.1450       0.405760         2.2950
       3680.00        12.3200       122.6250        69.9380         0.8470         1.1860       0.406740         2.2910
       3680.50        12.3280       122.1250        67.7500         0.8600         1.2370       0.396000         2.2910
       3681.00        12.3200       120.8750        64.3750         0.8720         1.1970       0.419430         2.2970
       3681.50        12.3440       119.7500        63.9380         0.8740         1.2190       0.417970         2.2930
       3682.00        12.3280       120.5000        66.8750         0.8750         1.3650       0.416990         2.3010
       3682.50        12.2970       122.8750        69.2500         0.8790         1.2250       0.396000         2.2810
       3683.00        12.3050       124.6250        70.9380         0.8820         1.1470       0.409670         2.2710
       3683.50        12.3280       127.8750        69.6880         0.8920         1.1780       0.410640         2.2480
       3684.00        12.3830       126.3750        67.2500         0.8940         1.1650       0.412600         2.2580
       3684.50        12.3980       124.6250        68.2500         0.8880         1.2230       0.408690         2.2560
       3685.00        12.3200       124.8750        66.6250         0.8860         1.2560       0.414060         2.2730
       3685.50        12.3050       122.5000        69.5000         0.8920         1.2370       0.413570         2.2750
       3686.00        12.3050       122.5000        69.5620         0.9030         1.1490       0.409670         2.2830
       3686.50        12.3670       122.2500        72.1880         0.9140         1.1600       0.401370         2.2770
       3687.00        12.2580       122.8750        71.8120         0.9260         1.1650       0.392090         2.2700
       3687.50        12.2270       124.2500        69.7500         0.9340         1.1580       0.370120         2.2660
       3688.00        12.2970       124.7500        70.6250         0.9420         1.1910       0.375490         2.2660
       3688.50        12.3120       124.2500        70.5620         0.9540         1.2380       0.399900         2.2810
       3689.00        12.3440       123.0000        71.1250         0.9710         1.2280       0.426270         2.2910
       3689.50        12.4610       122.6250        68.3750         0.9790         1.2630       0.419920         2.2930
       3690.00        12.4140       120.6250        68.6880         0.9840         1.3190       0.429200         2.2890
       3690.50        12.2810       120.6250        70.5620         0.9910         1.3340       0.424320         2.2950
       3691.00        12.3120       120.1250        70.4380         0.9870         1.3250       0.422850         2.3090
       3691.50        12.2340       119.8750        70.6880         0.9720         1.2860       0.382320         2.2990
       3692.00        12.1720       122.5000        70.1880         0.9560         1.4110       0.385250         2.2950
       3692.50        12.1950       122.3750        71.0000         0.9400         1.1760       0.410160         2.2770
       3693.00        12.2340       124.0000        70.9380         0.9240         1.1440       0.431640         2.2660
       3693.50        12.3050       127.3750        71.9380         0.9070         1.0540       0.428220         2.2600
       3694.00        12.1720       126.5000        73.3750         0.8880         1.0550       0.410640         2.2540
       3694.50        12.2660       126.8750        77.7500         0.8670         1.0170       0.407710         2.2540
       3695.00        12.2810       127.7500        78.1880         0.8570         0.9940       0.431150         2.2420
       3695.50        12.1250       126.1250        78.0000         0.8560         0.9960       0.441410         2.2300
