~Version Information Block
VERS .                 2.00:  CWLS LOG ASCII STANDARD - VERSION 2.00
WRAP .                   NO:  One line per depth step
~Well Information Block
#MNEM.UNIT        Data Type   Information
#---------- ----------------  -----------
STRT .FT            1820.00:  START DEPTH
STOP .FT            4889.00:  STOP DEPTH
STEP .FT               0.50:  STEP
NULL .              -999.25:  NULL VALUE
COMP .                     :  COMPANY
WELL .                 UM-1:  WELL
FLD  .                     :  FIELD
LOC  .                     :  LOCATION
CTRY .                     :  COUNTRY
STAT .                     :  STATE
CNTY .                     :  COUNTY
SRVC .                     :  SERVICE COMPANY
DATE .                     :  DATE
API  .                     :  API NUMBER
UWI  .                     :  UNIQUE WELL ID
~Curve Information Block
#MNEM.UNIT         API CODE   Curve Description
#---------- ----------------  -----------------
DEPTH.FT                   :  DEPTH CURVE
CALI .IN                   :  
DT   .US/F                 :  
GR   .GAPI                 :  
ILD  .OHMM                 :  
MSFL .OHMM                 :  
NPHI_LS.V/V                  :  
RHOB .G/C3                 :  
~Parameter Information Block
#MNEM.UNIT            Value   Description
#---------- ----------------  -----------
PROJECT.     petro@kponwjlx001:  
SET  .                 WIRE:  
~Other Information Block
# 
~A       DEPTH           CALI             DT             GR            ILD           MSFL        NPHI_LS           RHOB 
# ...
       2825.00        12.7810       144.8750        72.8750         0.7150         0.8480       0.411130         2.1430
       2825.50        12.8520       145.1250        71.6250         0.7140         0.8300       0.406740         2.1430
       2826.00        12.8980       145.1250        71.9380         0.7120         0.8920       0.397460         2.1460
       2826.50        13.0160       143.7500        70.1250         0.7120         0.9460       0.412110         2.1560
       2827.00        13.0390       142.8750        71.5620         0.7090         1.0040       0.414060         2.1580
       2827.50        13.0550       143.7500        72.5620         0.7070         1.0720       0.395020         2.1780
       2828.00        13.1410       144.0000        72.9380         0.7040         1.0860       0.399410         2.1840
       2828.50        13.1480       145.2500        68.8750         0.7000         1.0740       0.400880         2.1930
       2829.00        13.1020       146.6250        65.6250         0.6980         1.0360       0.409180         2.1860
       2829.50        13.1020       146.5000        63.8750         0.6980         1.0280       0.405270         2.1840
       2830.00        13.0860       145.8750        63.8120         0.6980         1.0130       0.415530         2.1800
       2830.50        13.1330       144.7500        66.3120         0.6980         1.0250       0.430660         2.1800
       2831.00        13.1410       143.5000        70.0000         0.7000         1.0720       0.426270         2.1840
       2831.50        13.1330       143.0000        71.0000         0.7000         1.0780       0.426270         2.1860
       2832.00        13.1560       143.2500        70.6880         0.7030         1.0560       0.408690         2.1860
       2832.50        13.1950       143.1250        67.9380         0.7070         0.9820       0.421390         2.1880
       2833.00        13.2030       143.1250        69.7500         0.7090         1.0130       0.409670         2.1840
       2833.50        13.1250       143.7500        71.8750         0.7120         1.0280       0.424800         2.1780
       2834.00        13.1640       143.8750        72.2500         0.7110         1.0130       0.419920         2.1760
       2834.50        13.1950       144.0000        72.3750         0.7110         1.0040       0.426270         2.1720
       2835.00        13.1800       144.0000        71.7500         0.7100         1.0350       0.416020         2.1760
       2835.50        13.2110       143.8750        74.3750         0.7090         1.0480       0.425780         2.1720
       2836.00        13.2030       144.2500        74.7500         0.7020         1.1020       0.442870         2.1820
       2836.50        13.3590       144.6250        72.7500         0.6950         1.0830       0.471680         2.1800
       2837.00        13.3590       146.0000        70.6880         0.6830         1.0600       0.460450         2.1820
       2837.50        13.3280       147.3750        70.4380         0.6660         1.0340       0.427250         2.1680
       2838.00        13.3590       148.2500        69.0620         0.6540         0.9810       0.402830         2.1640
       2838.50        13.2420       149.2500        70.0000         0.6410         0.9700       0.396000         2.1580
       2839.00        13.3050       150.2500        70.8120         0.6260         0.9500       0.411130         2.1540
       2839.50        13.3050       150.5000        71.7500         0.6160         0.9310       0.417480         2.1460
       2840.00        13.3670       150.5000        69.3750         0.6010         0.9490       0.431150         2.1430
       2840.50        13.3120       150.3750        70.0620         0.5870         0.9430       0.435060         2.1460
       2841.00        13.2890       150.2500        70.5620         0.5760         0.9060       0.442380         2.1430
       2841.50        13.2810       150.5000        72.2500         0.5610         0.9180       0.449710         2.1430
       2842.00        13.3830       151.2500        69.3120         0.5460         0.8960       0.455570         2.1350
       2842.50        13.1950       150.5000        68.3750         0.5370         0.8750       0.459960         2.1350
       2843.00        13.2420       151.3750        68.6880         0.5320         0.8380       0.463870         2.1330
       2843.50        13.2420       149.1250        72.6880         0.5390         0.8390       0.478520         2.1330
       2844.00        13.2970       150.2500        69.7500         0.5550         0.8680       0.462400         2.1230
       2844.50        13.2420       150.2500        66.8750         0.5750         0.8780       0.458980         2.1210
       2845.00        13.0390       141.0000        62.5000         0.5990         0.8790       0.424800         2.1310
       2845.50        13.1410       136.3750        62.2190         0.6240         1.0450       0.416020         2.1660
       2846.00        13.2030       134.7500        59.5940         0.6540         1.1490       0.381350         2.2090
       2846.50        13.0470       131.6250        57.6880         0.7020         1.1870       0.386720         2.2460
       2847.00        13.0390       130.8750        56.9690         0.7950         1.0880       0.419430         2.2340
       2847.50        12.6410       124.1880        51.4060         0.9250         0.9400       0.456050         2.2190
       2848.00        12.5780       116.3750        41.8750         1.0420         0.9950       0.421390         2.2520
       2848.50        12.5000       110.8120        30.9690         1.1170         1.6520       0.352050         2.3220
       2849.00        12.4060       108.6250        27.4690         1.1460         2.1110       0.297360         2.3550
       2849.50        12.3830       111.2500        25.2340         1.1660         2.0490       0.313480         2.3050
       2850.00        12.3830       115.1880        26.4690         1.2140         1.6210       0.337400         2.2360
       2850.50        12.4140       117.3750        25.7340         1.2770         1.3660       0.361330         2.1820
       2851.00        12.4220       114.3750        28.6250         1.2830         1.2780       0.366210         2.1560
       2851.50        12.3910       114.7500        29.9840         1.2260         1.2120       0.380370         2.1370
       2852.00        12.3830       114.5000        34.6250         1.1240         1.1850       0.375000         2.1350
       2852.50        12.3050       116.9380        39.9690         1.0210         1.1410       0.362790         2.1390
       2853.00        12.3200       127.0620        51.9690         0.8870         1.2640       0.347660         2.1230
       2853.50        12.2890       134.6250        62.1250         0.8170         1.5060       0.362300         2.1110
       2854.00        12.2500       142.1250        71.7500         0.7760         0.9810       0.398440         2.1330
       2854.50        12.3050       152.0000        76.6250         0.7360         0.8210       0.427250         2.1910
       2855.00        12.4530       154.1250        79.0620         0.7020         0.8090       0.443850         2.1680
       2855.50        12.6170       152.1250        79.0620         0.6640         0.9080       0.416020         2.1460
       2856.00        12.7730       154.5000        78.4380         0.6180         0.8100       0.415040         2.1170
       2856.50        12.9380       153.2500        77.5620         0.5930         0.8330       0.409180         2.1290
       2857.00        12.9690       150.6250        75.2500         0.5850         0.8060       0.422850         2.1270
       2857.50        13.1560       149.0000        72.3750         0.5830         0.8750       0.422850         2.1390
       2858.00        13.3050       148.3750        73.0000         0.5860         0.8650       0.415040         2.1460
