~Version Information Block
VERS .                 2.00:  CWLS LOG ASCII STANDARD - VERSION 2.00
WRAP .                   NO:  One line per depth step
~Well Information Block
#MNEM.UNIT        Data Type   Information
#---------- ----------------  -----------
STRT .FT            1820.00:  START DEPTH
STOP .FT            4889.00:  STOP DEPTH
STEP .FT               0.50:  STEP
NULL .              -999.25:  NULL VALUE
COMP .                     :  COMPANY
WELL .                 UM-1:  WELL
FLD  .                     :  FIELD
LOC  .                     :  LOCATION
CTRY .                     :  COUNTRY
STAT .                     :  STATE
CNTY .                     :  COUNTY
SRVC .                     :  SERVICE COMPANY
DATE .                     :  DATE
API  .                     :  API NUMBER
UWI  .                     :  UNIQUE WELL ID
~Curve Information Block
#MNEM.UNIT         API CODE   Curve Description
#---------- ----------------  -----------------
DEPTH.FT                   :  DEPTH CURVE
CALI .IN                   :  
DT   .US/F                 :  
GR   .GAPI                 :  
ILD  .OHMM                 :  
MSFL .OHMM                 :  
NPHI_LS.V/V                  :  
RHOB .G/C3                 :  
~Parameter Information Block
#MNEM.UNIT            Value   Description
#---------- ----------------  -----------
PROJECT.     petro@kponwjlx001:  
SET  .                 WIRE:  
~Other Information Block
# 
~A       DEPTH           CALI             DT             GR            ILD           MSFL        NPHI_LS           RHOB 
# ...
       3227.00        12.9380       122.0000        61.7190         1.1460         1.2470       0.356450         2.2010
       3227.50        12.9220       122.0000        62.8750         1.1350         1.2350       0.364260         2.1860
       3228.00        12.6250       124.8750        59.9690         1.1080         1.1310       0.375000         2.1800
       3228.50        12.6250       127.1250        59.8120         1.0740         1.1850       0.367680         2.1700
       3229.00        12.6090       126.0000        60.6880         1.0300         1.0900       0.375000         2.1740
       3229.50        12.4610       129.0000        61.2190         0.9640         1.0590       0.391600         2.1780
       3230.00        12.3980       131.1250        66.1250         0.9190         1.1530       0.392580         2.1800
       3230.50        12.3280       132.6250        71.3120         0.8800         1.0580       0.412600         2.1720
       3231.00        12.3280       138.0000        75.0620         0.8410         0.9460       0.412110         2.1600
       3231.50        12.3520       138.3750        72.6880         0.8160         0.9260       0.423340         2.1460
       3232.00        12.3120       136.1250        69.5620         0.7960         0.9710       0.420410         2.1430
       3232.50        12.3200       136.0000        71.3750         0.7580         0.9940       0.418460         2.1450
       3233.00        12.3590       137.2500        71.6880         0.7280         0.9920       0.427250         2.1460
       3233.50        12.4220       139.1250        71.9380         0.7160         0.9670       0.434080         2.1520
       3234.00        12.4300       140.6250        69.8750         0.7100         0.9630       0.441890         2.1540
       3234.50        12.4300       139.5000        71.0000         0.7060         0.9450       0.418950         2.1520
       3235.00        12.4690       138.2500        69.6250         0.7030         0.9350       0.404790         2.1540
       3235.50        12.5160       137.6250        71.5620         0.6950         0.9450       0.402340         2.1580
       3236.00        12.4770       137.7500        69.5000         0.6870         0.9750       0.425780         2.1620
       3236.50        12.4450       138.7500        67.5000         0.6820         0.9640       0.446780         2.1620
       3237.00        12.3520       139.8750        66.5000         0.6820         0.9510       0.440920         2.1600
       3237.50        12.3360       139.6250        69.1250         0.6830         0.9480       0.428710         2.1600
       3238.00        12.2270       139.6250        73.9380         0.6810         0.9220       0.416990         2.1580
       3238.50        12.0940       140.5000        72.0000         0.6730         0.9160       0.416020         2.1500
       3239.00        12.1020       141.7500        70.4380         0.6680         0.8880       0.425780         2.1290
       3239.50        12.1090       144.1250        67.6880         0.6650         0.9140       0.430660         2.1230
       3240.00        12.1090       146.1250        68.5000         0.6590         0.9030       0.462890         2.1290
       3240.50        12.1090       145.7500        69.0620         0.6550         0.8600       0.461910         2.1430
       3241.00        12.1090       145.2500        69.6880         0.6510         0.8610       0.459960         2.1460
       3241.50        12.1020       143.1250        69.1880         0.6470         0.8820       0.451660         2.1460
       3242.00        12.1250       140.5000        67.8750         0.6460         0.8980       0.448240         2.1460
       3242.50        12.1090       140.0000        70.7500         0.6460         0.9110       0.442870         2.1560
       3243.00        12.0780       140.0000        71.0620         0.6470         0.8950       0.433110         2.1480
       3243.50        12.0470       141.1250        68.9380         0.6470         0.8440       0.442870         2.1450
       3244.00        12.0000       143.0000        65.5620         0.6480         0.8520       0.458010         2.1190
       3244.50        11.9530       144.1250        65.1250         0.6470         0.8880       0.439940         2.1090
       3245.00        12.0310       143.8750        66.7500         0.6450         0.7710       0.431640         2.1090
       3245.50        12.0700       144.3750        69.0000         0.6440         0.8720       0.434080         2.1310
       3246.00        12.0470       144.7500        70.0620         0.6390         0.9070       0.450200         2.1480
       3246.50        12.0470       145.3750        68.4380         0.6380         0.9090       0.459470         2.1540
       3247.00        12.0550       145.6250        67.3120         0.6370         0.8810       0.435550         2.1460
       3247.50        12.1090       145.8750        67.6880         0.6370         0.8590       0.439450         2.1480
       3248.00        12.1090       145.5000        71.1880         0.6370         0.8210       0.429200         2.1450
       3248.50        12.1090       144.0000        69.1250         0.6380         0.8850       0.446290         2.1390
       3249.00        12.1480       143.3750        71.1250         0.6390         0.8950       0.448730         2.1310
       3249.50        12.1880       143.5000        70.5000         0.6410         0.8670       0.456050         2.1430
       3250.00        12.2340       143.0000        70.7500         0.6430         0.8370       0.478030         2.1520
       3250.50        12.2270       144.3750        68.9380         0.6450         0.8590       0.474120         2.1600
       3251.00        12.1880       144.5000        68.6250         0.6480         0.9020       0.466310         2.1460
       3251.50        12.3050       143.3750        70.5620         0.6530         0.8690       0.438960         2.1520
       3252.00        12.3520       142.7500        71.5620         0.6560         0.8670       0.440920         2.1460
       3252.50        12.3440       141.3750        72.5620         0.6590         0.8610       0.468260         2.1410
       3253.00        12.2810       142.5000        74.0620         0.6580         0.8870       0.480470         2.1350
       3253.50        12.1090       143.5000        73.3750         0.6580         0.9080       0.477050         2.1330
       3254.00        12.1720       144.5000        71.6880         0.6590         0.8690       0.461910         2.1290
       3254.50        12.1880       145.8750        69.4380         0.6590         0.8570       0.443850         2.1150
       3255.00        12.3120       144.8750        68.8120         0.6580         0.7870       0.457520         2.1090
       3255.50        12.3280       143.1250        71.6250         0.6550         0.7780       0.449220         2.1020
       3256.00        12.3440       142.5000        69.5000         0.6470         0.8130       0.453610         2.1050
       3256.50        12.3670       141.0000        69.8750         0.6410         0.8760       0.451660         2.1150
       3257.00        12.4220       141.0000        68.0620         0.6360         0.8230       0.475100         2.1310
       3257.50        12.4840       140.1250        68.3120         0.6340         0.8060       0.477050         2.1370
       3258.00        12.4450       140.6250        67.5000         0.6370         0.8520       0.466310         2.1350
       3258.50        12.3440       139.0000        65.9380         0.6460         0.8310       0.432130         2.1370
       3259.00        12.3830       138.1250        66.1880         0.6580         0.8390       0.423340         2.1370
       3259.50        12.2660       136.1250        65.9380         0.6720         0.8130       0.410640         2.1520
       3260.00        12.3050       134.5000        63.3120         0.6880         0.8980       0.407230         2.1600
