~Version Information Block
VERS .                 2.00:  CWLS LOG ASCII STANDARD - VERSION 2.00
WRAP .                   NO:  One line per depth step
~Well Information Block
#MNEM.UNIT        Data Type   Information
#---------- ----------------  -----------
STRT .FT            1820.00:  START DEPTH
STOP .FT            4889.00:  STOP DEPTH
STEP .FT               0.50:  STEP
NULL .              -999.25:  NULL VALUE
COMP .                     :  COMPANY
WELL .                 UM-1:  WELL
FLD  .                     :  FIELD
LOC  .                     :  LOCATION
CTRY .                     :  COUNTRY
STAT .                     :  STATE
CNTY .                     :  COUNTY
SRVC .                     :  SERVICE COMPANY
DATE .                     :  DATE
API  .                     :  API NUMBER
UWI  .                     :  UNIQUE WELL ID
~Curve Information Block
#MNEM.UNIT         API CODE   Curve Description
#---------- ----------------  -----------------
DEPTH.FT                   :  DEPTH CURVE
CALI .IN                   :  
DT   .US/F                 :  
GR   .GAPI                 :  
ILD  .OHMM                 :  
MSFL .OHMM                 :  
NPHI_LS.V/V                  :  
RHOB .G/C3                 :  
~Parameter Information Block
#MNEM.UNIT            Value   Description
#---------- ----------------  -----------
PROJECT.     petro@kponwjlx001:  
SET  .                 WIRE:  
~Other Information Block
# 
~A       DEPTH           CALI             DT             GR            ILD           MSFL        NPHI_LS           RHOB 
# ...
       2423.00        12.6090       112.9380        35.7810         1.1770         1.6060       0.347660         2.2010
       2423.50        12.4840       105.6250        34.5310         1.3090         2.4600       0.335450         2.2190
       2424.00        12.3520       100.1880        36.6880         1.4140         2.2090       0.320800         2.2250
       2424.50        12.4450        96.0620        37.4060         1.4790         1.7020       0.318850         2.2010
       2425.00        12.5160       100.0620        37.3750         1.5210         2.3540       0.321290         2.2030
       2425.50        12.3830       100.2500        33.5310         1.5690         2.8300       0.338870         2.2110
       2426.00        12.3520       104.4380        31.5780         1.5780         1.7180       0.358400         2.2250
       2426.50        12.4060       110.6250        28.1880         1.5510         2.5180       0.356450         2.2050
       2427.00        12.4450       110.5000        26.0780         1.4990         1.8880       0.348140         2.1990
       2427.50        12.4220       112.1880        24.4840         1.4200         1.9040       0.328610         2.1970
       2428.00        12.4450       113.8120        27.2970         1.3570         1.6780       0.338380         2.2090
       2428.50        12.4610       114.2500        27.5470         1.3250         1.9260       0.345700         2.2110
       2429.00        12.4450       111.3120        27.5470         1.3230         2.0200       0.368650         2.2250
       2429.50        12.4450       109.9380        26.2500         1.3360         1.7550       0.359860         2.2480
       2430.00        12.4530       109.1880        24.7030         1.3730         2.6250       0.343260         2.2600
       2430.50        12.4060       108.6880        24.4380         1.4180         2.9350       0.331540         2.2660
       2431.00        12.4220       107.6250        24.5620         1.4650         2.1050       0.333500         2.2540
       2431.50        12.4690       106.1250        25.8750         1.5030         2.1330       0.321290         2.2460
       2432.00        12.4060       105.4380        26.5940         1.5330         2.8070       0.304200         2.2340
       2432.50        12.4450       105.7500        24.6880         1.5530         1.8160       0.305660         2.2090
       2433.00        12.3200       105.1250        25.6880         1.5620         2.0560       0.325200         2.2010
       2433.50        12.4220       107.5000        25.8750         1.5670         2.1180       0.333010         2.1890
       2434.00        12.4610       107.3120        27.1410         1.5710         2.7130       0.318360         2.1970
       2434.50        12.4610       107.6880        24.8590         1.5610         1.9770       0.315920         2.1890
       2435.00        12.4690       109.0000        24.5780         1.5470         2.2130       0.311520         2.1890
       2435.50        12.4690       106.9380        23.6090         1.5290         1.8900       0.335450         2.1800
       2436.00        12.3200       107.1880        24.8590         1.5300         1.7350       0.339360         2.1840
       2436.50        12.4610       107.9380        25.2660         1.5360         1.6220       0.344240         2.1820
       2437.00        12.4610       108.7500        24.9530         1.5720         1.9740       0.332030         2.2010
       2437.50        12.4220       111.3120        26.2970         1.6030         2.3590       0.338380         2.1970
       2438.00        12.4840       112.5000        24.2810         1.6160         1.9270       0.357910         2.2030
       2438.50        12.4610       111.4380        28.0470         1.5430         1.6020       0.360350         2.2130
       2439.00        12.2970       111.1250        31.1410         1.3600         1.9830       0.343260         2.2340
       2439.50        12.2890       118.2500        39.7810         1.1380         2.0570       0.317870         2.2270
       2440.00        12.2110       132.0000        45.5310         0.9600         1.7640       0.350100         2.1720
       2440.50        11.9140       150.0000        50.5620         0.8220         1.2430       0.430660         2.0920
       2441.00        11.9220       161.5000        53.6880         0.7230         0.7410       0.477540         2.0390
       2441.50        11.9380       165.1250        62.2190         0.6560         0.7670       0.497560         2.0100
       2442.00        11.9450       165.1250        65.4380         0.5770         0.7750       0.479490         2.0100
       2442.50        11.9060       162.8750        67.8120         0.5120         0.7810       0.477050         2.0140
       2443.00        11.8750       164.7500        64.1250         0.4760         0.7690       0.482910         2.0290
       2443.50        11.8750       163.7500        68.0620         0.4600         0.7510       0.500000         2.0350
       2444.00        11.8440       163.3750        66.4380         0.4620         0.7990       0.530270         2.0290
       2444.50        11.8360       163.1250        67.3750         0.4710         0.7810       0.512700         2.0230
       2445.00        11.8360       162.6250        66.9380         0.4840         0.6860       0.479490         2.0210
       2445.50        11.8440       163.2500        69.0620         0.4920         0.7590       0.447750         2.0410
       2446.00        11.8440       162.7500        70.6880         0.4990         0.7520       0.437010         2.0490
       2446.50        11.8590       162.0000        68.9380         0.5030         0.8010       0.465820         2.0570
       2447.00        11.8910       162.7500        67.3750         0.5070         0.8090       0.501460         2.0530
       2447.50        11.9380       163.3750        66.3750         0.5120         0.8250       0.514160         2.0390
       2448.00        11.9060       163.7500        68.5620         0.5160         0.8140       0.508300         2.0350
       2448.50        11.8750       163.2500        69.5000         0.5220         0.7620       0.482910         2.0250
       2449.00        11.8670       162.1250        66.1250         0.5280         0.7450       0.487790         2.0350
       2449.50        11.9690       161.3750        62.9380         0.5340         0.7350       0.465330         2.0370
       2450.00        12.0860       159.1250        64.5000         0.5360         0.7720       0.482910         2.0450
       2450.50        12.2580       159.0000        65.3750         0.5360         0.9080       0.467290         2.0490
       2451.00        12.2340       158.3750        65.0000         0.5350         0.8210       0.473140         2.0470
       2451.50        12.2030       157.7500        61.5000         0.5310         0.7550       0.452640         2.0590
       2452.00        12.0080       159.2500        65.5000         0.5300         0.7800       0.479000         2.0620
       2452.50        12.0000       159.1250        67.3120         0.5280         0.7330       0.491210         2.0430
       2453.00        12.0550       160.3750        70.5620         0.5260         0.7330       0.518550         2.0310
       2453.50        12.0470       158.6250        66.1250         0.5250         0.7060       0.497070         2.0200
       2454.00        12.1020       153.3750        65.3120         0.5210         0.7670       0.478520         2.0430
       2454.50        12.1880       152.1250        61.8750         0.5140         0.8160       0.458500         2.0620
       2455.00        12.2190       152.6250        65.3120         0.5070         0.8780       0.471680         2.0820
       2455.50        12.3120       153.5000        66.3750         0.5000         0.8080       0.501950         2.0780
       2456.00        12.3830       157.8750        68.1250         0.4930         0.7910       0.493650         2.0590
