~Version Information Block
VERS .                 2.00:  CWLS LOG ASCII STANDARD - VERSION 2.00
WRAP .                   NO:  One line per depth step
~Well Information Block
#MNEM.UNIT        Data Type   Information
#---------- ----------------  -----------
STRT .FT            1820.00:  START DEPTH
STOP .FT            4889.00:  STOP DEPTH
STEP .FT               0.50:  STEP
NULL .              -999.25:  NULL VALUE
COMP .                     :  COMPANY
WELL .                 UM-1:  WELL
FLD  .                     :  FIELD
LOC  .                     :  LOCATION
CTRY .                     :  COUNTRY
STAT .                     :  STATE
CNTY .                     :  COUNTY
SRVC .                     :  SERVICE COMPANY
DATE .                     :  DATE
API  .                     :  API NUMBER
UWI  .                     :  UNIQUE WELL ID
~Curve Information Block
#MNEM.UNIT         API CODE   Curve Description
#---------- ----------------  -----------------
DEPTH.FT                   :  DEPTH CURVE
CALI .IN                   :  
DT   .US/F                 :  
GR   .GAPI                 :  
ILD  .OHMM                 :  
MSFL .OHMM                 :  
NPHI_LS.V/V                  :  
RHOB .G/C3                 :  
~Parameter Information Block
#MNEM.UNIT            Value   Description
#---------- ----------------  -----------
PROJECT.     petro@kponwjlx001:  
SET  .                 WIRE:  
~Other Information Block
# 
~A       DEPTH           CALI             DT             GR            ILD           MSFL        NPHI_LS           RHOB 
# ...
       3461.50        12.4530       126.3750        76.6250         1.1280         1.3460       0.401860         2.2520
       3462.00        12.4610       132.0000        79.6250         1.0430         1.2630       0.428220         2.2440
       3462.50        12.4060       133.2500        77.3120         0.9770         1.1850       0.444340         2.2520
       3463.00        12.4220       132.8750        74.5000         0.9200         1.1560       0.455080         2.2480
       3463.50        12.4530       133.8750        71.5620         0.8810         1.1980       0.472170         2.2500
       3464.00        12.4610       132.1250        73.0620         0.8520         1.2220       0.475100         2.2560
       3464.50        12.4530       131.0000        74.5620         0.8310         1.2150       0.468260         2.2600
       3465.00        12.4530       130.3750        73.0620         0.8130         1.2430       0.444340         2.2680
       3465.50        12.3830       130.1250        74.0620         0.8010         1.2090       0.455570         2.2560
       3466.00        12.3360       131.1250        70.8750         0.7930         1.1850       0.437500         2.2400
       3466.50        12.3280       133.5000        71.6250         0.7890         1.1340       0.432130         2.2110
       3467.00        12.3440       134.6250        70.9380         0.7870         0.9430       0.408690         2.2070
       3467.50        12.4060       135.6250        73.8750         0.7820         1.1460       0.427250         2.2110
       3468.00        12.3910       134.2500        75.0000         0.7760         1.1590       0.430180         2.2360
       3468.50        12.3830       133.0000        76.3750         0.7700         1.2590       0.428710         2.2420
       3469.00        12.4140       132.6250        76.7500         0.7730         1.2600       0.427730         2.2360
       3469.50        12.4530       133.8750        78.5620         0.8000         1.2560       0.405270         2.2290
       3470.00        12.4840       134.1250        80.1250         0.8320         1.1610       0.409670         2.2320
       3470.50        12.4920       133.2500        76.3750         0.8690         1.2060       0.391600         2.2400
       3471.00        12.4690       133.2500        75.3120         0.9140         1.2890       0.416020         2.2460
       3471.50        12.4690       130.7500        72.3120         0.9500         1.2760       0.406740         2.2560
       3472.00        12.4140       126.5000        72.6250         0.9530         1.3980       0.408200         2.2700
       3472.50        12.4140       125.1250        69.6250         0.9500         1.8800       0.419430         2.2580
       3473.00        12.4530       125.0000        69.1880         0.9520         1.5660       0.427730         2.2500
       3473.50        12.3670       128.0000        71.3120         0.9570         1.1800       0.439450         2.2170
       3474.00        12.3830       133.8750        75.2500         0.9690         1.2330       0.448240         2.2110
       3474.50        12.4220       137.6250        77.2500         0.9800         1.1920       0.441890         2.2050
       3475.00        12.4140       138.8750        75.5620         0.9800         1.1210       0.431150         2.2320
       3475.50        12.4530       136.6250        74.6880         0.9800         1.0830       0.386720         2.2580
       3476.00        12.5080       131.6250        69.8750         0.9870         1.2950       0.376950         2.2560
       3476.50        12.5230       127.1250        68.6880         1.0030         1.8240       0.370120         2.2700
       3477.00        12.5310       122.6250        65.3120         1.0210         1.5230       0.378910         2.2640
       3477.50        12.5390       121.7500        66.5000         1.0510         1.5370       0.386720         2.2730
       3478.00        12.5940       124.2500        65.9380         1.0930         1.5220       0.394040         2.2680
       3478.50        12.6020       125.5000        67.8750         1.1210         1.5880       0.404790         2.2680
       3479.00        12.5780       126.0000        71.3750         1.1210         1.5100       0.420900         2.2620
       3479.50        12.5780       127.0000        74.4380         1.1140         1.5180       0.421880         2.2620
       3480.00        12.5390       127.5000        72.1250         1.1130         1.5090       0.426760         2.2620
       3480.50        12.5310       125.7500        68.0620         1.1040         1.4650       0.422850         2.2810
       3481.00        12.4220       123.8750        67.5620         1.0960         1.5760       0.401860         2.2830
       3481.50        12.4770       128.5000        67.0000         1.1140         1.7890       0.394530         2.2750
       3482.00        12.4220       131.5000        69.5000         1.1360         1.1950       0.367680         2.2480
       3482.50        12.5160       130.6250        69.5620         1.1350         1.2380       0.368650         2.2600
       3483.00        12.6090       129.8750        71.1250         1.1020         1.9970       0.354490         2.2750
       3483.50        12.5860       128.0000        72.4380         1.0490         1.9300       0.354980         2.2910
       3484.00        12.6170       125.8750        73.3120         1.0160         1.4220       0.387210         2.2810
       3484.50        12.5620       129.2500        75.1250         0.9940         1.2110       0.410640         2.2700
       3485.00        12.6090       133.1250        72.0000         0.9730         1.2720       0.453120         2.2600
       3485.50        12.5390       133.2500        71.5620         0.9330         1.2790       0.455570         2.2460
       3486.00        12.4610       133.7500        71.7500         0.8960         1.2050       0.450200         2.2420
       3486.50        12.4220       135.8750        72.0000         0.8670         1.1000       0.438960         2.2320
       3487.00        12.4140       137.3750        72.5620         0.8450         1.1400       0.418950         2.2340
       3487.50        12.4610       137.0000        70.0620         0.8280         1.1630       0.414060         2.2380
       3488.00        12.4450       135.6250        71.6250         0.8190         1.2000       0.398930         2.2520
       3488.50        12.4530       133.8750        72.3120         0.8100         1.2050       0.427730         2.2580
       3489.00        12.4450       133.0000        73.0620         0.8020         1.2270       0.446290         2.2560
       3489.50        12.4610       133.5000        75.1880         0.7930         1.2320       0.458500         2.2540
       3490.00        12.4450       135.0000        74.0000         0.7840         1.1730       0.448730         2.2540
       3490.50        12.4530       135.6250        76.7500         0.7750         1.1950       0.434570         2.2520
       3491.00        12.4610       136.6250        75.2500         0.7680         1.1320       0.420410         2.2420
       3491.50        12.5080       136.6250        76.3750         0.7630         1.1560       0.421390         2.2420
       3492.00        12.4690       137.2500        75.6250         0.7630         1.1810       0.419920         2.2440
       3492.50        12.4690       137.0000        74.3750         0.7710         1.1950       0.433110         2.2500
       3493.00        12.4610       137.5000        70.4380         0.7910         1.1250       0.435060         2.2300
       3493.50        12.5390       134.6250        67.3750         0.8180         1.1520       0.435060         2.2270
       3494.00        12.6090       133.5000        68.3750         0.8490         1.2930       0.441890         2.2270
       3494.50        12.5860       132.2500        68.0620         0.8810         1.3780       0.427730         2.2420
