~Version Information Block
VERS .                 2.00:  CWLS LOG ASCII STANDARD - VERSION 2.00
WRAP .                   NO:  One line per depth step
~Well Information Block
#MNEM.UNIT        Data Type   Information
#---------- ----------------  -----------
STRT .FT            1820.00:  START DEPTH
STOP .FT            4889.00:  STOP DEPTH
STEP .FT               0.50:  STEP
NULL .              -999.25:  NULL VALUE
COMP .                     :  COMPANY
WELL .                 UM-1:  WELL
FLD  .                     :  FIELD
LOC  .                     :  LOCATION
CTRY .                     :  COUNTRY
STAT .                     :  STATE
CNTY .                     :  COUNTY
SRVC .                     :  SERVICE COMPANY
DATE .                     :  DATE
API  .                     :  API NUMBER
UWI  .                     :  UNIQUE WELL ID
~Curve Information Block
#MNEM.UNIT         API CODE   Curve Description
#---------- ----------------  -----------------
DEPTH.FT                   :  DEPTH CURVE
CALI .IN                   :  
DT   .US/F                 :  
GR   .GAPI                 :  
ILD  .OHMM                 :  
MSFL .OHMM                 :  
NPHI_LS.V/V                  :  
RHOB .G/C3                 :  
~Parameter Information Block
#MNEM.UNIT            Value   Description
#---------- ----------------  -----------
PROJECT.     petro@kponwjlx001:  
SET  .                 WIRE:  
~Other Information Block
# 
~A       DEPTH           CALI             DT             GR            ILD           MSFL        NPHI_LS           RHOB 
# ...
       4868.50        13.0940       119.3750        38.3750         0.6470         1.0160       0.341800         1.9230
       4869.00        13.0940       119.3750        38.3750         0.7000         1.0160       0.341800         1.9270
       4869.50        13.0940       119.3750        38.3750         0.7470         1.0160       0.347170         1.9990
       4870.00        13.0940       119.3750        38.3750         0.7710         1.0160       0.348630         2.1090
       4870.50        13.0940       119.3750        38.3750         0.8150         1.0160       0.349120         2.2170
       4871.00        13.0940       119.3750        38.3750         0.9580         1.0160       0.349120         2.2320
       4871.50        13.0940       119.3750        38.3750         1.0450         1.0160       0.349610         2.2270
       4872.00        13.0940       119.3750        38.3750         1.0450         1.0160       0.350100         2.2010
       4872.50        13.0940       119.3750        38.3750         1.0430         1.0160       0.350100         2.1760
       4873.00        13.0940       119.3750        38.3750         1.0500         1.0160       0.350590         2.0960
       4873.50        13.0940       119.3750        38.3750         1.0390         1.0160       0.351070         2.0900
       4874.00        13.0940       119.3750        38.3750         1.0550         1.0160       0.352050         2.0680
       4874.50        13.0940       119.3750        38.3750         1.0520         1.0160       0.353520         2.0920
       4875.00        13.0940       119.3750        38.3750         1.0530         1.0160       0.355960         2.0660
       4875.50        13.0940       119.3750        38.3750         1.0510         1.0160       0.357420         2.0640
       4876.00        13.0940       119.3750        38.3750         1.0390         1.0160       0.357910         2.0390
       4876.50        13.0940       119.3750        38.3750         1.0400         1.0160       0.361820         2.0160
       4877.00        13.0940       119.3750        38.3750         1.0370         1.0160       0.369140         1.9840
       4877.50        13.0940       119.3750        38.3750         0.9690         1.0160       0.365720         1.9660
       4878.00        13.0940       119.3750        38.3750         0.9650         1.0160       0.366700         1.9350
       4878.50        13.0940       119.3750        38.3750         0.9650         1.0160       0.370120         1.9070
       4879.00        13.0940       119.3750        38.3750         0.9650         1.0160       0.373540         1.8780
       4879.50        13.0940       119.3750        38.3750         0.9650         1.0160       0.379880         1.8630
       4880.00        13.0940       119.3750        38.3750         0.9660         1.0160       0.381840         1.8580
       4880.50        13.0940       119.3750        38.3750         0.9650         1.0160       0.382320         1.8580
       4881.00        13.0940       119.3750        38.3750         0.9650         1.0160       0.382320         1.8620
       4881.50        13.0940       119.3750        38.3750         0.9650         1.0160       0.382810         1.8640
       4882.00        13.0940       119.3750        38.3750         0.9650         1.0160       0.382810         1.8630
       4882.50        13.0940       119.3750        38.3750         0.9650         1.0160       0.383300         1.8620
       4883.00        13.0940       119.3750        38.3750         0.9650         1.0160       0.383300         1.8680
       4883.50        13.0940       119.3750        38.3750         0.9650         1.0160       0.383790         1.8700
       4884.00      -999.2500      -999.2500      -999.2500      -999.2500      -999.2500       0.384280         1.8710
       4884.50      -999.2500      -999.2500      -999.2500      -999.2500      -999.2500       0.427730         1.8610
       4885.00      -999.2500      -999.2500      -999.2500      -999.2500      -999.2500       0.427730         1.8590
       4885.50      -999.2500      -999.2500      -999.2500      -999.2500      -999.2500       0.427730         1.8570
       4886.00      -999.2500      -999.2500      -999.2500      -999.2500      -999.2500       0.427730         1.8570
       4886.50      -999.2500      -999.2500      -999.2500      -999.2500      -999.2500       0.427730         1.8570
       4887.00      -999.2500      -999.2500      -999.2500      -999.2500      -999.2500       0.427730         1.8570
       4887.50      -999.2500      -999.2500      -999.2500      -999.2500      -999.2500       0.427730         1.8570
       4888.00      -999.2500      -999.2500      -999.2500      -999.2500      -999.2500       0.427730         1.8570
       4888.50      -999.2500      -999.2500      -999.2500      -999.2500      -999.2500       0.427730         1.8570
       4889.00      -999.2500      -999.2500      -999.2500      -999.2500      -999.2500       0.427730         1.8570
