~Version Information Block
VERS .                 2.00:  CWLS LOG ASCII STANDARD - VERSION 2.00
WRAP .                   NO:  One line per depth step
~Well Information Block
#MNEM.UNIT        Data Type   Information
#---------- ----------------  -----------
STRT .FT            1820.00:  START DEPTH
STOP .FT            4889.00:  STOP DEPTH
STEP .FT               0.50:  STEP
NULL .              -999.25:  NULL VALUE
COMP .                     :  COMPANY
WELL .                 UM-1:  WELL
FLD  .                     :  FIELD
LOC  .                     :  LOCATION
CTRY .                     :  COUNTRY
STAT .                     :  STATE
CNTY .                     :  COUNTY
SRVC .                     :  SERVICE COMPANY
DATE .                     :  DATE
API  .                     :  API NUMBER
UWI  .                     :  UNIQUE WELL ID
~Curve Information Block
#MNEM.UNIT         API CODE   Curve Description
#---------- ----------------  -----------------
DEPTH.FT                   :  DEPTH CURVE
CALI .IN                   :  
DT   .US/F                 :  
GR   .GAPI                 :  
ILD  .OHMM                 :  
MSFL .OHMM                 :  
NPHI_LS.V/V                  :  
RHOB .G/C3                 :  
~Parameter Information Block
#MNEM.UNIT            Value   Description
#---------- ----------------  -----------
PROJECT.     petro@kponwjlx001:  
SET  .                 WIRE:  
~Other Information Block
# 
~A       DEPTH           CALI             DT             GR            ILD           MSFL        NPHI_LS           RHOB 
# ...
       4064.50        12.4610       129.2500        71.8750         0.4980         0.9280       0.407710         2.2990
       4065.00        12.5000       125.9380        73.9380         0.5460         0.8470       0.386720         2.2850
       4065.50        12.5550       121.0620        70.9380         0.6240         0.8670       0.399900         2.2730
       4066.00        12.4610       113.3750        61.7500         0.7150         0.9530       0.410640         2.2850
       4066.50        12.4840        98.5000        53.2500         0.8650         1.2930       0.393550         2.3280
       4067.00        12.4840        87.8750        45.0310         1.0850         4.0270       0.311520         2.4080
       4067.50        12.4610        79.5000        37.6880         1.4070        11.1220       0.229490         2.4920
       4068.00        12.4610        74.8750        33.3750         1.7640         9.8980       0.188960         2.5410
       4068.50        12.4220        76.9380        33.0310         2.3460         8.1470       0.176760         2.5430
       4069.00        12.2660        80.8120        34.8750         3.2420        11.1800       0.177250         2.5160
       4069.50        12.0780        81.5000        33.8120         3.5270         9.0850       0.206540         2.4630
       4070.00        12.1330        85.5000        32.2500         3.2580         2.6730       0.235840         2.4240
       4070.50        12.2730        89.8750        31.6410         2.9040         3.2510       0.239260         2.4000
       4071.00        12.3050        92.8750        32.3120         2.7050        21.3460       0.253910         2.3670
       4071.50        12.2890        93.2500        32.6560         2.4790         2.0170       0.281740         2.3300
       4072.00        12.2890        88.7500        32.9060         2.3480         2.0220       0.305660         2.2910
       4072.50        12.3280        83.8750        31.4530         2.2230         2.6150       0.253420         2.3420
       4073.00        12.5000        83.0620        33.6880         1.8830        13.4790       0.189940         2.4180
       4073.50        12.3830        90.0620        39.5310         1.5760        14.5950       0.174800         2.4590
       4074.00        12.4450       102.5620        48.1250         1.4180         1.4550       0.227050         2.3850
       4074.50        12.4060       114.3750        55.0620         1.2820         1.3580       0.299320         2.3220
       4075.00        12.3910       121.9380        56.9690         1.1650         1.3200       0.381350         2.3050
       4075.50        12.3670       122.6250        56.7190         1.0510         1.3390       0.410640         2.3160
       4076.00        12.3200       121.2500        55.5310         0.9040         1.2760       0.411130         2.3090
       4076.50        12.3200       118.5620        53.9690         0.8020         1.5310       0.372560         2.2950
       4077.00        12.3120       118.2500        55.2500         0.7470         1.4660       0.369630         2.2790
       4077.50        12.3200       116.9380        55.0620         0.7180         1.5500       0.345210         2.2810
       4078.00        12.3200       116.9380        55.4380         0.7200         1.4890       0.334960         2.2790
       4078.50        12.3200       117.1880        54.1250         0.7280         1.4660       0.301760         2.2790
       4079.00        12.3200       117.6880        55.6250         0.7330         1.4600       0.321290         2.2790
       4079.50        12.3200       117.4380        55.6560         0.7340         1.3690       0.332520         2.2850
       4080.00        12.3830       118.8120        56.6250         0.7250         1.2930       0.336430         2.2930
       4080.50        12.3670       116.5000        55.4380         0.7120         1.3170       0.344240         2.2830
       4081.00        12.3360       116.6250        57.4380         0.7120         1.3810       0.338870         2.2710
       4081.50        12.3670       116.3120        58.4690         0.7300         1.3730       0.343750         2.2640
       4082.00        12.4060       117.6880        57.5940         0.7810         1.3730       0.340820         2.2710
       4082.50        12.4450       111.3120        53.9060         0.8980         1.3100       0.374510         2.2830
       4083.00        12.4610        99.7500        45.0310         1.0820         1.2410       0.370610         2.3200
       4083.50        12.5080        87.7500        36.5620         1.2790         2.0170       0.296390         2.3960
       4084.00        12.5230        75.6250        30.5160         1.4950        20.3870       0.192870         2.4750
       4084.50        12.4530        68.4380        30.8750         1.7550        18.6340       0.146970         2.4980
       4085.00        12.4220        75.6250        30.9060         1.9940         4.9240       0.143070         2.4880
       4085.50        12.4610        80.9380        35.0940         2.2540         5.2480       0.166020         2.4650
       4086.00        12.4840        88.1880        42.6560         2.5000        14.5140       0.212890         2.4590
       4086.50        12.5390        97.1250        50.2500         2.3550         1.5370       0.288570         2.4180
       4087.00        12.6090        99.5000        53.6250         2.0590         1.8090       0.317870         2.4040
       4087.50        12.5780       103.1250        53.4380         1.7550         2.3670       0.297360         2.4000
       4088.00        12.5780       105.5000        54.1880         1.3980         2.1040       0.288570         2.3850
       4088.50        12.5390       109.0000        54.2190         1.1810         1.9050       0.304200         2.3590
       4089.00        12.5310       112.1250        57.0620         1.0860         1.6540       0.322750         2.3300
       4089.50        12.5000       113.5620        59.5620         1.0160         1.5830       0.333010         2.3180
       4090.00        12.5160       114.1250        60.3750         0.9590         1.5890       0.349120         2.3110
       4090.50        12.5310       113.5620        58.2810         0.9110         1.5550       0.346680         2.3070
       4091.00        12.5310       113.0620        57.4060         0.8780         1.5640       0.342770         2.3030
       4091.50        12.5310       113.4380        59.0620         0.8390         1.5940       0.332030         2.3050
       4092.00        12.5230       114.0620        60.0000         0.8100         1.5650       0.333980         2.3090
       4092.50        12.5310       113.8750        59.7500         0.8010         1.5820       0.333980         2.3120
       4093.00        12.5470       114.6880        57.8120         0.8000         1.4500       0.347170         2.3140
       4093.50        12.5470       115.3750        57.0000         0.8010         1.4070       0.360840         2.3200
       4094.00        12.5620       114.7500        55.9690         0.7950         1.5090       0.359380         2.3160
       4094.50        12.5780       115.5000        58.3120         0.7960         1.5340       0.345210         2.3160
       4095.00        12.5780       115.9380        57.4060         0.7960         1.4300       0.344730         2.3180
       4095.50        12.5780       115.5620        58.9060         0.7930         1.4250       0.337400         2.3200
       4096.00        12.5780       115.8120        56.8750         0.7880         1.5370       0.338380         2.3280
       4096.50        12.5780       115.8750        57.0000         0.7870         1.4550       0.331050         2.3260
       4097.00        12.5780       116.1880        57.2500         0.7860         1.4120       0.354000         2.3280
       4097.50        12.5780       117.3120        57.2810         0.7860         1.3030       0.351070         2.3220
