~Version Information Block
VERS .                 2.00:  CWLS LOG ASCII STANDARD - VERSION 2.00
WRAP .                   NO:  One line per depth step
~Well Information Block
#MNEM.UNIT        Data Type   Information
#---------- ----------------  -----------
STRT .FT            1820.00:  START DEPTH
STOP .FT            4889.00:  STOP DEPTH
STEP .FT               0.50:  STEP
NULL .              -999.25:  NULL VALUE
COMP .                     :  COMPANY
WELL .                 UM-1:  WELL
FLD  .                     :  FIELD
LOC  .                     :  LOCATION
CTRY .                     :  COUNTRY
STAT .                     :  STATE
CNTY .                     :  COUNTY
SRVC .                     :  SERVICE COMPANY
DATE .                     :  DATE
API  .                     :  API NUMBER
UWI  .                     :  UNIQUE WELL ID
~Curve Information Block
#MNEM.UNIT         API CODE   Curve Description
#---------- ----------------  -----------------
DEPTH.FT                   :  DEPTH CURVE
CALI .IN                   :  
DT   .US/F                 :  
GR   .GAPI                 :  
ILD  .OHMM                 :  
MSFL .OHMM                 :  
NPHI_LS.V/V                  :  
RHOB .G/C3                 :  
~Parameter Information Block
#MNEM.UNIT            Value   Description
#---------- ----------------  -----------
PROJECT.     petro@kponwjlx001:  
SET  .                 WIRE:  
~Other Information Block
# 
~A       DEPTH           CALI             DT             GR            ILD           MSFL        NPHI_LS           RHOB 
# ...
       4466.50        12.5390       116.1250        65.3750         0.6310         1.1290       0.352050         2.4220
       4467.00        12.5310       116.7500        65.1880         0.6390         1.0550       0.350590         2.4120
       4467.50        12.6170       116.8750        65.1250         0.6500         0.9850       0.360350         2.4140
       4468.00        12.5390       116.3750        65.3750         0.6570         0.9770       0.364260         2.4140
       4468.50        12.5160       115.5000        64.0620         0.6600         1.1430       0.365230         2.4160
       4469.00        12.5000       114.3750        66.8120         0.6610         1.1610       0.363770         2.4140
       4469.50        12.5080       114.5000        67.4380         0.6570         1.2360       0.354000         2.4200
       4470.00        12.4840       114.1250        66.3120         0.6560         1.2200       0.344240         2.4240
       4470.50        12.4450       114.6250        66.3120         0.6600         1.1640       0.330570         2.4160
       4471.00        12.5000       115.3750        68.0620         0.6650         1.1470       0.327150         2.4040
       4471.50        12.5000       115.7500        67.7500         0.6670         1.0660       0.332030         2.4140
       4472.00        12.4770       115.2500        67.7500         0.6670         1.0380       0.345210         2.4120
       4472.50        12.4840       114.7500        65.3750         0.6590         1.2330       0.357420         2.4180
       4473.00        12.4610       114.6250        68.6250         0.6480         1.1620       0.369630         2.4040
       4473.50        12.3980       114.3750        67.6250         0.6380         1.2150       0.364750         2.4340
       4474.00        12.3050       114.3750        69.0620         0.6350         1.1200       0.368650         2.4220
       4474.50        12.2660       114.8120        67.7500         0.6350         1.1000       0.358400         2.4120
       4475.00        12.1950       114.8750        71.3750         0.6400         1.0450       0.361820         2.3830
       4475.50        12.2500       114.0000        71.5000         0.6570         1.0340       0.341800         2.3770
       4476.00        12.2890       113.5620        70.6250         0.6830         1.0870       0.343260         2.3930
       4476.50        12.4690       112.0620        66.7500         0.7230         1.0410       0.339360         2.4040
       4477.00        12.3050       110.2500        67.6250         0.7810         1.1700       0.337400         2.4140
       4477.50        12.2890       107.5000        67.8120         0.8540         1.2200       0.327640         2.4100
       4478.00        12.3050       104.3750        63.7190         0.9650         1.8350       0.305180         2.4200
       4478.50        12.3120       102.2500        60.4690         1.0780         2.3670       0.284180         2.4360
       4479.00        12.3670       100.6880        59.0310         1.1660         2.4110       0.271480         2.4490
       4479.50        12.3980       101.2500        60.1250         1.3070         2.3660       0.262210         2.4430
       4480.00        12.3980       101.8120        60.1250         1.4290         2.3770       0.259280         2.4380
       4480.50        12.4300       101.6250        63.1880         1.4840         2.4310       0.264160         2.4410
       4481.00        12.4530       101.8750        63.9060         1.4950         2.2210       0.276370         2.4450
       4481.50        12.4300       102.1250        61.4380         1.4750         2.3930       0.292480         2.4550
       4482.00        12.4060       102.3120        59.3440         1.4320         2.3980       0.276860         2.4510
       4482.50        12.3980       102.9380        59.0620         1.3720         2.2510       0.275390         2.4530
       4483.00        12.3280       103.3750        60.7500         1.3240         2.0430       0.273440         2.4510
       4483.50        12.3280       103.7500        61.0000         1.2850         1.9560       0.287110         2.4490
       4484.00        12.3280       103.9380        61.4690         1.2500         2.0370       0.292480         2.4550
       4484.50        12.2660       104.5000        60.9690         1.2140         2.0420       0.298340         2.4530
       4485.00        12.2810       104.5000        62.8750         1.1780         1.9790       0.303220         2.4630
       4485.50        12.2810       104.6880        68.0000         1.1470         1.8410       0.306640         2.4590
       4486.00        12.2580       105.0620        69.8750         1.1180         2.0180       0.307620         2.4650
       4486.50        12.2730       105.3750        66.7500         1.0880         1.7740       0.316410         2.4610
       4487.00        12.2810       105.3750        62.0310         1.0570         1.8510       0.314450         2.4670
       4487.50        12.3050       106.3120        62.4380         1.0280         1.7910       0.326660         2.4750
       4488.00        12.2970       106.6880        65.5000         1.0080         1.6070       0.319820         2.4820
       4488.50        12.3050       107.0000        67.5000         0.9910         1.5940       0.315920         2.4820
       4489.00        12.3120       107.4380        67.7500         0.9780         1.5610       0.299800         2.4610
       4489.50        12.3050       107.7500        67.1880         0.9740         1.5400       0.313960         2.4530
       4490.00        12.4220       107.4380        67.2500         0.9830         1.5400       0.332030         2.4510
       4490.50        12.3050       106.4380        68.1250         1.0030         1.4780       0.330570         2.4690
       4491.00        12.3050       105.1250        67.3750         1.0270         1.5430       0.316410         2.4770
       4491.50        12.3120       104.0000        64.1250         1.0550         1.6540       0.304200         2.4820
       4492.00        12.2810       103.0620        65.1250         1.0900         1.7950       0.300780         2.4770
       4492.50        12.2270       102.8750        65.1880         1.1350         1.9190       0.294430         2.4860
       4493.00        12.1090       102.5620        68.6880         1.1770         1.9080       0.289060         2.4920
       4493.50        12.0700       102.9380        65.5620         1.2250         2.0510       0.300290         2.4960
       4494.00        12.0390       102.6250        64.6250         1.2630         2.0160       0.307620         2.4840
       4494.50        11.9840       102.5000        60.2500         1.2690         1.9840       0.311040         2.4820
       4495.00        12.0230       102.2500        63.0620         1.2560         2.1590       0.297850         2.4820
       4495.50        12.0310       102.8750        66.6880         1.2410         1.8540       0.287600         2.4770
       4496.00        12.0470       103.3120        69.8120         1.2360         1.7770       0.299800         2.4690
       4496.50        12.0940       103.5000        68.1880         1.2810         1.5800       0.312990         2.4450
       4497.00        12.1090       101.9380        63.8120         1.3920         1.6440       0.333980         2.4570
       4497.50        12.1090        96.5620        61.2500         1.5440         1.5500       0.323240         2.4490
       4498.00        12.0390        86.8750        53.1250         1.7540         2.4150       0.298830         2.4840
       4498.50        12.0940        78.5000        46.0310         1.9830         4.4480       0.250980         2.5180
       4499.00        12.1720        70.8750        40.5000         2.2210         9.7530       0.198730         2.5640
       4499.50        12.3120        71.4380        39.6880         2.4610        10.2760       0.163090         2.5590
