~Version Information Block
VERS .                 2.00:  CWLS LOG ASCII STANDARD - VERSION 2.00
WRAP .                   NO:  One line per depth step
~Well Information Block
#MNEM.UNIT        Data Type   Information
#---------- ----------------  -----------
STRT .FT            1820.00:  START DEPTH
STOP .FT            4889.00:  STOP DEPTH
STEP .FT               0.50:  STEP
NULL .              -999.25:  NULL VALUE
COMP .                     :  COMPANY
WELL .                 UM-1:  WELL
FLD  .                     :  FIELD
LOC  .                     :  LOCATION
CTRY .                     :  COUNTRY
STAT .                     :  STATE
CNTY .                     :  COUNTY
SRVC .                     :  SERVICE COMPANY
DATE .                     :  DATE
API  .                     :  API NUMBER
UWI  .                     :  UNIQUE WELL ID
~Curve Information Block
#MNEM.UNIT         API CODE   Curve Description
#---------- ----------------  -----------------
DEPTH.FT                   :  DEPTH CURVE
CALI .IN                   :  
DT   .US/F                 :  
GR   .GAPI                 :  
ILD  .OHMM                 :  
MSFL .OHMM                 :  
NPHI_LS.V/V                  :  
RHOB .G/C3                 :  
~Parameter Information Block
#MNEM.UNIT            Value   Description
#---------- ----------------  -----------
PROJECT.     petro@kponwjlx001:  
SET  .                 WIRE:  
~Other Information Block
# 
~A       DEPTH           CALI             DT             GR            ILD           MSFL        NPHI_LS           RHOB 
# ...
       3863.50        12.5390       129.5000        71.0000         0.7650         0.9180       0.437010         2.2290
       3864.00        13.1950       130.2500        67.8750         0.7320         0.9720       0.414550         2.2320
       3864.50        12.9220       131.3750        70.3750         0.7040         0.7410       0.421390         2.2300
       3865.00        13.0310       132.6250        69.8750         0.6790         0.7010       0.439450         2.2290
       3865.50        12.9300       132.1250        73.1880         0.6570         0.7580       0.424800         2.2250
       3866.00        12.7500       133.3750        72.3120         0.6320         0.7340       0.401860         2.2230
       3866.50        12.7190       132.2500        70.7500         0.6140         0.8290       0.395020         2.2190
       3867.00        12.6560       131.8750        70.8750         0.6040         0.8210       0.416020         2.2320
       3867.50        12.4450       130.6250        69.0000         0.5990         0.8410       0.423340         2.2360
       3868.00        12.2890       130.2500        72.6250         0.5990         0.8350       0.411620         2.2520
       3868.50        12.2580       131.8750        69.0620         0.6050         0.7720       0.399410         2.2480
       3869.00        12.3440       132.0000        71.1250         0.6090         0.6730       0.404300         2.2320
       3869.50        12.1880       131.6250        70.0000         0.6100         0.7770       0.416500         2.2130
       3870.00        12.2580       133.1250        73.4380         0.6110         0.8280       0.420410         2.2110
       3870.50        12.3520       133.1250        69.8120         0.6090         0.8380       0.421880         2.2090
       3871.00        12.5780       131.8750        67.7500         0.6020         0.8700       0.405760         2.2250
       3871.50        12.5310       132.5000        68.6250         0.5970         0.8280       0.396480         2.2190
       3872.00        12.6020       132.8750        71.5620         0.5910         0.8650       0.379880         2.2170
       3872.50        12.6640       132.2500        71.6250         0.5880         0.7010       0.390140         2.2230
       3873.00        12.3200       132.3750        69.5620         0.5840         0.6820       0.400390         2.2320
       3873.50        12.7340       131.5000        69.1250         0.5820         0.8240       0.411620         2.2400
       3874.00        12.9380       131.6250        68.6250         0.5770         0.8560       0.421390         2.2360
       3874.50        13.1640       131.5000        68.1250         0.5710         0.8390       0.431150         2.2270
       3875.00        13.1170       131.8750        67.8120         0.5650         0.8530       0.439940         2.2520
       3875.50        12.9380       131.5000        68.6250         0.5600         0.8720       0.446290         2.2580
       3876.00        13.0620       131.5000        68.3120         0.5540         0.8590       0.445310         2.2540
       3876.50        12.8980       131.5000        71.0000         0.5500         0.8300       0.441410         2.2340
       3877.00        12.6250       131.3750        70.8750         0.5510         0.8630       0.439940         2.2320
       3877.50        12.7420       131.8750        72.6250         0.5600         0.8450       0.449220         2.2440
       3878.00        12.7420       132.2500        70.5620         0.5790         0.8600       0.448240         2.2460
       3878.50        12.6170       131.8750        69.3120         0.6130         0.8780       0.437500         2.2480
       3879.00        12.5390       131.2500        66.3120         0.6540         0.8770       0.413090         2.2520
       3879.50        12.2270       129.0000        60.7810         0.7050         0.9540       0.395510         2.2680
       3880.00        12.3050       122.1880        61.0940         0.7560         1.1880       0.376950         2.2950
       3880.50        12.3440       118.4380        60.1880         0.8140         1.3010       0.365720         2.3140
       3881.00        12.3830       115.0000        63.5940         0.9050         1.6160       0.374020         2.3050
       3881.50        12.5940       118.1880        60.1880         1.0880         1.2490       0.395020         2.2850
       3882.00        12.6950       113.6250        56.8120         1.3210         1.1220       0.408200         2.3030
       3882.50        12.2660       108.5000        47.0000         1.6850         1.4250       0.381350         2.3400
       3883.00        12.2890        97.0620        40.5620         1.8990         4.2980       0.321290         2.4220
       3883.50        12.4060        84.7500        38.5000         2.0020         5.7190       0.252930         2.4770
       3884.00        12.4770        77.6250        42.7810         2.0060         7.6740       0.213380         2.5080
       3884.50        12.3120        77.6250        49.7500         1.9510         5.5030       0.215820         2.4920
       3885.00        12.2580        81.5620        56.2810         1.7370         1.9470       0.240230         2.4430
       3885.50        12.3830        96.5000        62.0000         1.4600         2.2250       0.302250         2.3630
       3886.00        12.3440       111.1250        67.5000         1.2010         0.9880       0.354980         2.2620
       3886.50        12.6250       122.8750        69.3750         0.9760         0.6700       0.406250         2.2130
       3887.00        12.7730       130.2500        72.3750         0.8070         0.7140       0.421880         2.2050
       3887.50        12.6720       131.6250        75.0620         0.6700         0.7800       0.440920         2.2210
       3888.00        12.5160       130.0000        75.8750         0.5720         0.8220       0.420900         2.2320
       3888.50        12.3830       128.0000        75.0000         0.5220         0.8050       0.428710         2.2380
       3889.00        12.1800       130.2500        71.5000         0.5000         0.8120       0.415530         2.2400
       3889.50        12.1800       129.1250        72.8120         0.4910         0.8030       0.417970         2.2420
       3890.00        12.1880       129.6250        72.0000         0.4880         0.7670       0.404300         2.2420
       3890.50        12.2500       130.3750        71.1880         0.4920         0.7560       0.387700         2.2440
       3891.00        12.2970       132.0000        69.6880         0.4960         0.7220       0.413570         2.2400
       3891.50        12.2660       132.0000        73.1880         0.5050         0.7500       0.419920         2.2400
       3892.00        12.2270       132.3750        73.3750         0.5260         0.7650       0.436520         2.2420
       3892.50        12.2270       129.2500        68.9380         0.5530         0.8060       0.418950         2.2540
       3893.00        12.2580       129.5000        63.0940         0.5850         0.8670       0.410640         2.2680
       3893.50        12.3050       125.7500        62.8120         0.6230         1.1110       0.397460         2.2730
       3894.00        12.4530       124.8750        67.2500         0.6850         1.0090       0.400390         2.2680
       3894.50        12.3440       125.2500        70.0000         0.7460         1.0270       0.389650         2.2620
       3895.00        12.4220       125.6250        66.3120         0.8050         1.0420       0.384280         2.2660
       3895.50        12.4770       119.6250        62.8750         0.8500         1.1420       0.354980         2.2930
       3896.00        12.4840       114.7500        61.0310         0.8510         1.7060       0.351560         2.3220
       3896.50        12.5160       114.5000        66.6250         0.8400         1.5060       0.353030         2.3280
