~Version Information Block
VERS .                 2.00:  CWLS LOG ASCII STANDARD - VERSION 2.00
WRAP .                   NO:  One line per depth step
~Well Information Block
#MNEM.UNIT        Data Type   Information
#---------- ----------------  -----------
STRT .FT            1820.00:  START DEPTH
STOP .FT            4889.00:  STOP DEPTH
STEP .FT               0.50:  STEP
NULL .              -999.25:  NULL VALUE
COMP .                     :  COMPANY
WELL .                 UM-1:  WELL
FLD  .                     :  FIELD
LOC  .                     :  LOCATION
CTRY .                     :  COUNTRY
STAT .                     :  STATE
CNTY .                     :  COUNTY
SRVC .                     :  SERVICE COMPANY
DATE .                     :  DATE
API  .                     :  API NUMBER
UWI  .                     :  UNIQUE WELL ID
~Curve Information Block
#MNEM.UNIT         API CODE   Curve Description
#---------- ----------------  -----------------
DEPTH.FT                   :  DEPTH CURVE
CALI .IN                   :  
DT   .US/F                 :  
GR   .GAPI                 :  
ILD  .OHMM                 :  
MSFL .OHMM                 :  
NPHI_LS.V/V                  :  
RHOB .G/C3                 :  
~Parameter Information Block
#MNEM.UNIT            Value   Description
#---------- ----------------  -----------
PROJECT.     petro@kponwjlx001:  
SET  .                 WIRE:  
~Other Information Block
# 
~A       DEPTH           CALI             DT             GR            ILD           MSFL        NPHI_LS           RHOB 
# ...
       4667.50        12.0080       103.3750        57.0310         1.6010         1.3250       0.330080         2.2420
       4668.00        12.1720       104.6250        65.9380         1.3980         0.9670       0.327150         2.2620
       4668.50        12.1330       106.3750        64.9380         1.2500         0.9860       0.320800         2.2700
       4669.00        12.2580       105.6880        63.6250         1.2040         0.9780       0.317870         2.2970
       4669.50        12.1640       104.7500        59.6880         1.1770         1.0020       0.343260         2.3300
       4670.00        12.2730       104.0620        53.7190         1.1600         1.5930       0.369140         2.3690
       4670.50        12.2730       104.0620        45.8440         1.1750         1.9730       0.375000         2.3690
       4671.00        12.2730       103.1880        41.3750         1.2050         1.8640       0.364260         2.3260
       4671.50        12.2730       103.6880        38.9060         1.2710         1.5050       0.357910         2.2700
       4672.00        12.3050       101.8120        41.3120         1.3280         1.5270       0.354980         2.2420
       4672.50        12.3200       101.2500        41.1560         1.3780         2.0990       0.345210         2.2520
       4673.00        12.2730       101.1250        41.0310         1.3910         1.7850       0.349610         2.2700
       4673.50        12.2030       101.0000        40.7190         1.4090         1.5770       0.331050         2.3010
       4674.00        12.2030       101.3750        40.5620         1.5230         1.6090       0.320800         2.2990
       4674.50        12.1880       102.1250        41.2500         1.6680         1.5920       0.310060         2.3030
       4675.00        12.2500        96.9380        39.0000         1.8190         1.8450       0.305660         2.3300
       4675.50        12.2420        88.5000        35.7500         1.9920         6.9430       0.275390         2.3730
       4676.00        12.2500        80.3750        34.1560         2.1720        20.3440       0.239260         2.4610
       4676.50        12.1800        71.0620        33.8750         2.2810        38.3020       0.217290         2.5100
       4677.00        12.0860        67.0620        37.6250         2.3500        22.1200       0.218750         2.5610
       4677.50        12.0620        68.8120        40.0000         2.3240        14.9350       0.227050         2.5410
       4678.00        11.9530        75.6250        44.1250         2.2230         7.7710       0.254390         2.4860
       4678.50        11.8520        85.5620        43.3120         2.0840         2.0270       0.286620         2.4080
       4679.00        11.9610        94.5620        43.3120         1.8790         1.4110       0.306640         2.3400
       4679.50        12.0700        99.6250        41.4380         1.7020         1.4300       0.315920         2.2950
       4680.00        12.0940       102.3120        42.3750         1.5890         1.4380       0.300290         2.2830
       4680.50        12.1950       100.6250        41.3440         1.4980         1.5950       0.287110         2.2870
       4681.00        12.1720        97.0620        42.7500         1.3820         1.4910       0.283690         2.3090
       4681.50        12.0620        97.4380        40.2500         1.3410         3.3600       0.289550         2.3340
       4682.00        12.0700        98.9380        41.9060         1.2960         2.2220       0.304200         2.3360
       4682.50        11.8910       102.7500        40.6880         1.2840         1.2340       0.319340         2.2930
       4683.00        11.8980       105.9380        43.8120         1.2770         1.1770       0.323240         2.2520
       4683.50        11.9060       105.5000        40.8440         1.2540         1.1330       0.336430         2.2360
       4684.00        11.8980       105.8750        41.3750         1.1990         1.1630       0.327150         2.2420
       4684.50        11.8980       104.7500        40.6880         1.1450         1.2160       0.338380         2.2460
       4685.00        11.8980       105.0000        42.4380         1.1040         1.2210       0.354490         2.2560
       4685.50        11.8980       105.1250        41.8440         1.0880         1.2470       0.359380         2.2600
       4686.00        11.8910       104.8120        40.7500         1.0800         1.2870       0.357420         2.2660
       4686.50        11.8980       105.6250        40.1560         1.0630         1.2300       0.337890         2.2560
       4687.00        11.8910       105.7500        38.8440         1.0650         1.2320       0.335940         2.2540
       4687.50        11.8910       105.9380        38.7810         1.0560         1.1780       0.338870         2.2380
       4688.00        11.8910       106.0000        40.0940         1.0430         1.0870       0.337890         2.2290
       4688.50        11.8910       105.6250        41.6560         1.0250         1.0970       0.354000         2.2190
       4689.00        11.8980       105.2500        41.8120         1.0000         1.0760       0.351560         2.2170
       4689.50        11.9060       105.3750        42.2810         1.0060         1.0930       0.358890         2.2250
       4690.00        11.8910       105.4380        42.1250         1.0070         1.1020       0.344730         2.2270
       4690.50        11.8980       106.3120        43.2500         1.0210         1.1140       0.337400         2.2290
       4691.00        11.8980       106.5000        42.8440         1.0290         1.1080       0.342290         2.2230
       4691.50        11.8910       106.0620        43.8750         1.0340         1.1390       0.339840         2.2250
       4692.00        11.8980       106.0000        44.0620         1.0470         1.1540       0.348630         2.2250
       4692.50        11.8590       105.5620        44.2500         1.0570         1.1320       0.352540         2.2290
       4693.00        11.8360       105.2500        45.4380         1.0610         1.1970       0.383300         2.2210
       4693.50        11.8360       105.8750        45.9060         1.0600         1.1340       0.386720         2.2230
       4694.00        11.8120       106.0620        44.6250         1.0440         1.2490       0.377930         2.2250
       4694.50        11.8120       106.7500        44.0940         1.0250         1.1390       0.360350         2.2270
       4695.00        11.8120       106.9380        42.1560         1.0020         1.0740       0.365720         2.2210
       4695.50        11.8050       107.1880        42.4690         0.9730         1.0900       0.377440         2.2050
       4696.00        11.7970       107.3120        41.4690         0.9720         1.0070       0.369630         2.1990
       4696.50        11.7970       107.5620        41.3750         0.9660         1.0070       0.369630         2.1970
       4697.00        11.7970       107.8120        41.9690         0.9740         0.9850       0.365230         2.1950
       4697.50        11.7970       107.3120        42.0310         0.9920         1.0100       0.364750         2.1930
       4698.00        11.7970       107.3120        45.2190         1.0070         0.9590       0.358890         2.1890
       4698.50        11.8050       106.5620        46.1880         1.0190         1.0930       0.339360         2.2070
       4699.00        11.8050       106.0620        46.4060         1.0490         1.2700       0.345700         2.2340
       4699.50        11.8050       105.8750        47.2810         1.0670         1.4360       0.350590         2.2700
       4700.00        11.8050       106.5000        46.4380         1.0880         1.4140       0.362790         2.2810
       4700.50        11.8050       107.0620        46.3120         1.1150         1.3290       0.367680         2.2770
