~Version Information Block
VERS .                 2.00:  CWLS LOG ASCII STANDARD - VERSION 2.00
WRAP .                   NO:  One line per depth step
~Well Information Block
#MNEM.UNIT        Data Type   Information
#---------- ----------------  -----------
STRT .FT            1820.00:  START DEPTH
STOP .FT            4889.00:  STOP DEPTH
STEP .FT               0.50:  STEP
NULL .              -999.25:  NULL VALUE
COMP .                     :  COMPANY
WELL .                 UM-1:  WELL
FLD  .                     :  FIELD
LOC  .                     :  LOCATION
CTRY .                     :  COUNTRY
STAT .                     :  STATE
CNTY .                     :  COUNTY
SRVC .                     :  SERVICE COMPANY
DATE .                     :  DATE
API  .                     :  API NUMBER
UWI  .                     :  UNIQUE WELL ID
~Curve Information Block
#MNEM.UNIT         API CODE   Curve Description
#---------- ----------------  -----------------
DEPTH.FT                   :  DEPTH CURVE
CALI .IN                   :  
DT   .US/F                 :  
GR   .GAPI                 :  
ILD  .OHMM                 :  
MSFL .OHMM                 :  
NPHI_LS.V/V                  :  
RHOB .G/C3                 :  
~Parameter Information Block
#MNEM.UNIT            Value   Description
#---------- ----------------  -----------
PROJECT.     petro@kponwjlx001:  
SET  .                 WIRE:  
~Other Information Block
# 
~A       DEPTH           CALI             DT             GR            ILD           MSFL        NPHI_LS           RHOB 
# ...
       2222.00        12.2660        98.3120        34.0310         1.2690         1.7620       0.388180         2.1000
       2222.50        12.3670       101.8120        31.4220         1.3780         1.9840       0.417970         2.1050
       2223.00        12.3980        96.4380        30.1720         1.4560         2.4020       0.422360         2.1170
       2223.50        12.3750        96.7500        32.3750         1.4640         2.1610       0.403810         2.0860
       2224.00        12.3980        94.3120        35.2500         1.4440         3.5420       0.371580         2.0780
       2224.50        12.4690        97.8750        36.4380         1.4080         1.9310       0.369630         2.1050
       2225.00        12.4610       101.8120        33.8750         1.3780         4.0590       0.378910         2.1720
       2225.50        12.3910        99.3120        30.0470         1.3520         2.3690       0.406740         2.1890
       2226.00        12.3830       109.8750        27.8120         1.3510         1.5230       0.416020         2.1740
       2226.50        12.4300       112.5620        26.8590         1.3560         1.4560       0.433590         2.1560
       2227.00        12.5080       108.8120        26.9060         1.3760         1.3630       0.427730         2.1290
       2227.50        12.3830       110.0000        27.9220         1.3720         1.4270       0.419430         2.1230
       2228.00        12.5080       108.9380        29.3440         1.3720         1.5710       0.396000         2.1070
       2228.50        12.5940       112.0000        31.2660         1.3890         1.5420       0.390620         2.1110
       2229.00        12.5470       107.8120        31.6250         1.4130         1.8250       0.383300         2.1020
       2229.50        12.4690       101.5620        33.2500         1.4310         2.4470       0.396970         2.1050
       2230.00        12.4300       101.3750        31.6560         1.4560         2.1630       0.398930         2.1170
       2230.50        12.3830        99.3120        31.6250         1.4600         3.1640       0.406740         2.1350
       2231.00        12.3120       102.5000        30.2970         1.4410         2.7210       0.398440         2.1500
       2231.50        12.4610       104.7500        33.1880         1.4120         4.2140       0.399410         2.1070
       2232.00        12.3910       106.3120        33.5940         1.3830         1.6630       0.437990         2.0780
       2232.50        12.2420       108.4380        33.5940         1.3350         1.5590       0.435550         2.0390
       2233.00        12.2420       108.5620        32.0000         1.2900         1.3360       0.434570         2.0660
       2233.50        12.2270       109.2500        31.3910         1.2590         1.3270       0.394530         2.0680
       2234.00        12.3360       104.5000        30.1090         1.2240         1.5170       0.393550         2.0940
       2234.50        12.4140       107.9380        30.6250         1.1980         1.4870       0.390620         2.0980
       2235.00        12.3750       109.0000        30.5780         1.2030         2.2250       0.412110         2.1350
       2235.50        12.3590       101.9380        33.7190         1.2240         1.6540       0.439450         2.1700
       2236.00        12.4300       107.3750        33.1560         1.2210         1.1690       0.462400         2.2030
       2236.50        12.3980       105.1250        34.7500         1.2090         3.7600       0.455570         2.2190
       2237.00        12.4450       105.4380        32.5000         1.1910         2.2850       0.464840         2.1760
       2237.50        12.4610       109.7500        33.4380         1.1420         2.4420       0.448730         2.1330
       2238.00        12.3050       115.3120        32.4690         1.1190         2.1660       0.447750         2.0760
       2238.50        12.3440       113.8750        36.9380         1.1260         1.5150       0.429690         2.0760
       2239.00        12.4140       117.6250        38.7810         1.1020         1.2540       0.426760         2.0940
       2239.50        12.4220       120.5000        42.9060         1.0800         1.7320       0.415530         2.1390
       2240.00        12.4610       117.2500        40.3440         1.0870         1.6510       0.405760         2.1660
       2240.50        12.3980       117.0000        38.5940         1.0740         1.3070       0.418460         2.1950
       2241.00        12.3830       116.2500        34.7500         1.0610         1.6420       0.415530         2.1890
       2241.50        12.4610       115.7500        33.0940         1.1010         1.3720       0.427250         2.1760
       2242.00        12.5780       115.5000        33.9690         1.1450         1.3290       0.391110         2.1480
       2242.50        12.5000       118.6250        34.2500         1.1800         1.3950       0.421880         2.1270
       2243.00        12.4840       119.7500        34.5000         1.2370         1.7130       0.411620         2.0880
       2243.50        12.6090       113.1250        36.0620         1.2660         1.1300       0.434570         2.0640
       2244.00        12.5000       104.3750        35.4380         1.2030         1.0040       0.415530         2.0900
       2244.50        12.3120       110.2500        38.4060         1.0610         1.8690       0.399900         2.1560
       2245.00        12.4220       120.6250        39.4690         0.9010         5.2380       0.393070         2.1780
       2245.50        12.4770       141.2500        46.4380         0.7900         1.9130       0.398440         2.0610
       2246.00        12.7890       161.1250        48.9060         0.7220         0.7010       0.468750         1.9290
       2246.50        12.5390       172.3750        51.2500         0.6630         0.6590       0.483400         1.8480
       2247.00        12.4300       170.2500        53.1560         0.6000         0.6080       0.473630         1.8200
       2247.50        12.5860       169.3750        53.4060         0.5220         0.6250       0.437010         1.8160
       2248.00        12.9690       168.7500        54.7500         0.4710         0.6430       0.450680         1.8050
       2248.50        14.1800       167.5000        52.9380         0.4480         0.6310       0.465820         1.8150
       2249.00        14.2970       171.0000        56.4380         0.4380         0.5750       0.475590         1.8300
       2249.50        14.0310       171.6250        57.0620         0.4420         0.5780       0.500980         1.8480
       2250.00        13.6800       171.7500        59.4380         0.4520         0.5210       0.535640         1.8370
       2250.50        12.6640       171.6250        57.3120         0.4600         0.5420       0.542480         1.8190
       2251.00        12.9690       170.8750        56.1560         0.4610         0.5100       0.536130         1.8140
       2251.50        12.3120       171.6250        53.3750         0.4600         0.6800       0.526860         1.8420
       2252.00        12.3200       172.0000        54.4380         0.4590         0.7460       0.524900         1.8620
       2252.50        12.6800       170.0000        55.5620         0.4610         0.7080       0.508790         1.8750
       2253.00        13.1410       172.0000        56.8750         0.4660         0.6510       0.492680         1.8340
       2253.50        12.4300       174.7500        56.0620         0.4730         0.6660       0.503910         1.7920
       2254.00        12.6800       175.8750        55.5000         0.4790         0.6580       0.535160         1.7840
       2254.50        13.3050       175.6250        52.4380         0.4810         0.6460       0.532230         1.8160
       2255.00        13.7580       174.5000        53.9380         0.4830         0.7170       0.514160         1.8590
