~Version Information Block
VERS .                 2.00:  CWLS LOG ASCII STANDARD - VERSION 2.00
WRAP .                   NO:  One line per depth step
~Well Information Block
#MNEM.UNIT        Data Type   Information
#---------- ----------------  -----------
STRT .FT            1820.00:  START DEPTH
STOP .FT            4889.00:  STOP DEPTH
STEP .FT               0.50:  STEP
NULL .              -999.25:  NULL VALUE
COMP .                     :  COMPANY
WELL .                 UM-1:  WELL
FLD  .                     :  FIELD
LOC  .                     :  LOCATION
CTRY .                     :  COUNTRY
STAT .                     :  STATE
CNTY .                     :  COUNTY
SRVC .                     :  SERVICE COMPANY
DATE .                     :  DATE
API  .                     :  API NUMBER
UWI  .                     :  UNIQUE WELL ID
~Curve Information Block
#MNEM.UNIT         API CODE   Curve Description
#---------- ----------------  -----------------
DEPTH.FT                   :  DEPTH CURVE
CALI .IN                   :  
DT   .US/F                 :  
GR   .GAPI                 :  
ILD  .OHMM                 :  
MSFL .OHMM                 :  
NPHI_LS.V/V                  :  
RHOB .G/C3                 :  
~Parameter Information Block
#MNEM.UNIT            Value   Description
#---------- ----------------  -----------
PROJECT.     petro@kponwjlx001:  
SET  .                 WIRE:  
~Other Information Block
# 
~A       DEPTH           CALI             DT             GR            ILD           MSFL        NPHI_LS           RHOB 
# ...
       3026.00        12.2580       150.0000        72.1880         0.8080         1.0630       0.416020         2.1780
       3026.50        12.2660       148.7500        71.5000         0.8030         1.1940       0.423340         2.1780
       3027.00        12.3590       147.0000        70.3120         0.7960         1.0810       0.443850         2.1720
       3027.50        12.4450       144.6250        68.5000         0.7890         1.0540       0.460450         2.1580
       3028.00        12.4690       144.7500        70.1250         0.7910         1.0210       0.472660         2.1460
       3028.50        12.4690       144.8750        68.3120         0.8030         1.0380       0.471190         2.1460
       3029.00        12.3670       143.8750        67.6880         0.8270         1.0550       0.466310         2.1500
       3029.50        12.3980       139.0000        64.1880         0.8660         1.0820       0.452640         2.1760
       3030.00        12.3910       133.8750        62.8440         0.8910         1.1640       0.402830         2.1840
       3030.50        12.3050       131.0000        63.4380         0.8990         1.4400       0.363770         2.1760
       3031.00        12.2660       138.6250        68.2500         0.9000         1.8730       0.337890         2.1720
       3031.50        12.3050       145.5000        70.8120         0.9060         1.6020       0.369630         2.1780
       3032.00        12.3050       149.2500        71.8750         0.9270         1.2700       0.386720         2.1890
       3032.50        12.3050       152.2500        69.5620         0.9500         1.0630       0.408200         2.1860
       3033.00        12.3200       144.0000        73.3750         0.9580         1.0940       0.407710         2.1880
       3033.50        12.4060       137.1250        72.8750         0.9430         1.1210       0.429690         2.1990
       3034.00        12.4220       133.6250        72.1250         0.9280         1.1580       0.416500         2.2090
       3034.50        12.3050       131.1250        69.3750         0.9250         1.2860       0.412600         2.2190
       3035.00        12.3050       133.1250        70.8750         0.9410         1.4370       0.408690         2.2300
       3035.50        12.2660       136.8750        72.5620         0.9750         1.2640       0.417970         2.2400
       3036.00        12.2660       135.5000        73.4380         1.0400         1.2920       0.409180         2.2440
       3036.50        12.3200       129.8750        73.1880         1.1070         1.4540       0.389160         2.2500
       3037.00        12.3670       125.3750        71.5620         1.1660         1.6950       0.357420         2.2520
       3037.50        12.4060       121.5000        68.9380         1.1950         1.8480       0.343260         2.2520
       3038.00        12.4060       123.6250        67.5620         1.1840         1.9140       0.319340         2.2270
       3038.50        12.4610       127.1250        72.8120         1.1450         2.2670       0.328120         2.1990
       3039.00        12.4690       132.1250        78.5620         1.1090         2.2080       0.362790         2.1820
       3039.50        12.5000       138.5000        80.6250         1.0930         1.4470       0.382810         2.1860
       3040.00        12.5860       142.5000        81.0000         1.0860         1.2580       0.420410         2.1930
       3040.50        12.4140       145.7500        78.0620         1.0840         1.2140       0.396970         2.1890
       3041.00        12.3830       143.0000        78.8120         1.0880         1.1920       0.412110         2.1820
       3041.50        12.4140       136.2500        72.6250         1.0930         1.2040       0.383300         2.1890
       3042.00        12.3750       130.0000        66.0620         1.0970         1.4120       0.370610         2.2070
       3042.50        12.3360       123.3750        61.4690         1.1170         1.8630       0.345210         2.2300
       3043.00        12.3830       125.0000        62.8440         1.1430         2.0490       0.333010         2.2270
       3043.50        12.3830       129.2500        66.3750         1.1790         1.9670       0.348140         2.2190
       3044.00        12.3830       130.1250        69.0620         1.2190         1.6960       0.361330         2.2070
       3044.50        12.3830       128.0000        67.3750         1.2250         1.6170       0.375490         2.2010
       3045.00        12.3830       129.7500        68.3750         1.1710         1.6840       0.381840         2.1990
       3045.50        12.3280       132.2500        66.1250         1.0720         1.6530       0.386230         2.1890
       3046.00        12.3440       143.6250        68.4380         0.9970         1.7990       0.387210         2.1880
       3046.50        12.3440       148.7500        67.8750         0.9490         1.2930       0.404790         2.1840
       3047.00        12.3200       152.2500        73.3750         0.9160         1.2060       0.435550         2.1840
       3047.50        12.3590       147.0000        75.1250         0.9060         1.2510       0.455570         2.1880
       3048.00        12.4140       139.7500        75.8750         0.8940         1.2410       0.449710         2.1880
       3048.50        12.4300       137.3750        73.4380         0.8890         1.3540       0.448730         2.1970
       3049.00        12.4450       134.8750        70.8750         0.9110         1.4270       0.426270         2.2010
       3049.50        12.4610       132.0000        69.5620         0.9590         1.4640       0.413090         2.2130
       3050.00        12.4610       130.0000        66.4380         1.0350         1.5000       0.386720         2.2170
       3050.50        12.3670       127.1250        65.8120         1.1160         1.5880       0.381840         2.2320
       3051.00        12.2890       122.7500        63.5310         1.1900         1.9840       0.364750         2.2420
       3051.50        12.3200       121.8750        62.3440         1.2510         1.9120       0.344240         2.2500
       3052.00        12.3590       121.2500        63.7190         1.3450         1.9610       0.343750         2.2480
       3052.50        12.3440       121.6250        66.3120         1.4200         1.8540       0.356930         2.2460
       3053.00        12.3200       124.2500        66.9380         1.4770         1.7740       0.352540         2.2420
       3053.50        12.3050       126.2500        65.6880         1.4600         1.6630       0.337400         2.2320
       3054.00        12.2660       129.1250        65.5000         1.3360         1.7030       0.326660         2.1950
       3054.50        12.2110       137.6250        64.9380         1.1880         1.9920       0.330080         2.1660
       3055.00        12.1800       143.8750        67.8120         1.0550         1.7580       0.364260         2.1640
       3055.50        12.1250       150.1250        70.5000         0.9420         1.1140       0.396480         2.1700
       3056.00        12.1170       151.3750        74.0620         0.8730         0.9370       0.415040         2.1660
       3056.50        12.1410       150.7500        73.5000         0.8100         0.9620       0.429690         2.1520
       3057.00        12.2500       148.2500        71.1250         0.7670         0.9510       0.429690         2.1500
       3057.50        12.2660       152.8750        70.1250         0.7450         0.9430       0.454590         2.1620
       3058.00        12.3200       149.2500        68.3750         0.7440         0.9780       0.429200         2.1720
       3058.50        12.4140       143.8750        68.2500         0.7660         1.2580       0.408690         2.1910
       3059.00        12.4610       142.3750        65.3750         0.8070         1.4150       0.366210         2.2050
