~Version Information Block
VERS .                 2.00:  CWLS LOG ASCII STANDARD - VERSION 2.00
WRAP .                   NO:  One line per depth step
~Well Information Block
#MNEM.UNIT        Data Type   Information
#---------- ----------------  -----------
STRT .FT            1820.00:  START DEPTH
STOP .FT            4889.00:  STOP DEPTH
STEP .FT               0.50:  STEP
NULL .              -999.25:  NULL VALUE
COMP .                     :  COMPANY
WELL .                 UM-1:  WELL
FLD  .                     :  FIELD
LOC  .                     :  LOCATION
CTRY .                     :  COUNTRY
STAT .                     :  STATE
CNTY .                     :  COUNTY
SRVC .                     :  SERVICE COMPANY
DATE .                     :  DATE
API  .                     :  API NUMBER
UWI  .                     :  UNIQUE WELL ID
~Curve Information Block
#MNEM.UNIT         API CODE   Curve Description
#---------- ----------------  -----------------
DEPTH.FT                   :  DEPTH CURVE
CALI .IN                   :  
DT   .US/F                 :  
GR   .GAPI                 :  
ILD  .OHMM                 :  
MSFL .OHMM                 :  
NPHI_LS.V/V                  :  
RHOB .G/C3                 :  
~Parameter Information Block
#MNEM.UNIT            Value   Description
#---------- ----------------  -----------
PROJECT.     petro@kponwjlx001:  
SET  .                 WIRE:  
~Other Information Block
# 
~A       DEPTH           CALI             DT             GR            ILD           MSFL        NPHI_LS           RHOB 
# ...
       2624.00        13.2030       134.8750        67.0000         0.9090         1.3400       0.335450         2.2290
       2624.50        13.2030       134.5000        67.3120         0.9330         1.3170       0.327150         2.2320
       2625.00        13.2030       133.7500        67.1250         0.9520         1.2120       0.321780         2.2230
       2625.50        13.2190       133.3750        67.1250         0.9600         1.2880       0.338870         2.2150
       2626.00        13.2110       132.3750        70.5000         0.9440         1.2420       0.348630         2.1990
       2626.50        13.1800       134.6250        70.0000         0.9020         1.2660       0.354490         2.1950
       2627.00        13.1410       139.8750        70.5620         0.8420         1.2890       0.345210         2.1800
       2627.50        13.1020       145.2500        71.7500         0.7890         1.2360       0.351070         2.1580
       2628.00        13.0940       149.2500        74.0000         0.7390         0.8680       0.361330         2.1330
       2628.50        13.1020       151.7500        74.3750         0.6760         0.8520       0.383790         2.1230
       2629.00        13.0940       150.6250        70.9380         0.6170         0.9020       0.391110         2.1210
       2629.50        13.0620       152.1250        69.5000         0.5660         0.8370       0.395510         2.1250
       2630.00        13.0470       155.6250        71.3120         0.5220         0.7920       0.383300         2.1270
       2630.50        12.9450       156.6250        72.5620         0.5000         0.7370       0.404300         2.1190
       2631.00        12.9380       156.2500        71.3120         0.4930         0.7350       0.411620         2.1210
       2631.50        12.9380       153.7500        72.4380         0.4910         0.7160       0.418950         2.1190
       2632.00        12.9380       150.1250        70.8120         0.4930         0.8520       0.389160         2.1210
       2632.50        12.9450       145.8750        71.1880         0.4970         0.9030       0.354980         2.1190
       2633.00        12.9380       144.2500        69.0000         0.5030         0.9000       0.354490         2.1110
       2633.50        12.9530       144.6250        71.2500         0.5110         0.9390       0.347660         2.1020
       2634.00        13.0390       146.3750        72.7500         0.5210         0.9490       0.376460         2.1000
       2634.50        13.2030       147.7500        75.4380         0.5290         0.9220       0.391600         2.1150
       2635.00        13.2030       148.8750        72.0000         0.5360         0.8790       0.414550         2.1390
       2635.50        13.2030       149.6250        72.6880         0.5380         0.8800       0.403320         2.1480
       2636.00        13.2190       148.3750        66.6250         0.5360         0.8970       0.381840         2.1350
       2636.50        13.2190       147.5000        69.0000         0.5310         0.9160       0.368160         2.1190
       2637.00        13.2810       147.8750        68.6880         0.5260         0.9660       0.364750         2.1130
       2637.50        13.3120       148.6250        69.3750         0.5250         0.8990       0.353030         2.1130
       2638.00        13.3590       150.2500        68.5000         0.5250         0.9170       0.370120         2.1130
       2638.50        13.4060       151.3750        68.9380         0.5270         0.8520       0.396480         2.1110
       2639.00        13.3980       151.5000        71.3750         0.5250         0.8090       0.422850         2.1210
       2639.50        13.4450       151.0000        70.4380         0.5210         0.8490       0.421880         2.1410
       2640.00        13.4770       151.8750        70.9380         0.5170         0.8710       0.401370         2.1600
       2640.50        13.5000       152.2500        69.0000         0.5140         0.8220       0.401370         2.1580
       2641.00        13.4140       154.0000        70.1250         0.5200         0.7910       0.394530         2.1450
       2641.50        13.4690       154.1250        67.9380         0.5280         0.7640       0.428710         2.1290
       2642.00        13.4770       152.3750        69.5000         0.5340         0.8540       0.426760         2.1270
       2642.50        13.4770       150.7500        67.0620         0.5370         0.8190       0.405270         2.1350
       2643.00        13.4530       149.2500        69.2500         0.5390         0.8620       0.380860         2.1450
       2643.50        13.3830       150.0000        67.4380         0.5410         0.8610       0.367190         2.1460
       2644.00        13.2580       151.6250        71.1880         0.5430         0.7990       0.380370         2.1390
       2644.50        13.0390       153.0000        70.2500         0.5440         0.7500       0.378420         2.1250
       2645.00        13.1250       153.2500        72.6250         0.5440         0.7130       0.388670         2.1230
       2645.50        13.1330       152.5000        71.8750         0.5420         0.8130       0.391110         2.1310
       2646.00        13.1330       152.2500        72.5000         0.5390         0.8050       0.386230         2.1370
       2646.50        13.1480       152.2500        71.4380         0.5410         0.7930       0.379390         2.1330
       2647.00        13.1640       153.2500        70.5620         0.5520         0.7310       0.367680         2.1230
       2647.50        12.9380       153.3750        70.3120         0.5640         0.7650       0.374510         2.1210
       2648.00        12.9450       152.1250        69.5000         0.5740         0.7820       0.391110         2.1210
       2648.50        13.0470       152.2500        71.2500         0.5810         0.8080       0.394530         2.1290
       2649.00        13.0780       153.2500        70.8120         0.5840         0.8090       0.380370         2.1330
       2649.50        12.5550       155.6250        71.0000         0.5840         0.8270       0.379390         2.1290
       2650.00        12.4450       159.7500        72.1880         0.5800         0.7440       0.399410         2.1110
       2650.50        12.5000       162.6250        74.9380         0.5710         0.7450       0.421390         2.0900
       2651.00        12.6090       165.0000        74.6880         0.5600         0.7380       0.427730         2.0620
       2651.50        12.6560       167.7500        74.5620         0.5430         0.7310       0.432130         2.0570
       2652.00        12.5390       168.0000        70.1250         0.5240         0.7050       0.419430         2.0390
       2652.50        12.6560       169.2500        68.3120         0.5070         0.6780       0.407230         2.0570
       2653.00        12.9300       168.8750        64.1250         0.4920         0.6540       0.417970         2.0510
       2653.50        12.9380       167.8750        64.0000         0.4810         0.6540       0.450680         2.0640
       2654.00        12.8520       168.5000        64.3750         0.4740         0.6690       0.456050         2.0680
       2654.50        13.4530       168.0000        67.8120         0.4690         0.6580       0.437500         2.0550
       2655.00        12.8910       167.0000        66.5620         0.4660         0.7140       0.417480         2.0550
       2655.50        12.7340       166.1250        68.4380         0.4680         0.7040       0.434570         2.0490
       2656.00        12.6330       166.1250        65.8120         0.4730         0.6920       0.441890         2.0510
       2656.50        12.7970       164.8750        67.8120         0.4790         0.6910       0.438960         2.0430
       2657.00        12.7660       163.1250        66.5620         0.4910         0.6950       0.452150         2.0410
