~Version Information Block
VERS .                 2.00:  CWLS LOG ASCII STANDARD - VERSION 2.00
WRAP .                   NO:  One line per depth step
~Well Information Block
#MNEM.UNIT        Data Type   Information
#---------- ----------------  -----------
STRT .FT            1820.00:  START DEPTH
STOP .FT            4889.00:  STOP DEPTH
STEP .FT               0.50:  STEP
NULL .              -999.25:  NULL VALUE
COMP .                     :  COMPANY
WELL .                 UM-1:  WELL
FLD  .                     :  FIELD
LOC  .                     :  LOCATION
CTRY .                     :  COUNTRY
STAT .                     :  STATE
CNTY .                     :  COUNTY
SRVC .                     :  SERVICE COMPANY
DATE .                     :  DATE
API  .                     :  API NUMBER
UWI  .                     :  UNIQUE WELL ID
~Curve Information Block
#MNEM.UNIT         API CODE   Curve Description
#---------- ----------------  -----------------
DEPTH.FT                   :  DEPTH CURVE
CALI .IN                   :  
DT   .US/F                 :  
GR   .GAPI                 :  
ILD  .OHMM                 :  
MSFL .OHMM                 :  
NPHI_LS.V/V                  :  
RHOB .G/C3                 :  
~Parameter Information Block
#MNEM.UNIT            Value   Description
#---------- ----------------  -----------
PROJECT.     petro@kponwjlx001:  
SET  .                 WIRE:  
~Other Information Block
# 
~A       DEPTH           CALI             DT             GR            ILD           MSFL        NPHI_LS           RHOB 
       1820.00        12.5160        56.1250        39.5000      2000.0000         1.7090    -999.250000      -999.2500
       1820.50        12.5160        56.2500        40.5000      2000.0000         1.7470    -999.250000      -999.2500
       1821.00        12.5080        56.3120        39.1250      2000.0000         1.6830    -999.250000      -999.2500
       1821.50        12.5080        56.4380        38.0000      2000.0000         1.6480    -999.250000      -999.2500
       1822.00        12.5080        56.0620        38.4060      2000.0000         1.7350    -999.250000      -999.2500
       1822.50        12.5080        56.7500        36.1880      2000.0000         1.7070    -999.250000      -999.2500
       1823.00        12.5000        56.7500        32.9690      2000.0000         1.6630    -999.250000      -999.2500
       1823.50        12.5000        57.3750        31.2340      2000.0000         1.6240    -999.250000      -999.2500
       1824.00        12.5000        58.0620        32.8440      2000.0000         1.7110    -999.250000      -999.2500
       1824.50        12.4920        58.3120        35.1250      2000.0000         1.4660    -999.250000      -999.2500
       1825.00        12.5000        57.5000        35.5310      2000.0000         1.7400    -999.250000      -999.2500
       1825.50        12.5230        56.5620        35.9690      2000.0000         1.5540    -999.250000      -999.2500
       1826.00        12.5230        56.1880        36.7190      2000.0000         1.5880    -999.250000      -999.2500
       1826.50        12.5230        56.2500        34.9380      2000.0000         1.7060    -999.250000      -999.2500
       1827.00        12.5230        56.1880        33.1560      2000.0000         1.6530    -999.250000      -999.2500
       1827.50        12.5230        56.0620        34.9060      2000.0000         1.5890    -999.250000      -999.2500
       1828.00        12.5230        56.1250        37.8750      2000.0000         1.5810    -999.250000      -999.2500
       1828.50        12.5230        56.5000        38.3750      2000.0000         1.5450    -999.250000      -999.2500
       1829.00        12.5230        56.4380        37.0310      2000.0000         1.5210    -999.250000      -999.2500
       1829.50        12.5230        56.5000        37.3440      2000.0000         1.4960    -999.250000      -999.2500
       1830.00        12.5230        56.3120        39.2500      2000.0000         1.5450    -999.250000      -999.2500
       1830.50        12.5310        56.4380        38.3120      2000.0000         1.4480    -999.250000      -999.2500
       1831.00        12.5230        56.6880        38.2810      2000.0000         1.4180    -999.250000      -999.2500
       1831.50        12.5230        56.3750        36.8440      2000.0000         1.4400    -999.250000      -999.2500
       1832.00        12.5230        56.3120        37.7810      2000.0000         1.4700    -999.250000      -999.2500
       1832.50        12.5230        56.3750        36.0940      2000.0000         1.5210    -999.250000      -999.2500
       1833.00        12.5230        56.3750        37.2500      2000.0000         1.5340    -999.250000      -999.2500
       1833.50        12.5230        56.3120        35.9060      2000.0000         1.5800    -999.250000      -999.2500
       1834.00        12.5230        56.4380        36.9690      2000.0000         1.5530       0.519040         1.9570
       1834.50        12.5230        56.5620        36.0000      2000.0000         1.5780       0.565430         1.9430
       1835.00        12.5230        56.4380        36.0620      2000.0000         1.6030       0.604000         1.9240
       1835.50        12.5230        56.3750        35.5000      2000.0000         1.5660       0.576660         1.8990
       1836.00        12.5230        56.6250        33.3750      2000.0000         1.5470       0.594730         1.8680
       1836.50        12.5230        56.6880        31.1720      2000.0000         1.5410       0.593260         1.8540
       1837.00        12.5310        56.5620        31.5940      2000.0000         1.5280       0.599610         1.8540
       1837.50        12.5230        56.6250        32.2500      2000.0000         1.4980       0.580080         1.8760
       1838.00        12.5230        56.5620        35.4690      2000.0000         1.4930       0.553710         1.9040
       1838.50        12.5230        56.8120        34.9380      2000.0000         1.4860       0.575200         1.9230
       1839.00        12.5230        56.6250        36.5310      2000.0000         1.5110       0.550780         1.9400
       1839.50        12.5310        56.8750        35.9380      2000.0000         1.5710       0.552730         1.9380
       1840.00        12.5230        57.5000        37.3750      2000.0000         1.5330       0.549320         1.9210
       1840.50        12.5310        58.3750        37.8120      2000.0000         1.4820       0.557130         1.9120
       1841.00        12.5230        65.4380        37.7810      2000.0000         1.5130       0.581540         1.9150
       1841.50        12.5230        58.3750        37.7810      2000.0000         1.5410       0.563480         1.9380
       1842.00        12.5230        59.2500        37.0310      2000.0000         1.5510       0.545410         1.9460
       1842.50        12.5230        66.6880        38.8440      2000.0000         1.5800       0.523440         1.9770
       1843.00        12.5230        66.1880        37.5940      2000.0000         1.5600       0.538570         2.0350
       1843.50        12.5620        65.3120        37.6250      2000.0000         1.5490       0.546880         2.0940
       1844.00        12.5620        58.6880        33.4380      2000.0000         1.6390       0.568360         2.0620
       1844.50        12.5620        58.0000        34.2500      2000.0000         1.6770       0.541020         2.0000
       1845.00        12.5620        58.4380        33.8440      2000.0000         1.6060       0.533690         1.9450
       1845.50        12.5620        58.3120        37.4380      2000.0000         1.5760       0.520020         1.9450
       1846.00        12.5620        57.6250        36.8440      2000.0000         1.5380       0.534180         1.9490
       1846.50        12.5470        57.5000        36.4690      2000.0000         1.5770       0.552250         1.9530
       1847.00        12.5470        57.0000        37.0310      2000.0000         1.5470       0.534670         1.9570
       1847.50        12.5470        56.8750        38.9380      2000.0000         1.5300       0.526370         1.9580
       1848.00        12.5470        56.8120        41.3440      2000.0000         1.5400       0.524900         1.9510
       1848.50        12.5470        57.0000        40.3120      2000.0000         1.5420       0.555660         1.9530
       1849.00        12.5470        57.1880        38.9690      2000.0000         1.5040       0.570310         1.9590
       1849.50        12.5470        57.0000        37.5940      2000.0000         1.4850       0.555660         1.9800
       1850.00        12.5470        58.3750        38.0620      2000.0000         1.4510       0.527340         1.9830
       1850.50        12.5470        58.1250        37.4690      2000.0000         1.5140       0.522950         1.9950
       1851.00        12.5230        59.3750        37.4060      2000.0000         1.6010       0.536620         2.0000
       1851.50        12.5230        59.0620        35.5620      2000.0000         1.5410       0.565430         2.0020
       1852.00        12.5230        58.3120        35.9380      2000.0000         1.5510       0.594730         2.0000
       1852.50        12.5310        58.4380        38.3750      2000.0000         1.6180       0.622070         2.0060
       1853.00        12.5310        57.8120        38.4060      2000.0000         1.6550       0.615720         2.0200
